{"version": 0.6, "generator": "Overpass API 0.7.60 f4c14d41", "osm3s": {"timestamp_osm_base": "2023-05-02T21:20:24Z", "copyright": "The data included in this document is from www.openstreetmap.org. The data is made available under ODbL."}, "elements": [{"type": "node", "id": 25213384, "lat": 48.8346767, "lon": 2.266146, "tags": {"addr:postcode": "75015", "address": "Quai d'Issy-les-Moulineaux - Porte d'Issy", "amenity": "fuel", "brand": "Total Access", "brand:wikidata": "Q154037", "brand:wikipedia": "fr:TotalEnergies", "compressed_air": "yes", "fuel:GTL_diesel": "yes", "fuel:adblue": "yes", "fuel:diesel": "yes", "fuel:e10": "yes", "fuel:e85": "yes", "fuel:octane_98": "yes", "name": "Relais Total Du Pont Aval", "opening_hours": "24/7", "operator": "Total", "ref:FR:prix-carburants": "75015026", "shop": "convenience", "source": "Minist\u00e8re de l'Economie, de l'Industrie et du Num\u00e9rique - 03/2020", "toilets": "yes", "vending": "fuel", "vending_machine": "fuel"}}, {"type": "node", "id": 259284911, "lat": 48.8391995, "lon": 2.2925362, "tags": {"amenity": "fuel", "brand": "BP", "brand:wikidata": "Q152057", "brand:wikipedia": "fr:BP (entreprise)", "compressed_air": "yes", "fuel:diesel": "yes", "fuel:e10": "yes", "fuel:octane_98": "yes", "name": "BP", "opening_hours": "24/7", "ref:FR:prix-carburants": "75015003", "shop": "convenience", "source": "Minist\u00e8re de l'Economie, de l'Industrie et du Num\u00e9rique - 03/2020", "toilets": "yes"}}, {"type": "node", "id": 268058252, "lat": 48.8461451, "lon": 2.3241196, "tags": {"brand": "Franprix", "brand:wikidata": "Q2420096", "brand:wikipedia": "fr:Franprix", "name": "Franprix", "opening_hours": "Mo-Sa 07:30-22:00; Su 09:00-22:00", "operator": "Groupe Casino", "shop": "convenience"}}, {"type": "node", "id": 270807425, "lat": 48.8669014, "lon": 2.3470962, "tags": {"addr:city": "Paris", "brand": "Utile", "brand:wikidata": "Q2529029", "brand:wikipedia": "en:Syst\u00e8me U", "level": "0", "name": "Utile", "opening_hours": "Mo-Sa 08:30-21:00, Su 09:00-13:00", "operator": "Syst\u00e8me U", "shop": "convenience", "source": "survey 01/2019", "wheelchair": "yes"}}, {"type": "node", "id": 270808172, "lat": 48.8642239, "lon": 2.3465014, "tags": {"brand": "Franprix", "brand:wikidata": "Q2420096", "brand:wikipedia": "fr:Franprix", "name": "Franprix", "opening_hours": "Mo-Sa 08:00-21:50; Su 09:00-12:00", "shop": "convenience"}}, {"type": "node", "id": 286818703, "lat": 48.8729563, "lon": 2.3536136, "tags": {"alt_name": "Papica", "brand": "Franprix", "brand:wikidata": "Q2420096", "brand:wikipedia": "fr:Franprix", "check_date": "2022-09-01", "int_name": "Franprix", "name": "Franprix", "old_name": "Habarnam", "operator": "Groupe Casino", "shop": "convenience"}}, {"type": "node", "id": 288157892, "lat": 48.8550047, "lon": 2.401549, "tags": {"brand": "Franprix", "brand:wikidata": "Q2420096", "brand:wikipedia": "fr:Franprix", "name": "Franprix", "opening_hours": "Mo-Su 08:30-21:00; Su 09:00-13:00", "operator": "Groupe Casino", "shop": "convenience"}}, {"type": "node", "id": 293986500, "lat": 48.8666873, "lon": 2.3679348, "tags": {"name": "Alimentation G\u00e9nr\u00e9ale Blue", "shop": "convenience"}}, {"type": "node", "id": 293986549, "lat": 48.8632059, "lon": 2.3863208, "tags": {"brand": "Franprix", "brand:wikidata": "Q2420096", "brand:wikipedia": "fr:Franprix", "name": "Franprix", "operator": "Groupe Casino", "shop": "convenience"}}, {"type": "node", "id": 294038636, "lat": 48.8785823, "lon": 2.3740899, "tags": {"brand": "Franprix", "brand:wikidata": "Q2420096", "brand:wikipedia": "fr:Franprix", "name": "Franprix", "opening_hours": "Mo-Sa 07:30-21:00; Su 08:30-21:00", "opening_hours:covid19": "open", "operator": "Groupe Casino", "shop": "convenience", "wheelchair": "yes"}}, {"type": "node", "id": 294039730, "lat": 48.8788548, "lon": 2.3712947, "tags": {"check_date": "2023-03-09", "name": "Cours des halles", "opening_hours:covid19": "open", "shop": "convenience"}}, {"type": "node", "id": 294282586, "lat": 48.8435833, "lon": 2.390788, "tags": {"brand": "Franprix", "brand:wikidata": "Q2420096", "brand:wikipedia": "fr:Franprix", "contact:phone": "+33 1 40 02 08 57", "name": "Franprix", "opening_hours": "Mo-Su 08:30-21:00; Sa 08:30-20:00", "operator": "Groupe Casino", "shop": "convenience", "wheelchair": "yes"}}, {"type": "node", "id": 304964998, "lat": 48.8739383, "lon": 2.3578883, "tags": {"brand": "Franprix", "brand:wikidata": "Q2420096", "brand:wikipedia": "fr:Franprix", "check_date": "2023-01-26", "name": "Franprix", "opening_hours": "Mo-Sa 08:00-21:45, Su 09:00-11:45", "operator": "Groupe Casino", "shop": "convenience", "wheelchair": "limited"}}, {"type": "node", "id": 315786707, "lat": 48.844575, "lon": 2.3454978, "tags": {"brand": "Franprix", "brand:wikidata": "Q2420096", "brand:wikipedia": "fr:Franprix", "check_date:opening_hours": "2022-06-10", "name": "Franprix", "opening_hours": "Mo-Sa 08:30-21:00", "shop": "convenience", "wheelchair": "yes"}}, {"type": "node", "id": 321003811, "lat": 48.834385, "lon": 2.3557036, "tags": {"brand": "Franprix", "brand:wikidata": "Q2420096", "brand:wikipedia": "fr:Franprix", "name": "Franprix", "operator": "Groupe Casino", "shop": "convenience"}}, {"type": "node", "id": 321932887, "lat": 48.8406857, "lon": 2.3453388, "tags": {"level": "0", "name": "Sitis Market", "opening_hours": "Mo-Sa 07:30-22:30", "opening_hours:covid19": "open", "operator": "SiTiS", "payment:credit_cards": "yes", "payment:debit_cards": "yes", "shop": "convenience", "toilets": "no", "wheelchair": "yes"}}, {"type": "node", "id": 326334727, "lat": 48.8619244, "lon": 2.380561, "tags": {"brand": "Monop'", "brand:wikidata": "Q89913683", "brand:wikipedia": "fr:Monoprix (France)", "name": "Monop'", "opening_hours": "Mo-Sa 08:30-24:00; Su 09:00-20:00", "operator": "Groupe Casino", "phone": "+33 1 55 28 38 70", "shop": "convenience", "website": "https://www.monoprix.fr/monop-saint-ambroise-paris-75011-s"}}, {"type": "node", "id": 326948277, "lat": 48.8801829, "lon": 2.3650646, "tags": {"brand": "Franprix", "brand:wikidata": "Q2420096", "brand:wikipedia": "fr:Franprix", "name": "Franprix", "opening_hours": "Mo-Sa 07:30-22:00; Su 08:30-12:00+", "opening_hours:covid19": "same", "operator": "Groupe Casino", "shop": "convenience", "toilets:wheelchair": "no", "wheelchair": "yes"}}, {"type": "node", "id": 327570495, "lat": 48.863505, "lon": 2.3812718, "tags": {"addr:city": "Paris", "addr:housenumber": "65", "addr:postcode": "75011", "addr:street": "Rue Servan", "brand": "Franprix", "brand:wikidata": "Q2420096", "brand:wikipedia": "fr:Franprix", "name": "Franprix", "opening_hours": "Mo-Sa 07:30-22:00; Su 09:00-19:00", "operator": "Groupe Casino", "shop": "convenience"}}, {"type": "node", "id": 340402107, "lat": 48.8506007, "lon": 2.3901866, "tags": {"brand": "Franprix", "brand:wikidata": "Q2420096", "brand:wikipedia": "fr:Franprix", "check_date": "2023-04-02", "name": "Franprix", "opening_hours": "Mo 08:30-21:00; Tu 08:30-21:00; We 08:30-21:00; Th 08:30-21:00; Fr 08:30-21:00; Sa 08:30-21:00; Su \"non communiqu\u00e9\"", "operator": "Groupe Casino", "shop": "convenience", "website": "http://www.franprix.fr/paris/63-69-rue-de-montreuil/75011/5569/"}}, {"type": "node", "id": 408501350, "lat": 48.8979715, "lon": 2.3359868, "tags": {"brand": "CocciMarket City", "brand:wikidata": "Q17561658", "name": "CocciMarket City", "shop": "convenience", "source": "Observations personnelles"}}, {"type": "node", "id": 416548854, "lat": 48.8671547, "lon": 2.3728976, "tags": {"air_conditioning": "yes", "brand": "Franprix", "brand:wikidata": "Q2420096", "brand:wikipedia": "fr:Franprix", "check_date": "2023-03-11", "level": "0", "name": "Franprix", "opening_hours:covid19": "open", "operator": "Groupe Casino", "payment:credit_cards": "yes", "payment:mastercard": "yes", "payment:visa": "yes", "shop": "convenience", "wheelchair": "yes"}}, {"type": "node", "id": 416631577, "lat": 48.8726806, "lon": 2.3713825, "tags": {"brand": "Franprix", "brand:wikidata": "Q2420096", "brand:wikipedia": "fr:Franprix", "check_date": "2023-04-13", "name": "Franprix", "opening_hours": "Mo-Sa 07:30-22:00; Su 09:00-22:00", "opening_hours:covid19": "open", "operator": "Franprix", "shop": "convenience", "source": "survey 2013", "wheelchair": "yes"}}, {"type": "node", "id": 418510262, "lat": 48.8321107, "lon": 2.3224346, "tags": {"brand": "CocciMarket", "brand:wikidata": "Q90020480", "name": "CocciMarket", "shop": "convenience"}}, {"type": "node", "id": 428060860, "lat": 48.8479031, "lon": 2.3773962, "tags": {"addr:city": "Paris", "addr:housenumber": "4", "addr:postcode": "75012", "addr:street": "Rue d'Aligre", "brand": "Franprix", "brand:wikidata": "Q2420096", "brand:wikipedia": "fr:Franprix", "check_date:opening_hours": "2022-04-18", "name": "Franprix", "opening_hours": "Mo-Sa 09:00-21:00; Su 09:00-13:00", "operator": "Groupe Casino", "shop": "convenience", "wheelchair": "yes"}}, {"type": "node", "id": 428064258, "lat": 48.8453649, "lon": 2.3807543, "tags": {"name": "\u00c9picerie nouvelle", "shop": "convenience"}}, {"type": "node", "id": 442547234, "lat": 48.8690474, "lon": 2.3715118, "tags": {"brand": "Carrefour Express", "brand:wikidata": "Q2940190", "brand:wikipedia": "fr:Carrefour Express", "check_date": "2023-03-11", "internet_access": "no", "level": "0", "name": "Carrefour Express", "opening_hours": "Mo-Sa 08:00-23:00; Su 09:00-23:00", "opening_hours:covid19": "open", "operator": "Groupe Carrefour", "operator:wikidata": "Q3117359", "operator:wikipedia": "fr:Groupe Carrefour", "payment:credit_cards": "yes", "payment:mastercard": "yes", "payment:visa": "yes", "shop": "convenience", "wheelchair": "yes"}}, {"type": "node", "id": 463700064, "lat": 48.8834355, "lon": 2.3203247, "tags": {"brand": "Franprix", "brand:wikidata": "Q2420096", "brand:wikipedia": "fr:Franprix", "name": "Franprix", "opening_hours": "Mo-Sa 07:30-21:00; Su 09:00-14:00+", "operator": "Groupe Casino", "shop": "convenience", "wheelchair": "yes"}}, {"type": "node", "id": 463705952, "lat": 48.8850436, "lon": 2.3209236, "tags": {"brand": "Carrefour Express", "brand:wikidata": "Q2940190", "brand:wikipedia": "fr:Carrefour Express", "name": "Carrefour Express Paris Batignolles", "opening_hours": "Mo-Su 08:00-22:00", "operator": "Carrefour Express", "phone": "+33 1 43871883", "shop": "convenience", "website": "https://www.carrefour.fr/magasin/express-paris-batignolles"}}, {"type": "node", "id": 467750408, "lat": 48.8284241, "lon": 2.2731806, "tags": {"brand": "Franprix", "brand:wikidata": "Q2420096", "brand:wikipedia": "fr:Franprix", "name": "Franprix", "opening_hours:covid19": "open", "operator": "Groupe Casino", "shop": "convenience", "source": "cadastre-dgi-fr source : Direction G\u00e9n\u00e9rale des Imp\u00f4ts - Cadastre. Mise \u00e0 jour : 2009"}}, {"type": "node", "id": 472351945, "lat": 48.8357133, "lon": 2.4054545, "tags": {"brand": "Franprix", "brand:wikidata": "Q2420096", "brand:wikipedia": "fr:Franprix", "name": "Franprix", "opening_hours": "Mo-Sa 08:00-21:30; Su 08:30-13:00", "operator": "Groupe Casino", "shop": "convenience", "wheelchair": "yes"}}, {"type": "node", "id": 477205242, "lat": 48.8771503, "lon": 2.4022052, "tags": {"brand": "Franprix", "brand:wikidata": "Q2420096", "brand:wikipedia": "fr:Franprix", "name": "Franprix", "opening_hours": "Mo-Sa 07:30-22:00; Su 09:00-20:00", "operator": "Groupe Casino", "shop": "convenience"}}, {"type": "node", "id": 477205243, "lat": 48.8764269, "lon": 2.4060295, "tags": {"brand": "Franprix", "brand:wikidata": "Q2420096", "brand:wikipedia": "fr:Franprix", "name": "Franprix", "operator": "Groupe Casino", "shop": "convenience"}}, {"type": "node", "id": 486592818, "lat": 48.8269217, "lon": 2.3424795, "tags": {"brand": "Franprix", "brand:wikidata": "Q2420096", "brand:wikipedia": "fr:Franprix", "name": "Franprix", "operator": "Groupe Casino", "shop": "convenience"}}, {"type": "node", "id": 494225703, "lat": 48.8262033, "lon": 2.3651094, "tags": {"brand": "Franprix", "brand:wikidata": "Q2420096", "brand:wikipedia": "fr:Franprix", "layer": "2", "level": "2", "name": "Franprix", "opening_hours": "Mo-Sa 08:00-21:00; Su 09:00-21:00", "operator": "Groupe Casino", "shop": "convenience", "source": "cadastre-dgi-fr source : Direction G\u00e9n\u00e9rale des Imp\u00f4ts - Cadastre. Mise \u00e0 jour : 2009", "toilets": "no", "wheelchair": "yes"}}, {"type": "node", "id": 496122162, "lat": 48.8595538, "lon": 2.3756962, "tags": {"addr:city": "Paris", "addr:housenumber": "47", "addr:postcode": "75011", "addr:street": "Rue Popincourt", "brand": "Franprix", "brand:wikidata": "Q2420096", "brand:wikipedia": "fr:Franprix", "name": "Franprix", "opening_hours": "Mo-Sa 07:30-22:00; Su 09:00-13:00", "operator": "Groupe Casino", "shop": "convenience"}}, {"type": "node", "id": 508588020, "lat": 48.8490537, "lon": 2.3788229, "tags": {"brand": "Franprix", "brand:wikidata": "Q2420096", "brand:wikipedia": "fr:Franprix", "name": "Franprix", "note:fr": "Grand Franprix, disposant d'une boucherie", "opening_hours": "Mo-Sa 08:00-22:00; 08:00-12:30", "operator": "Groupe Casino", "shop": "convenience", "wheelchair": "yes"}}, {"type": "node", "id": 508588041, "lat": 48.8514675, "lon": 2.3786088, "tags": {"brand": "Franprix", "brand:wikidata": "Q2420096", "brand:wikipedia": "fr:Franprix", "name": "Franprix", "opening_hours": "Mo-Sa 08:30-21:00; Su 09:00-21:00", "operator": "Groupe Casino", "shop": "convenience"}}, {"type": "node", "id": 508597067, "lat": 48.8502563, "lon": 2.3793036, "tags": {"addr:city": "Paris", "addr:housenumber": "34", "addr:postcode": "75012", "addr:street": "Rue d'Aligre", "bulk_purchase": "yes", "name": "Les Nouveaux Robinson", "opening_hours": "Mo 13:00-20:00; Tu-Sa 10:00-20:00; Su 09:30-12:45", "operator": "Bio G\u00e9n\u00e9ration", "organic": "only", "phone": "+33 1 43 42 53 23", "shop": "convenience", "website": "http://lesnouveauxrobinson.coop/magasins/aligre/"}}, {"type": "node", "id": 521449656, "lat": 48.8377927, "lon": 2.3194776, "tags": {"brand": "Franprix", "brand:wikidata": "Q2420096", "brand:wikipedia": "fr:Franprix", "level": "0", "name": "Franprix", "opening_hours": "Mo-Sa 07:00-22:00; Su 08:30-22:00", "shop": "convenience", "toilets": "no", "wheelchair": "designated"}}, {"type": "node", "id": 530272905, "lat": 48.8462369, "lon": 2.3724753, "tags": {"addr:city": "Paris", "brand": "Monop'", "brand:wikidata": "Q89913683", "brand:wikipedia": "fr:Monoprix (France)", "name": "Monop'", "operator": "Groupe Casino", "shop": "convenience", "survey:date": "2019-02-04", "website": "https://www.monoprix.fr/"}}, {"type": "node", "id": 532261595, "lat": 48.84429, "lon": 2.2852335, "tags": {"contact:city": "Paris", "contact:housenumber": "93", "contact:postcode": "75015", "contact:street": "Rue de Javel", "name": "Chez Miha", "shop": "convenience"}}, {"type": "node", "id": 534903720, "lat": 48.8461821, "lon": 2.3751034, "tags": {"brand": "Franprix", "brand:wikidata": "Q2420096", "brand:wikipedia": "fr:Franprix", "name": "Franprix", "opening_hours": "Mo-Sa 08:30-21:00", "operator": "Franprix", "phone": "+33 1 43 45 43 48", "shop": "convenience"}}, {"type": "node", "id": 534910050, "lat": 48.8458636, "lon": 2.3752711, "tags": {"contact:housenumber": "26bis", "contact:street": "Boulevard Diderot", "name": "Gastronom \u211612", "name:ru": "\u0413\u0430\u0441\u0442\u0440\u043e\u043d\u043e\u043c", "phone": "+33143416583", "shop": "convenience"}}, {"type": "node", "id": 534914737, "lat": 48.8468871, "lon": 2.3743635, "tags": {"name": "Gourmet Gourmand", "opening_hours": "Tu-Sa 11:30-15:30,17:30-21:00", "phone": "+33 1 46 28 13 50", "shop": "convenience", "website": "http://gourmet-gourmand.fr"}}, {"type": "node", "id": 534915537, "lat": 48.8467292, "lon": 2.3732173, "tags": {"name": "Petit March\u00e9", "shop": "convenience", "survey:date": "2020-07-21"}}, {"type": "node", "id": 546475280, "lat": 48.8769023, "lon": 2.3218472, "tags": {"brand": "Franprix", "brand:wikidata": "Q2420096", "brand:wikipedia": "fr:Franprix", "name": "Franprix", "shop": "convenience", "wheelchair": "limited"}}, {"type": "node", "id": 549993118, "lat": 48.8201447, "lon": 2.3436484, "tags": {"brand": "Franprix", "brand:wikidata": "Q2420096", "brand:wikipedia": "fr:Franprix", "diet:halal": "yes", "diet:kosher": "yes", "name": "Franprix", "opening_hours": "Mo-Sa 07:30-21:00; Su 09:00-13:00", "operator": "Groupe Casino", "shop": "convenience", "wheelchair": "yes"}}, {"type": "node", "id": 550020202, "lat": 48.8220297, "lon": 2.3464763, "tags": {"addr:city": "Paris", "addr:housenumber": "5", "addr:postcode": "75013", "addr:street": "Place de Rungis", "brand": "Franprix", "brand:wikidata": "Q2420096", "brand:wikipedia": "fr:Franprix", "name": "Franprix", "opening_hours": "Mo-Sa 08:30-20:30; Su 08:30-13:00", "operator": "Groupe Casino", "shop": "convenience", "wheelchair": "yes"}}, {"type": "node", "id": 589495681, "lat": 48.8548542, "lon": 2.4016977, "tags": {"name": "Produits Exotiques", "shop": "convenience"}}, {"type": "node", "id": 609211315, "lat": 48.8350716, "lon": 2.3853476, "tags": {"brand": "Petit Casino", "brand:wikidata": "Q89029249", "level": "0", "name": "Petit Casino", "opening_hours": "Mo-Su 08:00-23:00", "operator": "Casino", "shop": "convenience", "wheelchair": "yes"}}, {"type": "node", "id": 616578513, "lat": 48.8952644, "lon": 2.3398942, "tags": {"brand": "Franprix", "brand:wikidata": "Q2420096", "brand:wikipedia": "fr:Franprix", "name": "Franprix", "operator": "Groupe Casino", "shop": "convenience"}}, {"type": "node", "id": 621145459, "lat": 48.8927822, "lon": 2.3303046, "tags": {"brand": "Franprix", "brand:wikidata": "Q2420096", "brand:wikipedia": "fr:Franprix", "name": "Franprix", "opening_hours": "Mo-Sa 07:30-21:00; Su 08:30-20:00", "operator": "Groupe Casino", "shop": "convenience"}}, {"type": "node", "id": 625171506, "lat": 48.8323948, "lon": 2.3645635, "tags": {"amenity": "fuel", "brand": "BP", "brand:wikidata": "Q152057", "brand:wikipedia": "fr:BP (entreprise)", "compressed_air": "yes", "fuel:diesel": "yes", "fuel:e10": "yes", "fuel:octane_98": "yes", "name": "BP", "opening_hours": "24/7", "operator": "BP", "ref:FR:prix-carburants": "75013028", "shop": "convenience", "source": "Minist\u00e8re de l'Economie, de l'Industrie et du Num\u00e9rique - 03/2020", "toilets": "yes", "wheelchair": "no"}}, {"type": "node", "id": 629651840, "lat": 48.8410299, "lon": 2.331839, "tags": {"name": "Rapid' Market", "opening_hours": "08:00-02:00", "shop": "convenience"}}, {"type": "node", "id": 629714405, "lat": 48.8461529, "lon": 2.2991571, "tags": {"contact:city": "Paris", "contact:housenumber": "35", "contact:phone": "+33 1 43 06 54 80", "contact:postcode": "75015", "contact:street": "Rue de la Croix Nivert", "name": "Gastronomie Russe", "name:ru": "\u0413\u0430\u0441\u0442\u0440\u043e\u043d\u043e\u043c\u044a", "shop": "convenience"}}, {"type": "node", "id": 629775176, "lat": 48.8814741, "lon": 2.3185412, "tags": {"name": "Gastronomie Russe", "name:ru": "\u0413\u0430\u0441\u0442\u0440\u043e\u043d\u043e\u043c\u044a", "opening_hours": "Mo-Sa 10:00-20:00", "phone": "+33142931043", "shop": "convenience", "wheelchair": "no"}}, {"type": "node", "id": 629824653, "lat": 48.8239394, "lon": 2.3202519, "tags": {"name": "Daniel-Yan", "old_name": "\u0413\u0430\u0441\u0442\u0440\u043e\u043d\u043e\u043c\u044a", "origin": "slavic", "shop": "convenience"}}, {"type": "node", "id": 629866756, "lat": 48.8448296, "lon": 2.3096526, "tags": {"access:covid19": "yes", "description": "\u00c9picerie Russe", "name": "Prestige", "opening_hours:covid19": "open", "shop": "convenience", "source": "survey"}}, {"type": "node", "id": 658960147, "lat": 48.8763021, "lon": 2.3355074, "tags": {"brand": "Franprix", "brand:wikidata": "Q2420096", "brand:wikipedia": "fr:Franprix", "name": "Franprix", "operator": "Groupe Casino", "shop": "convenience", "wheelchair": "limited"}}, {"type": "node", "id": 667281517, "lat": 48.8263743, "lon": 2.3872012, "tags": {"amenity": "fuel", "brand": "Total", "brand:wikidata": "Q154037", "brand:wikipedia": "fr:TotalEnergies", "fuel:diesel": "yes", "fuel:e10": "yes", "fuel:octane_98": "yes", "name": "Total", "opening_hours": "24/7", "ref:FR:prix-carburants": "75013023", "shop": "convenience", "source": "Minist\u00e8re de l'Economie, de l'Industrie et du Num\u00e9rique - 22/10/2016", "wheelchair": "no"}}, {"type": "node", "id": 667304730, "lat": 48.84583, "lon": 2.3934065, "tags": {"name": "Proxy Super", "opening_hours": "Mo-Sa 08:00-22:00; Su 09:00-22:00", "shop": "convenience", "wheelchair": "no"}}, {"type": "node", "id": 667305412, "lat": 48.8505303, "lon": 2.3868812, "tags": {"check_date": "2023-03-19", "shop": "convenience"}}, {"type": "node", "id": 667338294, "lat": 48.8652546, "lon": 2.3630352, "tags": {"name": "Goumanyat et son Royaume", "shop": "convenience"}}, {"type": "node", "id": 667338336, "lat": 48.8645589, "lon": 2.3571521, "tags": {"level": "0", "name": "Supermarch\u00e9 Volta", "shop": "convenience", "wheelchair": "yes"}}, {"type": "node", "id": 667338352, "lat": 48.8289167, "lon": 2.3290909, "tags": {"name": "Vel Alimentation", "opening_hours": "Su-Th 10:30-24:00, Fr,Sa 10:30-01:00", "shop": "convenience", "survey:date": "2020-03-14"}}, {"type": "node", "id": 670432622, "lat": 48.8456142, "lon": 2.3845404, "tags": {"alt_name": "Shayani market", "contact:city": "Paris", "contact:housenumber": "9", "contact:postcode": "75012", "contact:street": "Rue \u00c9rard", "name": "Votre March\u00e9", "opening_hours": "Mo-Su 10:30-22:30", "opening_hours:covid19": "open", "shop": "convenience"}}, {"type": "node", "id": 671825378, "lat": 48.8485155, "lon": 2.3782079, "tags": {"name": "Graineterie", "shop": "convenience"}}, {"type": "node", "id": 672842501, "lat": 48.8793624, "lon": 2.3337517, "tags": {"addr:city": "Paris", "addr:postcode": "75009", "name": "Mini Market", "shop": "convenience", "source": "cadastre-dgi-fr source : Direction G\u00e9n\u00e9rale des Imp\u00f4ts - Cadastre. Mise \u00e0 jour : 2010"}}, {"type": "node", "id": 672973035, "lat": 48.8782, "lon": 2.33235, "tags": {"addr:city": "Paris", "addr:housenumber": "8", "addr:postcode": "75009", "addr:street": "Rue Jean-Baptiste Pigalle", "brand": "Franprix", "brand:wikidata": "Q2420096", "brand:wikipedia": "fr:Franprix", "name": "Franprix", "opening_hours": "Mo-Sa 07:30-21:30", "operator": "Groupe Casino", "payment:cash": "yes", "payment:credit_cards": "yes", "phone": "+33 1 40 16 98 97", "shop": "convenience", "source": "cadastre-dgi-fr source : Direction G\u00e9n\u00e9rale des Imp\u00f4ts - Cadastre. Mise \u00e0 jour : 2010", "wheelchair": "yes"}}, {"type": "node", "id": 675054060, "lat": 48.8421927, "lon": 2.2896454}, {"type": "node", "id": 675054530, "lat": 48.8421747, "lon": 2.2896809}, {"type": "node", "id": 675055829, "lat": 48.8422045, "lon": 2.2900797}, {"type": "node", "id": 675055894, "lat": 48.8421935, "lon": 2.2898241}, {"type": "node", "id": 675056532, "lat": 48.8422847, "lon": 2.2898163}, {"type": "node", "id": 675057088, "lat": 48.842132, "lon": 2.289995}, {"type": "node", "id": 675057120, "lat": 48.8421427, "lon": 2.2900057}, {"type": "node", "id": 675057125, "lat": 48.842115, "lon": 2.2899694}, {"type": "node", "id": 675058371, "lat": 48.8423028, "lon": 2.2898411, "tags": {"addr:housenumber": "152"}}, {"type": "node", "id": 675058442, "lat": 48.8421404, "lon": 2.289754}, {"type": "node", "id": 675059326, "lat": 48.8423086, "lon": 2.2899064}, {"type": "node", "id": 675059938, "lat": 48.8422268, "lon": 2.2896866}, {"type": "node", "id": 675060439, "lat": 48.8422851, "lon": 2.2898762}, {"type": "node", "id": 675060824, "lat": 48.8423025, "lon": 2.2897833}, {"type": "node", "id": 675061055, "lat": 48.8421701, "lon": 2.2900414}, {"type": "node", "id": 675061647, "lat": 48.8421598, "lon": 2.2900263}, {"type": "node", "id": 675062356, "lat": 48.8421595, "lon": 2.2897832}, {"type": "node", "id": 678278762, "lat": 48.8325162, "lon": 2.2974493, "tags": {"addr:postcode": "75015", "name": "Sabari Alimentation G\u00e9n\u00e9rale", "shop": "convenience"}}, {"type": "node", "id": 678825785, "lat": 48.8617908, "lon": 2.3438302, "tags": {"brand": "Franprix", "brand:wikidata": "Q2420096", "brand:wikipedia": "fr:Franprix", "contact:city": "Paris", "contact:housenumber": "35", "contact:postcode": "75001", "contact:street": "Rue Berger", "level": "0", "name": "Franprix", "opening_hours": "Mo-Sa 07:30-22:00; Su 08:30-19:00", "opening_hours:covid19": "open", "operator": "Groupe Casino", "organic": "yes", "payment:cash": "yes", "shop": "convenience", "source": "cadastre-dgi-fr source : Direction G\u00e9n\u00e9rale des Imp\u00f4ts - Cadastre. Mise \u00e0 jour : 2010", "toilets": "no", "wheelchair": "yes"}}, {"type": "node", "id": 683409203, "lat": 48.8422494, "lon": 2.2900049, "tags": {"addr:housenumber": "154", "source": "cadastre-dgi-fr source : Direction G\u00e9n\u00e9rale des Imp\u00f4ts - Cadastre ; mise \u00e0 jour : 2010"}}, {"type": "node", "id": 685538567, "lat": 48.8759602, "lon": 2.3823956, "tags": {"brand": "Franprix", "brand:wikidata": "Q2420096", "brand:wikipedia": "fr:Franprix", "name": "Franprix", "operator": "Groupe Casino", "shop": "convenience"}}, {"type": "node", "id": 699225086, "lat": 48.8574771, "lon": 2.35639, "tags": {"brand": "Franprix", "brand:wikidata": "Q2420096", "brand:wikipedia": "fr:Franprix", "name": "Franprix", "operator": "Groupe Casino", "shop": "convenience", "source": "cadastre-dgi-fr source : Direction G\u00e9n\u00e9rale des Imp\u00f4ts - Cadastre. Mise \u00e0 jour : 2010"}}, {"type": "node", "id": 699822565, "lat": 48.8705084, "lon": 2.3582069, "tags": {"contact:email": "info@tante-emma-laden.fr", "contact:phone": "+33 1 42 46 51 17", "name": "Der Tante Emma-Laden", "opening_hours": "Tu-Sa 09:00-20:00; Su 09:30-14:00; PH 09:00-13:00", "origin": "german", "shop": "convenience", "website": "http://www.tante-emma-laden.fr", "wheelchair": "yes"}}, {"type": "node", "id": 700272839, "lat": 48.8600619, "lon": 2.3497943, "tags": {"contact:city": "Paris", "contact:housenumber": "18", "contact:postcode": "75004", "contact:street": "Rue de la Reynie", "name": "\u00c9picerie La Reynie", "shop": "convenience", "source": "cadastre-dgi-fr source : Direction G\u00e9n\u00e9rale des Imp\u00f4ts - Cadastre. Mise \u00e0 jour : 2010"}}, {"type": "node", "id": 703504402, "lat": 48.8552497, "lon": 2.3597644, "tags": {"brand": "Franprix", "brand:wikidata": "Q2420096", "brand:wikipedia": "fr:Franprix", "contact:city": "Paris", "contact:housenumber": "135", "contact:postcode": "75004", "contact:street": "Rue Saint-Antoine", "name": "Franprix", "opening_hours": "Mo-Sa 09:00-21:00", "operator": "Groupe Casino", "shop": "convenience", "source": "survey", "wheelchair": "yes"}}, {"type": "node", "id": 705182223, "lat": 48.8519243, "lon": 2.3616743, "tags": {"shop": "convenience", "source": "cadastre-dgi-fr source : Direction G\u00e9n\u00e9rale des Imp\u00f4ts - Cadastre. Mise \u00e0 jour : 2010"}}, {"type": "node", "id": 711007574, "lat": 48.8644456, "lon": 2.363178, "tags": {"name": "March\u00e9 du Coin", "opening_hours": "Mo-Tu,Th-Su 10:00-24:00; Fr 17:00-24:00", "shop": "convenience", "source": "cadastre-dgi-fr source : Direction G\u00e9n\u00e9rale des Imp\u00f4ts - Cadastre. Mise \u00e0 jour : 2010"}}, {"type": "node", "id": 721563488, "lat": 48.8574741, "lon": 2.3678227, "tags": {"addr:city": "Paris", "addr:housenumber": "61", "addr:postcode": "75003", "addr:street": "Boulevard Beaumarchais", "name": "Rapid'Market", "opening_hours": "PH,Mo-Su 12:00-02:00", "shop": "convenience", "source": "cadastre-dgi-fr source : Direction G\u00e9n\u00e9rale des Imp\u00f4ts - Cadastre. Mise \u00e0 jour : 2010", "wheelchair": "no"}}, {"type": "node", "id": 725097222, "lat": 48.871713, "lon": 2.368283, "tags": {"brand": "Franprix", "brand:wikidata": "Q2420096", "brand:wikipedia": "fr:Franprix", "check_date": "2023-04-06", "name": "Franprix", "opening_hours": "Mo-Sa 08:00-22:00;Su 09:00-22:00", "opening_hours:covid19": "same", "operator": "Groupe Casino", "shop": "convenience"}}, {"type": "node", "id": 766532211, "lat": 48.8855543, "lon": 2.3653665, "tags": {"brand": "Franprix", "brand:wikidata": "Q2420096", "brand:wikipedia": "fr:Franprix", "level": "0", "name": "Franprix", "opening_hours": "Mo-Sa 08:00-22:00, Su 09:00-22:00", "operator": "Groupe Casino", "organic": "yes", "shop": "convenience", "toilets": "no", "wheelchair": "yes"}}, {"type": "node", "id": 773240535, "lat": 48.8636364, "lon": 2.3997071, "tags": {"brand": "Franprix", "brand:wikidata": "Q2420096", "brand:wikipedia": "fr:Franprix", "name": "Franprix", "opening_hours": "Mo-Sa 07:30-22:00, Su 08:30+", "operator": "Groupe Casino", "shop": "convenience", "wheelchair": "yes"}}, {"type": "node", "id": 775370004, "lat": 48.8704507, "lon": 2.3578003, "tags": {"brand": "Franprix", "brand:wikidata": "Q2420096", "brand:wikipedia": "fr:Franprix", "name": "Franprix", "operator": "Groupe Casino", "shop": "convenience"}}, {"type": "node", "id": 775875141, "lat": 48.8777945, "lon": 2.3400334, "tags": {"addr:city": "Paris", "addr:housenumber": "22", "addr:postcode": "75009", "addr:street": "Rue Choron", "brand": "Franprix", "brand:wikidata": "Q2420096", "brand:wikipedia": "fr:Franprix", "name": "Franprix", "opening_hours": "Mo-Sa 08:30-21:00", "opening_hours:covid19": "open", "operator": "Groupe Casino", "shop": "convenience", "source": "survey"}}, {"type": "node", "id": 784381952, "lat": 48.8766706, "lon": 2.3586214}, {"type": "node", "id": 784441567, "lat": 48.880154, "lon": 2.3547318}, {"type": "node", "id": 784452777, "lat": 48.874219, "lon": 2.3636454, "tags": {"brand": "Franprix", "brand:wikidata": "Q2420096", "brand:wikipedia": "fr:Franprix", "internet_access": "wlan", "internet_access:fee": "no", "name": "Franprix", "opening_hours": "Mo-Sa 07:30-22:00, Su 09:00-22:00", "shop": "convenience", "source": "survey", "wheelchair": "no"}}, {"type": "node", "id": 787318157, "lat": 48.8534609, "lon": 2.3854609}, {"type": "node", "id": 787319269, "lat": 48.8536356, "lon": 2.3855256}, {"type": "node", "id": 787320631, "lat": 48.8536537, "lon": 2.3855144}, {"type": "node", "id": 787331220, "lat": 48.85346, "lon": 2.3830458}, {"type": "node", "id": 787332001, "lat": 48.8536212, "lon": 2.3852644}, {"type": "node", "id": 787333343, "lat": 48.8535328, "lon": 2.3832464}, {"type": "node", "id": 787341694, "lat": 48.8536197, "lon": 2.3853864}, {"type": "node", "id": 787349198, "lat": 48.8535044, "lon": 2.3856084}, {"type": "node", "id": 787351034, "lat": 48.853594, "lon": 2.3830273}, {"type": "node", "id": 787352560, "lat": 48.8534619, "lon": 2.3853898}, {"type": "node", "id": 787357132, "lat": 48.8536341, "lon": 2.3832053}, {"type": "node", "id": 787367489, "lat": 48.8534959, "lon": 2.3830663}, {"type": "node", "id": 787370262, "lat": 48.8534638, "lon": 2.3852537}, {"type": "node", "id": 787372895, "lat": 48.853395, "lon": 2.3829896}, {"type": "node", "id": 787388391, "lat": 48.8534031, "lon": 2.383299}, {"type": "node", "id": 787400859, "lat": 48.8533653, "lon": 2.3830737}, {"type": "node", "id": 787406971, "lat": 48.8534879, "lon": 2.3830699}, {"type": "node", "id": 787963563, "lat": 48.844158, "lon": 2.3302268, "tags": {"brand": "Franprix", "brand:wikidata": "Q2420096", "brand:wikipedia": "fr:Franprix", "name": "Franprix", "opening_hours": "Mo-Sa 07:30-20:30; Su 07:30-19:30", "operator": "Groupe Casino", "shop": "convenience", "wheelchair": "yes"}}, {"type": "node", "id": 788194207, "lat": 48.8434828, "lon": 2.3384061, "tags": {"brand": "Proxi", "brand:wikidata": "Q3408522", "brand:wikipedia": "fr:Proxi", "name": "Proxi", "operator": "Proxi", "shop": "convenience", "source": "cadastre-dgi-fr source : Direction G\u00e9n\u00e9rale des Imp\u00f4ts - Cadastre. Mise \u00e0 jour : 2010"}}, {"type": "node", "id": 797690275, "lat": 48.8371033, "lon": 2.3917926, "tags": {"brand": "Carrefour Express", "brand:wikidata": "Q2940190", "brand:wikipedia": "fr:Carrefour Express", "name": "Carrefour Express", "operator": "Groupe Carrefour", "operator:wikidata": "Q3117359", "operator:wikipedia": "fr:Groupe Carrefour", "shop": "convenience", "source": "cadastre-dgi-fr source : Direction G\u00e9n\u00e9rale des Imp\u00f4ts - Cadastre. Mise \u00e0 jour : 2010"}}, {"type": "node", "id": 829543630, "lat": 48.8693927, "lon": 2.3047796, "tags": {"brand": "Franprix", "brand:wikidata": "Q2420096", "brand:wikipedia": "fr:Franprix", "name": "Franprix", "opening_hours": "Mo-Sa 07:30-22:00; Su 09:00-22:00", "shop": "convenience", "source": "survey"}}, {"type": "node", "id": 829894143, "lat": 48.872735, "lon": 2.3435478}, {"type": "node", "id": 829894284, "lat": 48.8728993, "lon": 2.3434023}, {"type": "node", "id": 829896384, "lat": 48.8728808, "lon": 2.3435963}, {"type": "node", "id": 829896463, "lat": 48.8727529, "lon": 2.3434177}, {"type": "node", "id": 829899139, "lat": 48.8727781, "lon": 2.34323}, {"type": "node", "id": 829899422, "lat": 48.8729196, "lon": 2.3431927}, {"type": "node", "id": 829900157, "lat": 48.8728865, "lon": 2.3435355}, {"type": "node", "id": 829929389, "lat": 48.8755067, "lon": 2.3270228}, {"type": "node", "id": 829929418, "lat": 48.8755311, "lon": 2.3272178}, {"type": "node", "id": 831121517, "lat": 48.8737862, "lon": 2.3330333}, {"type": "node", "id": 831121881, "lat": 48.8738714, "lon": 2.3329953}, {"type": "node", "id": 831122289, "lat": 48.8738747, "lon": 2.3331135}, {"type": "node", "id": 831122513, "lat": 48.873875, "lon": 2.3331251}, {"type": "node", "id": 831125328, "lat": 48.8737977, "lon": 2.3335727}, {"type": "node", "id": 831126195, "lat": 48.8738785, "lon": 2.3335773}, {"type": "node", "id": 831126840, "lat": 48.8738784, "lon": 2.3332565}, {"type": "node", "id": 831127008, "lat": 48.8738804, "lon": 2.3333296}, {"type": "node", "id": 831127109, "lat": 48.8738751, "lon": 2.3331307}, {"type": "node", "id": 871800464, "lat": 48.8409085, "lon": 2.2974226, "tags": {"brand": "Franprix", "brand:wikidata": "Q2420096", "brand:wikipedia": "fr:Franprix", "name": "Franprix", "opening_hours": "Mo-Sa 07:30-21:30; Su 09:00-12:00", "operator": "Franprix", "shop": "convenience"}}, {"type": "node", "id": 879496698, "lat": 48.8826348, "lon": 2.3600678, "tags": {"addr:city": "Paris", "brand": "Franprix", "brand:wikidata": "Q2420096", "name": "Franprix", "old_name": "G20", "shop": "convenience", "source": "survey 12/2022"}}, {"type": "node", "id": 910878748, "lat": 48.8452575, "lon": 2.4045925, "tags": {"brand": "Carrefour Express", "brand:wikidata": "Q2940190", "brand:wikipedia": "fr:Carrefour Express", "name": "Carrefour Express", "operator": "Carrefour", "shop": "convenience", "wheelchair": "yes"}}, {"type": "node", "id": 912442400, "lat": 48.8827554, "lon": 2.3649189, "tags": {"amenity": "restaurant", "contact:phone": "+33 6 58 82 52 33", "cuisine": "sandwich", "diet:vegetarian": "yes", "level": "0", "name": "Le Local BIO", "opening_hours": "Tu-Sa 10:10-20:20; Su 10:10-17:17", "organic": "only", "shop": "convenience", "source": "survey 01/2022", "wheelchair": "no"}}, {"type": "node", "id": 914744663, "lat": 48.8885114, "lon": 2.3348675}, {"type": "node", "id": 914745598, "lat": 48.8885511, "lon": 2.3347563}, {"type": "node", "id": 914745724, "lat": 48.8885215, "lon": 2.3348391}, {"type": "node", "id": 914746742, "lat": 48.8887141, "lon": 2.3346528}, {"type": "node", "id": 914746762, "lat": 48.8887599, "lon": 2.3345268}, {"type": "node", "id": 914747682, "lat": 48.8887002, "lon": 2.3346904}, {"type": "node", "id": 914747810, "lat": 48.888609, "lon": 2.3349431}, {"type": "node", "id": 914748309, "lat": 48.8886613, "lon": 2.3344483}, {"type": "node", "id": 917299795, "lat": 48.8822005, "lon": 2.3667566, "tags": {"brand": "Franprix", "brand:wikidata": "Q2420096", "brand:wikipedia": "fr:Franprix", "check_date": "2023-04-16", "name": "Franprix", "operator": "Groupe Casino", "shop": "convenience"}}, {"type": "node", "id": 920911760, "lat": 48.8303132, "lon": 2.3432871}, {"type": "node", "id": 920919579, "lat": 48.8304962, "lon": 2.3429998}, {"type": "node", "id": 920923018, "lat": 48.8304024, "lon": 2.3433425}, {"type": "node", "id": 924135450, "lat": 48.8300926, "lon": 2.3642324}, {"type": "node", "id": 924148744, "lat": 48.8301378, "lon": 2.3644061}, {"type": "node", "id": 924160630, "lat": 48.8303526, "lon": 2.3640193}, {"type": "node", "id": 924167611, "lat": 48.8304256, "lon": 2.3642269}, {"type": "node", "id": 929286845, "lat": 48.8334881, "lon": 2.3445329, "tags": {"brand": "Franprix", "brand:wikidata": "Q2420096", "brand:wikipedia": "fr:Franprix", "check_date:opening_hours": "2022-09-10", "name": "Franprix", "opening_hours": "Mo-Sa 07:30-21:00; Su 09:00-21:00", "operator": "Groupe Casino", "shop": "convenience", "wheelchair": "yes"}}, {"type": "node", "id": 940712745, "lat": 48.8499058, "lon": 2.3790185, "tags": {"access:covid19": "yes", "name": "Sabah \u00c9picerie", "note:fr": "Sp\u00e9cialit\u00e9 d'Orient", "opening_hours": "Mo-Su 09:00-20:00", "opening_hours:covid19": "open", "phone": "+33140199033", "ref:RCS": "513783175", "shop": "convenience"}}, {"type": "node", "id": 951716696, "lat": 48.8483679, "lon": 2.3757997, "tags": {"contact:city": "Paris", "contact:housenumber": "88", "contact:phone": "+33 1 44 75 51 96", "contact:postcode": "75012", "contact:street": "Rue de Charenton", "level": "0", "name": "\u00c9lan nature", "opening_hours": "Mo-Sa 09:30-20:30", "organic": "only", "shop": "convenience", "wheelchair": "yes"}}, {"type": "node", "id": 955211223, "lat": 48.8635857, "lon": 2.2722338, "tags": {"amenity": "fuel", "brand": "Shell", "brand:wikidata": "Q110716465", "compressed_air": "yes", "fuel:diesel": "yes", "fuel:e10": "yes", "fuel:octane_98": "yes", "name": "Shell", "opening_hours": "24/7", "operator": "shell", "ref:FR:prix-carburants": "75016006", "shop": "convenience", "source": "cadastre-dgi-fr source : Direction G\u00e9n\u00e9rale des Imp\u00f4ts - Cadastre. Mise \u00e0 jour : 2010", "toilets": "yes"}}, {"type": "node", "id": 959800762, "lat": 48.8709315, "lon": 2.277479, "tags": {"addr:housenumber": "9", "addr:street": "Rue de la Faisanderie", "brand": "Franprix", "brand:wikidata": "Q2420096", "brand:wikipedia": "fr:Franprix", "name": "Franprix", "opening_hours": "Mo-Sa 08:20-22:00, Su 09:00-13:00", "operator": "Groupe Casino", "phone": "+33 1 45 05 36 61", "shop": "convenience", "source": "cadastre-dgi-fr source : Direction G\u00e9n\u00e9rale des Imp\u00f4ts - Cadastre. Mise \u00e0 jour : 2010"}}, {"type": "node", "id": 963925393, "lat": 48.8630538, "lon": 2.2756957, "tags": {"addr:housenumber": "118", "source": "cadastre-dgi-fr source : Direction G\u00e9n\u00e9rale des Imp\u00f4ts - Cadastre. Mise \u00e0 jour : 2010"}}, {"type": "node", "id": 966207785, "lat": 48.8400897, "lon": 2.3127391, "tags": {"brand": "Franprix", "brand:wikidata": "Q2420096", "brand:wikipedia": "fr:Franprix", "name": "Franprix", "opening_hours": "Mo-Sa 08:00-21:00; Su 09:00-13:00", "operator": "Groupe Casino", "shop": "convenience"}}, {"type": "node", "id": 968924214, "lat": 48.8408422, "lon": 2.3172666, "tags": {"amenity": "fuel", "brand": "8 \u00e0 Huit", "brand:wikidata": "Q2818601", "brand:wikipedia": "fr:BP (entreprise)", "compressed_air": "yes", "fuel:e10": "yes", "fuel:octane_98": "yes", "name": "8 \u00e0 Huit", "opening_hours": "24/7", "ref:FR:prix-carburants": "75015031", "shop": "convenience", "source": "Minist\u00e8re de l'Economie, de l'Industrie et du Num\u00e9rique - 03/2020", "toilets": "yes", "wheelchair": "yes"}}, {"type": "node", "id": 975207461, "lat": 48.8570807, "lon": 2.2733162, "tags": {"brand": "Proxi", "brand:wikidata": "Q3408522", "brand:wikipedia": "fr:Proxi", "mapillary": "746683379342495", "name": "Proxi", "operator": "Proxi", "phone": "+33 1 42 88 40 80", "shop": "convenience", "survey:date": "2019-09-07", "wheelchair": "yes"}}, {"type": "node", "id": 979335628, "lat": 48.8503938, "lon": 2.2760574, "tags": {"addr:housenumber": "2", "addr:postcode": "75016", "addr:street": "Rue Pierre Louys", "brand": "Franprix", "brand:wikidata": "Q2420096", "brand:wikipedia": "fr:Franprix", "name": "Franprix", "opening_hours": "Mo-Sa 09:00-21:00;Su 09:00-20:00", "operator": "Groupe Casino", "shop": "convenience", "source": "cadastre-dgi-fr source : Direction G\u00e9n\u00e9rale des Imp\u00f4ts - Cadastre. Mise \u00e0 jour : 2010"}}, {"type": "node", "id": 986921145, "lat": 48.838628, "lon": 2.3117258, "tags": {"brand": "Coccinelle", "brand:wikidata": "Q17561658", "name": "Coccinelle Service", "shop": "convenience", "source": "cadastre-dgi-fr source : Direction G\u00e9n\u00e9rale des Imp\u00f4ts - Cadastre. Mise \u00e0 jour : 2010"}}, {"type": "node", "id": 987614312, "lat": 48.8805156, "lon": 2.3664741, "tags": {"brand": "Monop'", "brand:wikidata": "Q89913683", "brand:wikipedia": "fr:Monoprix (France)", "name": "Monop'", "old_name": "P\u00f4le Emploi", "opening_hours:covid19": "open", "shop": "convenience", "source": "survey 05/2018", "wheelchair": "yes"}}, {"type": "node", "id": 988247077, "lat": 48.8502941, "lon": 2.2705155, "tags": {"addr:city": "Paris", "brand": "Franprix", "brand:wikidata": "Q2420096", "brand:wikipedia": "fr:Franprix", "name": "Franprix", "opening_hours": "Mo-Sa 08:30-21:00; Su 09:00+", "shop": "convenience", "wheelchair": "yes"}}, {"type": "node", "id": 989286349, "lat": 48.8487862, "lon": 2.2633407, "tags": {"name": "\u00c9picerie Dany's", "shop": "convenience", "source": "cadastre-dgi-fr source : Direction G\u00e9n\u00e9rale des Imp\u00f4ts - Cadastre. Mise \u00e0 jour : 2010"}}, {"type": "node", "id": 993642116, "lat": 48.8387525, "lon": 2.2535353, "tags": {"amenity": "fuel", "brand": "Total", "brand:wikidata": "Q154037", "brand:wikipedia": "fr:TotalEnergies", "compressed_air": "yes", "fuel:diesel": "yes", "fuel:e10": "yes", "fuel:octane_98": "yes", "name": "Total Porte Saint-Cloud", "opening_hours": "24/7", "ref:FR:prix-carburants": "75016017", "shop": "convenience", "source": "survey", "toilets": "yes", "vending": "fuel", "vending_machine": "fuel"}}, {"type": "node", "id": 1001216228, "lat": 48.845455, "lon": 2.2578638, "tags": {"addr:postcode": "75016", "brand": "Franprix", "brand:wikidata": "Q2420096", "brand:wikipedia": "fr:Franprix", "name": "Franprix", "opening_hours": "Mo-Sa 07:30-00:00; Su 08:00-00:00", "shop": "convenience", "source": "survey 2019"}}, {"type": "node", "id": 1009007686, "lat": 48.8559951, "lon": 2.2707057, "tags": {"brand": "Franprix", "brand:wikidata": "Q2420096", "brand:wikipedia": "fr:Franprix", "contact:city": "Paris", "contact:housenumber": "40", "contact:postcode": "75016", "contact:street": "Avenue Mozart", "name": "Franprix", "operator": "Groupe Casino", "shop": "convenience", "source": "cadastre-dgi-fr source : Direction G\u00e9n\u00e9rale des Imp\u00f4ts - Cadastre. Mise \u00e0 jour : 2010"}}, {"type": "node", "id": 1023168183, "lat": 48.8714065, "lon": 2.3754187, "tags": {"name": "El mundo tropical", "noname": "yes", "opening_hours:covid19": "open", "opening_hours:signed": "no", "shop": "convenience", "survey:date": "2021-09-11", "wheelchair": "limited"}}, {"type": "node", "id": 1041617655, "lat": 48.8379482, "lon": 2.2960836, "tags": {"brand": "Franprix", "brand:wikidata": "Q2420096", "brand:wikipedia": "fr:Franprix", "contact:city": "Paris", "contact:housenumber": "23", "contact:postcode": "75015", "contact:street": "Rue Alain Chartier", "level": "0", "name": "Franprix", "opening_hours": "Mo-Sa 07:30-21:45; Su 09:00-18:45", "operator": "Groupe Casino", "shop": "convenience", "source": "survey", "wheelchair": "designated"}}, {"type": "node", "id": 1096258142, "lat": 48.8369893, "lon": 2.2567804, "tags": {"brand": "CocciMarket", "brand:wikidata": "Q90020480", "name": "CocciMarket", "opening_hours": "Fr-We 07:00-01:00", "operator": "CocciMarket", "shop": "convenience", "source": "survey", "wheelchair": "yes", "wikipedia": "fr:Francap#Coccimarket"}}, {"type": "node", "id": 1107823430, "lat": 48.8824419, "lon": 2.380823, "tags": {"addr:housenumber": "7", "addr:street": "Rue Armand Carrel", "name": "Sai Alimentation", "shop": "convenience"}}, {"type": "node", "id": 1113739001, "lat": 48.8418307, "lon": 2.3139326, "tags": {"name": "Rapid'Market", "opening_hours": "Mo-Su 07:30+", "shop": "convenience"}}, {"type": "node", "id": 1114193975, "lat": 48.8730992, "lon": 2.3177685, "tags": {"brand": "Franprix", "brand:wikidata": "Q2420096", "brand:wikipedia": "fr:Franprix", "name": "Franprix", "opening_hours": "Mo-Sa 08:30-21:00; Su 09:00-13:00", "operator": "Groupe Casino", "shop": "convenience"}}, {"type": "node", "id": 1130833782, "lat": 48.8955278, "lon": 2.3311159, "tags": {"addr:housenumber": "51", "addr:postcode": "75018", "addr:street": "Rue Vauvenargues", "name": "Alimentation G\u00e9n\u00e9rale", "shop": "convenience"}}, {"type": "node", "id": 1131175394, "lat": 48.8749701, "lon": 2.286419, "tags": {"brand": "Franprix", "brand:wikidata": "Q2420096", "brand:wikipedia": "fr:Franprix", "check_date": "2023-04-17", "name": "Franprix", "operator": "Groupe Casino", "shop": "convenience"}}, {"type": "node", "id": 1157983784, "lat": 48.8384748, "lon": 2.3564179, "tags": {"addr:city": "Paris", "addr:housenumber": "54", "addr:postcode": "75005", "addr:street": "Boulevard Saint-Marcel", "name": "Nanomarch\u00e9", "opening_hours": "Mo-Su 10:00-02:00", "shop": "convenience"}}, {"type": "node", "id": 1181634120, "lat": 48.8551604, "lon": 2.3042644, "tags": {"addr:housenumber": "107", "addr:street": "Avenue de la Bourdonnais", "brand": "Franprix", "brand:wikidata": "Q2420096", "brand:wikipedia": "fr:Franprix", "name": "Franprix", "shop": "convenience", "source": "cadastre-dgi-fr source : Direction G\u00e9n\u00e9rale des Imp\u00f4ts - Cadastre. Mise \u00e0 jour : 2011"}}, {"type": "node", "id": 1196749119, "lat": 48.856233, "lon": 2.3831217, "tags": {"brand": "Carrefour Express", "brand:wikidata": "Q2940190", "brand:wikipedia": "fr:Carrefour Express", "name": "Carrefour Express", "operator": "Huit \u00e0 huit", "shop": "convenience"}}, {"type": "node", "id": 1197653597, "lat": 48.8449603, "lon": 2.3773339, "tags": {"addr:city": "Paris", "addr:postcode": "75012", "addr:street": "Place Henri Frenay", "brand": "Franprix", "brand:wikidata": "Q2420096", "brand:wikipedia": "fr:Franprix", "check_date": "2023-04-06", "level": "0", "name": "Franprix", "operator": "Franprix", "shop": "convenience", "source": "survey 2015"}}, {"type": "node", "id": 1215364292, "lat": 48.8372209, "lon": 2.2840449, "tags": {"brand": "Naturalia", "brand:wikidata": "Q3337081", "brand:wikipedia": "fr:Naturalia", "name": "Naturalia", "opening_hours": "Mo,Tu,Fr,Sa 10:00-20:00; We-Th 09:00-20:00", "operator": "Groupe Casino", "organic": "only", "shop": "convenience", "website": "https://naturalia.fr/"}}, {"type": "node", "id": 1215369807, "lat": 48.837399, "lon": 2.289297, "tags": {"addr:postcode": "75015", "shop": "convenience"}}, {"type": "node", "id": 1215494564, "lat": 48.8228272, "lon": 2.3628312, "tags": {"name": "Exo Store", "opening_hours:covid19": "Tu-Sa 09:00-17:00", "origin": "asian", "shop": "convenience", "type": "asian"}}, {"type": "node", "id": 1215494565, "lat": 48.8235635, "lon": 2.3621872, "tags": {"name": "Dong Nam A", "origin": "asian", "shop": "convenience", "type": "asian", "url": "http://www.cityvox.fr/bons-produits_paris/dong-nam-a_200040816/Profil-Lieu"}}, {"type": "node", "id": 1215494567, "lat": 48.8243935, "lon": 2.363244, "tags": {"access:covid19": "yes", "contact:city": "Paris", "contact:housenumber": "81", "contact:postcode": "75013", "contact:street": "Avenue d'Ivry", "name": "Paragon Gourmet Market", "name:zh": "\u7b2c\u4e00\u5927\u5546\u5834", "old_name": "Big Store", "opening_hours:covid19": "open", "operator": "Asia Store", "origin": "asian", "ref:FR:SIREN": "434179065", "ref:FR:SIRET": "43417906500017", "shop": "convenience", "wheelchair": "limited"}}, {"type": "node", "id": 1215524266, "lat": 48.829864, "lon": 2.3628261, "tags": {"level": "0", "name": "L'\u00e9picerie Exotique", "opening_hours": "Mo-Su 09:00-20:45", "shop": "convenience", "wheelchair": "no"}}, {"type": "node", "id": 1218400129, "lat": 48.8572416, "lon": 2.3925876, "tags": {"name": "Para Mini Market", "shop": "convenience"}}, {"type": "node", "id": 1219897750, "lat": 48.8514902, "lon": 2.3113025, "tags": {"addr:housenumber": "13", "addr:street": "Rue d'Estr\u00e9es", "brand": "Carrefour Express", "brand:wikidata": "Q2940190", "brand:wikipedia": "fr:Carrefour Express", "name": "Carrefour Express", "opening_hours": "Mo-Sa 08:00-22:00; Su 09:00-22:00", "operator": "Diapar", "shop": "convenience", "source": "cadastre-dgi-fr source : Direction G\u00e9n\u00e9rale des Imp\u00f4ts - Cadastre. Mise \u00e0 jour : 2011", "source_1": "local knowledge"}}, {"type": "node", "id": 1224788675, "lat": 48.8475297, "lon": 2.3898249, "tags": {"addr:city": "Paris", "addr:housenumber": "142", "addr:postcode": "75012", "addr:street": "Boulevard Diderot", "brand": "Franprix", "brand:wikidata": "Q2420096", "brand:wikipedia": "fr:Franprix", "name": "Franprix", "opening_hours": "Mo-Sa 07:30-22:00; Su 09:00-22:00", "operator": "Franprix", "shop": "convenience"}}, {"type": "node", "id": 1225227251, "lat": 48.8451727, "lon": 2.2609763, "tags": {"access:covid19": "yes", "name": "Superette Molitor", "opening_hours:covid19": "open", "shop": "convenience", "source": "survey"}}, {"type": "node", "id": 1227307286, "lat": 48.8754503, "lon": 2.3269638, "tags": {"addr:housenumber": "16", "source": "cadastre-dgi-fr source : Direction G\u00e9n\u00e9rale des Imp\u00f4ts - Cadastre. Mise \u00e0 jour : 2011"}}, {"type": "node", "id": 1232773265, "lat": 48.873827, "lon": 2.3330151, "tags": {"addr:housenumber": "48", "source": "cadastre-dgi-fr source : Direction G\u00e9n\u00e9rale des Imp\u00f4ts - Cadastre. Mise \u00e0 jour : 2011"}}, {"type": "node", "id": 1234105347, "lat": 48.8755288, "lon": 2.327196}, {"type": "node", "id": 1234174631, "lat": 48.8755141, "lon": 2.3270802, "tags": {"addr:housenumber": "109", "source": "cadastre-dgi-fr source : Direction G\u00e9n\u00e9rale des Imp\u00f4ts - Cadastre. Mise \u00e0 jour : 2011"}}, {"type": "node", "id": 1242504175, "lat": 48.8728457, "lon": 2.3432122, "tags": {"addr:housenumber": "16", "source": "cadastre-dgi-fr source : Direction G\u00e9n\u00e9rale des Imp\u00f4ts - Cadastre. Mise \u00e0 jour : 2011"}}, {"type": "node", "id": 1243135605, "lat": 48.8470223, "lon": 2.3854219, "tags": {"addr:city": "Paris", "addr:postcode": "75012", "brand": "Carrefour Express", "brand:wikidata": "Q2940190", "brand:wikipedia": "fr:Carrefour Express", "name": "Carrefour Express", "opening_hours": "Mo-Sa 08:00-22:00; Su 09:00-22:00", "operator": "Groupe Carrefour", "operator:wikidata": "Q3117359", "operator:wikipedia": "fr:Groupe Carrefour", "shop": "convenience"}}, {"type": "node", "id": 1243135736, "lat": 48.8407841, "lon": 2.3912112, "tags": {"amenity": "fuel", "brand": "Total", "brand:wikidata": "Q154037", "brand:wikipedia": "fr:Total (entreprise)", "compressed_air": "yes", "fuel:diesel": "yes", "fuel:e10": "yes", "fuel:octane_98": "yes", "hgv:lanes": "yes", "name": "Total", "opening_hours": "24/7", "ref:FR:prix-carburants": "75012005", "shop": "convenience", "source": "Minist\u00e8re de l'Economie, de l'Industrie et du Num\u00e9rique - 08/04/2018", "vending": "fuel", "vending_machine": "fuel"}}, {"type": "node", "id": 1243135776, "lat": 48.835014, "lon": 2.4062415, "tags": {"name": "Alimentation G\u00e9n\u00e9rale", "shop": "convenience"}}, {"type": "node", "id": 1243135787, "lat": 48.8365814, "lon": 2.402498, "tags": {"brand": "Franprix", "brand:wikidata": "Q2420096", "brand:wikipedia": "fr:Franprix", "check_date:opening_hours": "2022-07-01", "name": "Franprix", "opening_hours": "Mo-Sa 07:30-22:00, Su 09:00-20:00", "opening_hours:covid19": "Su 09:00-20:00; Mo-Sa 10:00-20:00", "operator": "Groupe Casino", "shop": "convenience", "wheelchair": "yes"}}, {"type": "node", "id": 1243136040, "lat": 48.836006, "lon": 2.4047137, "tags": {"shop": "convenience"}}, {"type": "node", "id": 1244411706, "lat": 48.8445942, "lon": 2.3097624, "tags": {"brand": "Franprix", "brand:wikidata": "Q2420096", "brand:wikipedia": "fr:Franprix", "name": "Franprix", "opening_hours": "Mo-Sa 07:30-22:00; Su 09:00-13:00", "operator": "Groupe Casino", "shop": "convenience", "source": "survey", "wheelchair": "yes"}}, {"type": "node", "id": 1249809146, "lat": 48.8471317, "lon": 2.3082683, "tags": {"name": "Au Jardin de Bellart", "shop": "convenience", "source": "survey"}}, {"type": "node", "id": 1251064487, "lat": 48.8477736, "lon": 2.3079445, "tags": {"name": "Alimentation G\u00e9n\u00e9rale", "phone": "+33 1 47 83 78 97", "shop": "convenience", "source": "survey"}}, {"type": "node", "id": 1252379709, "lat": 48.8397748, "lon": 2.3887685, "tags": {"name": "\u00c9picerie", "note:fr": "Pr\u00e9c\u00e9dement Magasin informatique O 201", "opening_hours:covid19": "open", "opening_hours:signed": "no", "shop": "convenience", "source": "survey"}}, {"type": "node", "id": 1252383970, "lat": 48.8374843, "lon": 2.3911738, "tags": {"bulk_purchase": "only", "contact:city": "Paris", "contact:housenumber": "237", "contact:phone": "+33 9 87 70 69 24", "contact:postcode": "75012", "contact:street": "Rue de Charenton", "contact:website": "http://daybyday-shop.com/magasin/paris-12e", "dog": "no", "name": "Day by Day", "note": "Magasin en vrac", "opening_hours": "Tu-Fr 10:00-13:30,15:30-19:30; Sa 10:00-19:30; Su 10:00-13:00", "organic": "yes", "shop": "convenience", "source": "cadastre-dgi-fr source : Direction G\u00e9n\u00e9rale des Imp\u00f4ts - Cadastre;mise \u00e0 jour : 2011"}}, {"type": "node", "id": 1264875570, "lat": 48.8517588, "lon": 2.3132282, "tags": {"brand": "Proxi", "brand:wikidata": "Q3408522", "brand:wikipedia": "fr:Proxi", "name": "Proxi", "operator": "Proxi", "shop": "convenience", "source": "survey"}}, {"type": "node", "id": 1264875638, "lat": 48.8510317, "lon": 2.3115544, "tags": {"brand": "Franprix", "brand:wikidata": "Q2420096", "brand:wikipedia": "fr:Franprix", "name": "Franprix", "operator": "Groupe Casino", "shop": "convenience", "source": "survey"}}, {"type": "node", "id": 1266550779, "lat": 48.8573299, "lon": 2.3790163, "tags": {"addr:city": "Paris", "addr:postcode": "75011", "addr:street": "Rue de la Roquette", "brand": "Sitis", "brand:wikidata": "Q39075072", "name": "Cocci Market", "opening_hours": "Tu-Su 08:00-23:00", "operator": "Cocci Market", "phone": "+33143727403", "shop": "convenience"}}, {"type": "node", "id": 1272037735, "lat": 48.8829113, "lon": 2.3174747, "tags": {"brand": "Votre March\u00e9", "brand:wikidata": "Q89135338", "name": "Votre March\u00e9", "opening_hours": "Mo 14:30-01:30; Tu-Th 10:30-02:00; Su 10:00-01:00; Fr,Sa 10:30-02:00", "shop": "convenience"}}, {"type": "node", "id": 1301155730, "lat": 48.8550011, "lon": 2.3728622, "tags": {"brand": "Franprix", "brand:wikidata": "Q2420096", "brand:wikipedia": "fr:Franprix", "name": "Franprix", "opening_hours": "Mo-Sa 07:30-22:00, Su 08:30-13:00", "operator": "Franprix", "shop": "convenience", "source": "cadastre-dgi-fr source : Direction G\u00e9n\u00e9rale des Imp\u00f4ts - Cadastre. Mise \u00e0 jour : 2011"}}, {"type": "node", "id": 1307645902, "lat": 48.8475223, "lon": 2.3102369, "tags": {"name": "Alimentation G\u00e9n\u00e9rale", "shop": "convenience", "source": "survey"}}, {"type": "node", "id": 1307645906, "lat": 48.8478752, "lon": 2.3121922, "tags": {"name": "Alimentation de Breteuil", "shop": "convenience", "source": "survey"}}, {"type": "node", "id": 1312133690, "lat": 48.8623611, "lon": 2.3769354, "tags": {"addr:housenumber": "52", "addr:postcode": "75011", "addr:street": "Avenue Parmentier", "brand": "Bio C' Bon", "brand:wikidata": "Q54312551", "brand:wikipedia": "fr:Bio c'bon", "bulk_purchase": "yes", "check_date": "2023-04-02", "contact:facebook": "https://www.facebook.com/biocbonfrance/", "name": "Bio C' Bon", "opening_hours": "Mo-Sa 10:00-20:00; Su 10:00-13:00", "opening_hours:covid19": "open", "organic": "only", "shop": "convenience", "website": "https://bio-c-bon.eu/fr/nos_magasins/bio-c-bon-paris-parmentier"}}, {"type": "node", "id": 1330585731, "lat": 48.8939632, "lon": 2.3834919, "tags": {"brand": "Franprix", "brand:wikidata": "Q2420096", "brand:wikipedia": "fr:Franprix", "name": "Franprix", "operator": "Groupe Casino", "shop": "convenience"}}, {"type": "node", "id": 1331348158, "lat": 48.8572166, "lon": 2.3695545, "tags": {"brand": "Franprix", "brand:wikidata": "Q2420096", "brand:wikipedia": "fr:Franprix", "level": "0", "name": "Franprix", "opening_hours": "Mo-Sa 09:00-20:30; Su 09:00-13:00", "operator": "Groupe Casino", "organic": "yes", "shop": "convenience", "wheelchair": "yes"}}, {"type": "node", "id": 1334006371, "lat": 48.8535558, "lon": 2.38526, "tags": {"addr:housenumber": "10", "source": "cadastre-dgi-fr source : Direction G\u00e9n\u00e9rale des Imp\u00f4ts - Cadastre. Mise \u00e0 jour : 2011"}}, {"type": "node", "id": 1334006587, "lat": 48.8535594, "lon": 2.3882434, "tags": {"addr:housenumber": "10", "addr:street": "Rue L\u00e9on Frot", "brand": "Franprix", "brand:wikidata": "Q2420096", "brand:wikipedia": "fr:Franprix", "name": "Franprix", "opening_hours": "Mo-Sa 08:00-21:00, Su 09:00+", "opening_hours:covid19": "open", "operator": "Groupe Casino", "shop": "convenience", "source": "cadastre-dgi-fr source : Direction G\u00e9n\u00e9rale des Imp\u00f4ts - Cadastre. Mise \u00e0 jour : 2011", "wheelchair": "yes"}}, {"type": "node", "id": 1334007279, "lat": 48.8533802, "lon": 2.3830314, "tags": {"addr:housenumber": "18", "source": "cadastre-dgi-fr source : Direction G\u00e9n\u00e9rale des Imp\u00f4ts - Cadastre. Mise \u00e0 jour : 2011"}}, {"type": "node", "id": 1334007342, "lat": 48.8533832, "lon": 2.3831804, "tags": {"addr:housenumber": "1", "source": "cadastre-dgi-fr source : Direction G\u00e9n\u00e9rale des Imp\u00f4ts - Cadastre. Mise \u00e0 jour : 2011"}}, {"type": "node", "id": 1347770060, "lat": 48.8404828, "lon": 2.284259, "tags": {"addr:postcode": "75015", "brand": "Franprix", "brand:wikidata": "Q2420096", "brand:wikipedia": "fr:Franprix", "name": "Franprix", "opening_hours": "Mo-Sa 08:00-21:00; Su 08:00-20:00", "operator": "Groupe Casino", "shop": "convenience"}}, {"type": "node", "id": 1362774908, "lat": 48.8231191, "lon": 2.3579075, "tags": {"name": "140 avenue", "opening_hours": "24/7", "shop": "convenience"}}, {"type": "node", "id": 1369995419, "lat": 48.8300211, "lon": 2.3348369, "tags": {"brand": "Franprix", "brand:wikidata": "Q2420096", "brand:wikipedia": "fr:Franprix", "diet:halal": "yes", "diet:kosher": "yes", "name": "Franprix", "opening_hours": "Mo-Sa 08:00-21:00, Su 09:00-20:00", "operator": "Groupe Casino", "shop": "convenience", "toilets": "yes", "wheelchair": "yes", "wheelchair:description": "wheel chair accessible rental apartment : dira75014@hotmail.com"}}, {"type": "node", "id": 1373609036, "lat": 48.8444974, "lon": 2.2875895, "tags": {"brand": "Franprix", "brand:wikidata": "Q2420096", "brand:wikipedia": "fr:Franprix", "contact:city": "Paris", "contact:housenumber": "35", "contact:postcode": "75015", "contact:street": "Rue de l'\u00c9glise", "name": "Franprix", "operator": "Groupe Casino", "shop": "convenience"}}, {"type": "node", "id": 1374463833, "lat": 48.8847157, "lon": 2.38711, "tags": {"addr:city": "Paris", "brand": "Franprix", "brand:wikidata": "Q2420096", "brand:wikipedia": "fr:Franprix", "check_date:opening_hours": "2022-07-02", "name": "Franprix", "opening_hours": "Mo-Sa 08:00-21:00; Su 09:00-13:00", "operator": "Groupe Casino", "shop": "convenience", "wheelchair": "yes"}}, {"type": "node", "id": 1381893911, "lat": 48.8483965, "lon": 2.3521999, "tags": {"brand": "Franprix", "brand:wikidata": "Q2420096", "brand:wikipedia": "fr:Franprix", "name": "Franprix", "operator": "Groupe Casino", "phone": "+33 1 56 24 04 24", "shop": "convenience"}}, {"type": "node", "id": 1401461542, "lat": 48.8845155, "lon": 2.3669129, "tags": {"check_date": "2023-04-16", "name": "Alimentation G\u00e9n\u00e9rale", "shop": "convenience"}}, {"type": "node", "id": 1412651303, "lat": 48.835651, "lon": 2.3869974, "tags": {"addr:housenumber": "5", "source": "cadastre-dgi-fr source : Direction G\u00e9n\u00e9rale des Imp\u00f4ts - Cadastre. Mise \u00e0 jour : 2011"}}, {"type": "node", "id": 1432196096, "lat": 48.8466139, "lon": 2.4012526, "tags": {"brand": "Franprix", "brand:wikidata": "Q2420096", "brand:wikipedia": "fr:Franprix", "contact:city": "Paris", "contact:housenumber": "60", "contact:postcode": "75012", "contact:street": "Rue du Rendez-Vous", "name": "Franprix", "opening_hours": "Mo-Sa 08:00-21:00; Su 09:00-21:00", "operator": "Groupe Casino", "shop": "convenience", "source": "cadastre-dgi-fr source : Direction G\u00e9n\u00e9rale des Imp\u00f4ts - Cadastre. Mise \u00e0 jour : 2011"}}, {"type": "node", "id": 1432223309, "lat": 48.8470054, "lon": 2.4068403, "tags": {"brand": "Franprix", "brand:wikidata": "Q2420096", "brand:wikipedia": "fr:Franprix", "contact:housenumber": "86", "contact:street": "Cours de Vincennes", "name": "Franprix", "operator": "Groupe Casino", "shop": "convenience", "source": "cadastre-dgi-fr source : Direction G\u00e9n\u00e9rale des Imp\u00f4ts - Cadastre. Mise \u00e0 jour : 2011", "wheelchair": "yes"}}, {"type": "node", "id": 1440883106, "lat": 48.836431, "lon": 2.3942004}, {"type": "node", "id": 1442297626, "lat": 48.8603968, "lon": 2.2751179, "tags": {"brand": "K-Market", "diet:kosher": "yes", "name": "K-Market", "shop": "convenience", "source": "survey"}}, {"type": "node", "id": 1446624390, "lat": 48.8376895, "lon": 2.400021, "tags": {"addr:city": "Paris", "addr:housenumber": "212", "addr:postcode": "75012", "addr:street": "Avenue Daumesnil", "bulk_purchase": "yes", "name": "Les Nouveaux Robinson", "opening_hours": "Tu-Sa 09:30-20:00; Mo 10:00-20:00", "organic": "only", "shop": "convenience", "source": "cadastre-dgi-fr source : Direction G\u00e9n\u00e9rale des Imp\u00f4ts - Cadastre. Mise \u00e0 jour : 2011", "website": "http://lesnouveauxrobinson.coop/magasins/daumesnil/"}}, {"type": "node", "id": 1452096844, "lat": 48.8533136, "lon": 2.4030619, "tags": {"access:covid19": "yes", "addr:city": "Paris", "addr:housenumber": "11-15", "addr:postcode": "75020", "addr:street": "Rue de la R\u00e9union", "bulk_purchase": "yes", "delivery:covid19": "no", "diet:vegan": "yes", "name": "NamoBio", "name:de": "NamoBio", "opening_hours": "Mo-Sa 10:00-20:00; Su 10:00-12:45", "opening_hours:covid19": "open", "organic": "only", "payment:cash": "yes", "payment:coins": "yes", "payment:credit_cards": "yes", "shop": "convenience", "website": "http://namobio.fr"}}, {"type": "node", "id": 1468378326, "lat": 48.8515398, "lon": 2.3990733, "tags": {"addr:city": "Paris", "addr:housenumber": "9", "addr:postcode": "75020", "addr:street": "Rue d'Avron", "name": "Shy & Co", "opening_hours:covid19": "open", "shop": "convenience"}}, {"type": "node", "id": 1468378339, "lat": 48.8519316, "lon": 2.3992231, "tags": {"name": "Alimentation G\u00e9n\u00e9rale", "shop": "convenience"}}, {"type": "node", "id": 1486314054, "lat": 48.8710449, "lon": 2.3446309, "tags": {"brand": "Franprix", "brand:wikidata": "Q2420096", "brand:wikipedia": "fr:Franprix", "name": "Franprix", "opening_hours": "Mo-Sa 08:00-23:00; Su 08:00-22:00", "operator": "Franprix", "shop": "convenience"}}, {"type": "node", "id": 1486314146, "lat": 48.8728211, "lon": 2.3503316, "tags": {"name": "Veetha", "operator": "Kandiah Ulakanathan", "phone": "+33 1 47 70 29 61", "shop": "convenience", "source": "local_knowledge", "wheelchair": "no"}}, {"type": "node", "id": 1488753778, "lat": 48.874541, "lon": 2.3549014, "tags": {"access:covid19": "no", "addr:city": "Paris", "addr:housenumber": "4", "addr:postcode": "75010", "addr:street": "Rue de Paradis", "contact:phone": "+33 1 42 47 13 73", "delivery:covid19": "no", "description": "Sp\u00e9cialit\u00e9s \u00cfle Maurice", "level": "0", "name": "La Perle des \u00celes", "opening_hours:covid19": "open", "shop": "convenience", "source": "survey 10-2022"}}, {"type": "node", "id": 1488772079, "lat": 48.8785572, "lon": 2.3565275, "tags": {"name": "Asia Pacific Trade", "shop": "convenience", "source": "survey 2017"}}, {"type": "node", "id": 1489467287, "lat": 48.8765327, "lon": 2.3402855, "tags": {"brand": "Naturalia", "brand:wikidata": "Q3337081", "brand:wikipedia": "fr:Naturalia", "name": "Naturalia", "operator": "Groupe Casino", "organic": "only", "shop": "convenience", "source": "survey", "website": "https://naturalia.fr/"}}, {"type": "node", "id": 1490922319, "lat": 48.8681933, "lon": 2.3363065, "tags": {"check_date": "2023-03-19", "contact:city": "Paris", "contact:housenumber": "63", "contact:phone": "+33 1 42 97 56 80", "contact:postcode": "75002", "contact:street": "Rue Sainte-Anne", "contact:website": "http://lapetitecafteuse.com", "name": "Ace Mart", "note": "Supermarch\u00e9 cor\u00e9en vendant des \u00e9galement des produits japonais", "opening_hours": "Mo-Sa 08:30-20:00", "opening_hours:covid19": "Mo-Sa 11:00-19:00", "shop": "convenience"}}, {"type": "node", "id": 1490922381, "lat": 48.8666682, "lon": 2.3369183, "tags": {"name": "Opera Market", "opening_hours:covid19": "open", "shop": "convenience"}}, {"type": "node", "id": 1491381460, "lat": 48.8776775, "lon": 2.3492392, "tags": {"name": "Shop", "opening_hours:covid19": "off", "shop": "convenience"}}, {"type": "node", "id": 1503093340, "lat": 48.8659397, "lon": 2.3370972, "tags": {"delivery:covid19": "no", "opening_hours:covid19": "open", "shop": "convenience"}}, {"type": "node", "id": 1504098177, "lat": 48.8710189, "lon": 2.3207761, "tags": {"addr:city": "Paris", "brand": "Franprix", "brand:wikidata": "Q2420096", "brand:wikipedia": "fr:Franprix", "name": "Franprix", "operator": "Groupe Casino", "shop": "convenience"}}, {"type": "node", "id": 1506448893, "lat": 48.8277738, "lon": 2.3496594, "tags": {"name:signed": "no", "shop": "convenience"}}, {"type": "node", "id": 1512074307, "lat": 48.8730999, "lon": 2.3298644, "tags": {"addr:city": "Paris", "addr:housenumber": "35", "addr:postcode": "75009", "addr:street": "Boulevard Haussmann", "fax": "+33142801567", "name": "Galeries Lafayette Maison / Gourmet", "opening_hours": "Mo-Sa 09:30-20:30; Su 11:00-19:00", "phone": "+33140235247", "shop": "convenience", "source": "survey", "website": "https://www.monoprix.fr/trouver-mon-magasin/monoprix-lafayet-gourm-haus-paris-573.html", "wheelchair": "yes"}}, {"type": "node", "id": 1521629833, "lat": 48.8367077, "lon": 2.3729356, "tags": {"brand": "Franprix", "brand:wikidata": "Q2420096", "brand:wikipedia": "fr:Franprix", "check_date:opening_hours": "2022-03-01", "level": "0", "name": "Franprix", "opening_hours": "Mo-Sa 07:30-20:45; Su 08:30-20:00", "operator": "Groupe Casino", "organic": "yes", "shop": "convenience", "toilets": "no", "wheelchair": "limited"}}, {"type": "node", "id": 1521951432, "lat": 48.8529778, "lon": 2.4083287, "tags": {"brand": "Franprix", "brand:wikidata": "Q2420096", "brand:wikipedia": "fr:Franprix", "name": "Franprix", "operator": "Groupe Casino", "shop": "convenience", "wheelchair": "yes"}}, {"type": "node", "id": 1541591951, "lat": 48.8697412, "lon": 2.3750185, "tags": {"check_date": "2023-03-11", "name": "Exotic", "opening_hours:signed": "no", "shop": "convenience", "source": "survey", "survey:date": "2021-08-18", "wheelchair": "limited"}}, {"type": "node", "id": 1554676220, "lat": 48.8550214, "lon": 2.3869798, "tags": {"contact:city": "Paris", "contact:housenumber": "126", "contact:postcode": "75011", "contact:street": "Rue de Charonne", "name": "La Vitrine Immo", "shop": "convenience"}}, {"type": "node", "id": 1558123930, "lat": 48.8797662, "lon": 2.363282, "tags": {"addr:housenumber": "195", "addr:postcode": "75010", "addr:street": "Rue du Faubourg Saint-Martin", "bulk_purchase": "yes", "name": "Les Nouveaux Robinson", "opening_hours": "Mo-Sa 10:00-20:00", "organic": "only", "phone": "+33 1 40 35 16 02", "shop": "convenience", "website": "http://lesnouveauxrobinson.coop/magasins/faubourg-saint-martin/", "wheelchair": "yes"}}, {"type": "node", "id": 1563754928, "lat": 48.8379676, "lon": 2.356295, "tags": {"brand": "Franprix", "brand:wikidata": "Q2420096", "brand:wikipedia": "fr:Franprix", "level": "0", "name": "Franprix", "opening_hours": "Mo-Sa 07:30-21:00, Su 09:00+", "operator": "Groupe Casino", "shop": "convenience", "toilets": "no", "wheelchair": "yes"}}, {"type": "node", "id": 1569042809, "lat": 48.8674425, "lon": 2.3361747, "tags": {"contact:city": "Paris", "contact:housenumber": "46", "contact:phone": "+33 1 42 86 02 22", "contact:postcode": "75002", "contact:street": "Rue Sainte-Anne", "contact:website": "https://www.otodoke.fr/", "description": "Supermarch\u00e9 et traiteur japonais", "name": "Juji Ya", "opening_hours": "Mo-Su 11:30-22:00", "opening_hours:covid19": "off", "payment:cash": "yes", "payment:credit_cards": "yes", "payment:debit_cards": "yes", "shop": "convenience"}}, {"type": "node", "id": 1569043662, "lat": 48.8674114, "lon": 2.3343817, "tags": {"contact:city": "Paris", "contact:housenumber": "46", "contact:phone": "+33 1 42 61 33 66", "contact:postcode": "75002", "contact:street": "Rue des Petits Champs", "contact:website": "http://www.kioko.fr/", "cuisine": "japanese", "name": "Kioko", "note": "Supermarch\u00e9 japonais", "opening_hours": "Tu-Sa 10:00-20:00; Su 11:00-19:00", "opening_hours:covid19": "off", "shop": "convenience"}}, {"type": "node", "id": 1574981888, "lat": 48.8943719, "lon": 2.3227237, "tags": {"brand": "Franprix", "brand:wikidata": "Q2420096", "brand:wikipedia": "fr:Franprix", "contact:housename": "Franprix", "contact:housenumber": "10", "contact:postcode": "75017", "contact:street": "Rue Baron", "name": "Franprix", "opening_hours": "Mo-Sa 08:30-21:00, Su 08:30-13:00", "opening_hours:covid19": "open", "operator": "Groupe Casino", "shop": "convenience", "survey:date": "2018-05-10", "wheelchair": "yes"}}, {"type": "node", "id": 1577472647, "lat": 48.8602942, "lon": 2.4091403, "tags": {"brand": "Franprix", "brand:wikidata": "Q2420096", "brand:wikipedia": "fr:Franprix", "name": "Franprix", "opening_hours": "Mo-Sa 08:00-20:45; Su 09:00-20:45", "operator": "Groupe Casino", "shop": "convenience"}}, {"type": "node", "id": 1579679636, "lat": 48.8233914, "lon": 2.323823, "tags": {"name": "Au Jardin de Murcie", "shop": "convenience"}}, {"type": "node", "id": 1579679663, "lat": 48.8236425, "lon": 2.3227107, "tags": {"name": "Au Jardin Gourmand", "shop": "convenience", "source": "survey", "survey:date": "03/2019"}}, {"type": "node", "id": 1594817861, "lat": 48.8445152, "lon": 2.3285594, "tags": {"brand": "Naturalia", "brand:wikidata": "Q3337081", "brand:wikipedia": "fr:Naturalia", "name": "Naturalia", "opening_hours": "Mo-Sa 09:00-20:45; Su 09:00-12:45", "operator": "Groupe Casino", "organic": "only", "shop": "convenience", "website": "https://naturalia.fr/", "wheelchair": "yes"}}, {"type": "node", "id": 1619521145, "lat": 48.890852, "lon": 2.3756607, "tags": {"name": "Alimentation G\u00e9n\u00e9rale", "shop": "convenience", "source": "survey"}}, {"type": "node", "id": 1619521174, "lat": 48.8912153, "lon": 2.3736577, "tags": {"name": "LST", "shop": "convenience", "source": "survey"}}, {"type": "node", "id": 1636614057, "lat": 48.8307032, "lon": 2.3180543, "tags": {"brand": "Franprix", "brand:wikidata": "Q2420096", "brand:wikipedia": "fr:Franprix", "name": "Franprix", "operator": "Groupe Casino", "shop": "convenience", "wheelchair": "yes"}}, {"type": "node", "id": 1647283794, "lat": 48.8484017, "lon": 2.3775175, "tags": {"name": "La Petite Affaire", "shop": "convenience"}}, {"type": "node", "id": 1647283800, "lat": 48.8486127, "lon": 2.3777046, "tags": {"shop": "convenience"}}, {"type": "node", "id": 1647283805, "lat": 48.848336, "lon": 2.3774646, "tags": {"name": "La Petite affaire", "shop": "convenience"}}, {"type": "node", "id": 1651301104, "lat": 48.8510328, "lon": 2.396069, "tags": {"brand": "Naturalia", "brand:wikidata": "Q3337081", "brand:wikipedia": "fr:Naturalia", "name": "Naturalia", "opening_hours": "Mo-Sa 09:00-20:45", "opening_hours:covid19": "Mo-Sa 09:00-20:45", "shop": "convenience"}}, {"type": "node", "id": 1654622038, "lat": 48.8614387, "lon": 2.3824992, "tags": {"name": "La r\u00e9colte", "opening_hours": "Mo-Sa 09:00-20:00", "shop": "convenience", "survey:date": "2022-10-30", "website": "https://www.la-recolte.net/magasin/chemin-vert"}}, {"type": "node", "id": 1657942853, "lat": 48.8914035, "lon": 2.347632, "tags": {"addr:city": "Paris", "addr:housenumber": "21", "addr:postcode": "75018", "addr:street": "Rue Eug\u00e8ne Sue", "shop": "convenience"}}, {"type": "node", "id": 1667577637, "lat": 48.8942289, "lon": 2.3454357, "tags": {"name": "La Tonnelle", "shop": "convenience"}}, {"type": "node", "id": 1668761365, "lat": 48.893762, "lon": 2.347217, "tags": {"created_by": "iLOE 1.9", "shop": "convenience"}}, {"type": "node", "id": 1669024634, "lat": 48.894102, "lon": 2.341431, "tags": {"brand": "Naturalia", "brand:wikidata": "Q3337081", "brand:wikipedia": "fr:Naturalia", "description": "Supermarch\u00e9 bio", "name": "Naturalia", "operator": "Groupe Casino", "organic": "only", "shop": "convenience", "website": "https://naturalia.fr/"}}, {"type": "node", "id": 1670163081, "lat": 48.8688286, "lon": 2.3633449, "tags": {"brand": "Franprix", "brand:wikidata": "Q2420096", "brand:wikipedia": "fr:Franprix", "check_date": "2023-03-18", "internet_access": "no", "name": "Franprix", "operator": "Franprix", "payment:mastercard": "yes", "payment:visa": "yes", "shop": "convenience", "wheelchair": "yes"}}, {"type": "node", "id": 1670305723, "lat": 48.871024, "lon": 2.361319, "tags": {"addr:city": "Paris", "addr:housenumber": "6", "addr:postcode": "75010", "addr:street": "Place Jacques Bonsergent", "name": "Market Bonsergent", "shop": "convenience"}}, {"type": "node", "id": 1670348725, "lat": 48.8716882, "lon": 2.3621491, "tags": {"brand": "Votre March\u00e9", "check_date": "2023-02-18", "name": "Votre March\u00e9", "opening_hours:covid19": "open", "shop": "convenience"}}, {"type": "node", "id": 1670553036, "lat": 48.8285622, "lon": 2.3161752, "tags": {"name": "Mini Market", "shop": "convenience"}}, {"type": "node", "id": 1673104017, "lat": 48.8421866, "lon": 2.3495998, "tags": {"brand": "Franprix", "brand:wikidata": "Q2420096", "brand:wikipedia": "fr:Franprix", "name": "Franprix", "opening_hours": "Mo-Sa 07:30-22:00, Su 09:00-22:00", "operator": "Franprix", "shop": "convenience"}}, {"type": "node", "id": 1679481149, "lat": 48.895043, "lon": 2.352699, "tags": {"created_by": "iLOE 1.9", "shop": "convenience"}}, {"type": "node", "id": 1679496605, "lat": 48.893096, "lon": 2.348163, "tags": {"created_by": "iLOE 1.9", "opening_hours:covid19": "open", "shop": "convenience"}}, {"type": "node", "id": 1684658937, "lat": 48.8448356, "lon": 2.3490789, "tags": {"name": "Le Comptoir du Miel", "opening_hours:covid19": "open", "shop": "convenience"}}, {"type": "node", "id": 1684819701, "lat": 48.8406978, "lon": 2.3515047, "tags": {"addr:city": "Paris", "addr:housenumber": "98", "addr:postcode": "75005", "addr:street": "Rue Monge", "name": "Auchan Pi\u00e9ton", "opening_hours": "Mo-Sa 10:00-21:00", "shop": "convenience"}}, {"type": "node", "id": 1701111407, "lat": 48.8328763, "lon": 2.289012, "tags": {"brand": "Franprix", "brand:wikidata": "Q2420096", "brand:wikipedia": "fr:Franprix", "contact:city": "Paris", "contact:housenumber": "405", "contact:postcode": "75015", "contact:street": "Rue de Vaugirard", "name": "Franprix", "opening_hours": "Mo-Sa 08:30-21:00; Su 08:30-13:00", "operator": "Groupe Casino", "shop": "convenience", "source": "survey", "wheelchair": "yes"}}, {"type": "node", "id": 1725093479, "lat": 48.8695651, "lon": 2.339943, "tags": {"brand": "Monop'", "brand:wikidata": "Q89913683", "brand:wikipedia": "fr:Monoprix (France)", "contact:city": "Paris", "contact:housenumber": "4", "contact:postcode": "75002", "contact:street": "Rue de la Bourse", "contact:website": "https://www.monoprix.fr/", "diet:halal": "yes", "name": "Monop'", "opening_hours": "Mo-sa 8:30-24:00", "operator": "Groupe Casino", "shop": "convenience"}}, {"type": "node", "id": 1747138944, "lat": 48.8305831, "lon": 2.2940964, "tags": {"brand": "Proxi", "brand:wikidata": "Q3408522", "brand:wikipedia": "fr:Proxi", "contact:city": "Paris", "contact:housenumber": "77", "contact:postcode": "75015", "contact:street": "Boulevard Lefebvre", "name": "Proxi", "opening_hours": "Mo-Sa 08:00-22:00", "operator": "Proxi", "shop": "convenience"}}, {"type": "node", "id": 1749539470, "lat": 48.8974645, "lon": 2.384992, "tags": {"brand": "Franprix", "brand:wikidata": "Q2420096", "brand:wikipedia": "fr:Franprix", "name": "Franprix", "opening_hours": "Mo-Sa 09:00-21:00; Su 09:00-13:00", "operator": "Groupe Casino", "shop": "convenience"}}, {"type": "node", "id": 1766112601, "lat": 48.8579949, "lon": 2.399668, "tags": {"brand": "Monop'", "brand:wikidata": "Q89913683", "brand:wikipedia": "fr:Monoprix (France)", "name": "Monop'", "opening_hours": "Mo-Sa 09:00-22:00", "operator": "Groupe Casino", "shop": "convenience", "source": "cadastre-dgi-fr source : Direction G\u00e9n\u00e9rale des Imp\u00f4ts - Cadastre. Mise \u00e0 jour : 2012", "website": "https://www.monoprix.fr/", "wheelchair": "yes"}}, {"type": "node", "id": 1770300767, "lat": 48.8550646, "lon": 2.3706251, "tags": {"name": "Le Petit March\u00e9 de Bastille", "shop": "convenience", "source": "survey"}}, {"type": "node", "id": 1775419111, "lat": 48.8551956, "lon": 2.4055212, "tags": {"contact:city": "Paris", "contact:housenumber": "92", "contact:postcode": "75020", "contact:street": "Rue des Pyr\u00e9n\u00e9es", "contact:website": "https://www.instagram.com/finebouche.paris/", "name": "Le Verger des Mara\u00eechers", "name:en": "fine bouche", "name:fr": "Fine bouche", "shop": "convenience", "source": "cadastre-dgi-fr source : Direction G\u00e9n\u00e9rale des Imp\u00f4ts - Cadastre. Mise \u00e0 jour : 2012"}}, {"type": "node", "id": 1785423698, "lat": 48.8229602, "lon": 2.3530888, "tags": {"access:covid19": "yes", "brand": "Carrefour Express", "brand:wikidata": "Q2940190", "brand:wikipedia": "fr:Carrefour Express", "level": "0", "name": "Carrefour Express", "opening_hours": "Mo-Sa 08:00-21:00, Su 09:00+", "opening_hours:covid19": "open", "organic": "yes", "shop": "convenience", "toilets": "no", "wheelchair": "yes"}}, {"type": "node", "id": 1785423726, "lat": 48.8227463, "lon": 2.3530352, "tags": {"name": "Alimentation Gle des Peupliers", "opening_hours": "Mo-Sa 09:00-21:00", "shop": "convenience"}}, {"type": "node", "id": 1787626751, "lat": 48.8418462, "lon": 2.2668066, "tags": {"addr:housename": "Franprix", "addr:street": "Avenue de Versailles", "brand": "Franprix", "brand:wikidata": "Q2420096", "brand:wikipedia": "fr:Franprix", "name": "Franprix", "operator": "Groupe Casino", "shop": "convenience"}}, {"type": "node", "id": 1789405057, "lat": 48.8821012, "lon": 2.3377871, "tags": {"brand": "Monop'", "brand:wikidata": "Q89913683", "brand:wikipedia": "fr:Monoprix (France)", "name": "Monop'", "opening_hours": "Mo-Fr 08:00-23:50; Sa 09:00-23:50; Su 09:00-20:50", "operator": "Groupe Casino", "phone": "+33 1 53 32 77 80", "shop": "convenience", "website": "https://www.monoprix.fr/"}}, {"type": "node", "id": 1789903922, "lat": 48.8654353, "lon": 2.3683951, "tags": {"brand": "Franprix", "brand:wikidata": "Q2420096", "brand:wikipedia": "fr:Franprix", "check_date": "2023-04-08", "name": "Franprix", "opening_hours": "Mo-Sa 08:30-22:00; Su 09:00-13:00", "operator": "Groupe Casino", "shop": "convenience", "website": "http://www.franprix.fr"}}, {"type": "node", "id": 1796787734, "lat": 48.8763009, "lon": 2.3783848, "tags": {"addr:city": "Paris", "brand": "CocciMarket", "brand:wikidata": "Q90020480", "name": "CocciMarket", "opening_hours": "Mo-Su 09:00-23:00", "opening_hours:covid19": "same", "operator": "Cocci Market", "shop": "convenience"}}, {"type": "node", "id": 1798835188, "lat": 48.839074, "lon": 2.2926563, "tags": {"brand": "Carrefour Express", "brand:wikidata": "Q2940190", "brand:wikipedia": "fr:Carrefour Express", "name": "Carrefour Express", "operator": "Groupe Carrefour", "operator:wikidata": "Q3117359", "operator:wikipedia": "fr:Groupe Carrefour", "shop": "convenience"}}, {"type": "node", "id": 1802937900, "lat": 48.8279029, "lon": 2.3215132, "tags": {"brand": "Franprix", "brand:wikidata": "Q2420096", "brand:wikipedia": "fr:Franprix", "contact:city": "Paris", "contact:housenumber": "45", "contact:postcode": "75014", "contact:street": "Rue des Plantes", "name": "Franprix", "opening_hours": "Mo-Sa 07:30-22:00; Su 09:00-19:00", "operator": "Groupe Casino", "shop": "convenience", "website": "http://www.franprix.fr", "wheelchair": "designated"}}, {"type": "node", "id": 1816125905, "lat": 48.8502862, "lon": 2.3931995, "tags": {"name": "Alimentation G\u00e9n\u00e9rale", "organic": "no", "shop": "convenience"}}, {"type": "node", "id": 1821668283, "lat": 48.8770051, "lon": 2.3323662, "tags": {"name": "Jardin de Trinit\u00e9", "opening_hours:covid19": "off", "phone": "+33 1 45 26 87 38", "shop": "convenience", "wheelchair": "yes"}}, {"type": "node", "id": 1823551389, "lat": 48.8818811, "lon": 2.3280757, "tags": {"brand": "Carrefour Express", "brand:wikidata": "Q2940190", "brand:wikipedia": "fr:Carrefour Express", "name": "Carrefour Express", "opening_hours": "Mo-Sa 08:00-22:00; Su 09:00-12:00+", "shop": "convenience"}}, {"type": "node", "id": 1827138885, "lat": 48.8765696, "lon": 2.3394387, "tags": {"name": "Cours des Halles", "shop": "convenience"}}, {"type": "node", "id": 1827357922, "lat": 48.8479415, "lon": 2.2739662, "tags": {"addr:city": "Paris", "addr:housenumber": "58", "addr:postcode": "75016", "addr:street": "Avenue de Versailles", "brand": "Franprix", "brand:wikidata": "Q2420096", "brand:wikipedia": "fr:Franprix", "name": "Franprix", "opening_hours": "Mo-Su 9:00-22:00", "shop": "convenience", "wheelchair": "yes"}}, {"type": "node", "id": 1827699345, "lat": 48.8758146, "lon": 2.3429249, "tags": {"brand": "Franprix", "brand:wikidata": "Q2420096", "brand:wikipedia": "fr:Franprix", "name": "Franprix", "opening_hours": "Mo-Sa 08:00-22:00; Su 09:00-12:00+", "operator": "Groupe Casino", "shop": "convenience", "wheelchair": "yes"}}, {"type": "node", "id": 1845105079, "lat": 48.8356318, "lon": 2.3466665, "tags": {"brand": "Franprix", "brand:wikidata": "Q2420096", "brand:wikipedia": "fr:Franprix", "level": "0", "name": "Franprix", "opening_hours": "Mo-Sa 08:30-21:00; Su 09:00-21:00", "operator": "Groupe Casino", "organic": "yes", "shop": "convenience", "toilets": "no", "wheelchair": "yes"}}, {"type": "node", "id": 1868445228, "lat": 48.8879982, "lon": 2.348721, "tags": {"addr:housenumber": "10", "addr:street": "Rue Custine", "brand": "Franprix", "brand:wikidata": "Q2420096", "brand:wikipedia": "fr:Franprix", "name": "Franprix", "opening_hours": "Mo-Sa 08:30-21:00; Su 09:00-13:00", "operator": "Groupe Casino", "shop": "convenience"}}, {"type": "node", "id": 1868462009, "lat": 48.8883991, "lon": 2.3510703, "tags": {"contact:city": "Paris", "contact:housenumber": "80", "contact:postcode": "75018", "contact:street": "Rue Doudeauville", "name": "Tout Kin", "shop": "convenience"}}, {"type": "node", "id": 1872107854, "lat": 48.839775, "lon": 2.3969607, "tags": {"mapillary": "280477583768854", "name": "Superette de la Place", "opening_hours:covid19": "open", "opening_hours:signed": "no", "shop": "convenience", "survey:date": "2019-05-11"}}, {"type": "node", "id": 1872840175, "lat": 48.8838978, "lon": 2.3674789, "tags": {"name": "Kobal Cash and Carry", "origin": "african", "shop": "convenience"}}, {"type": "node", "id": 1872840182, "lat": 48.8825707, "lon": 2.3615218, "tags": {"name": "Le March\u00e9 Exotique", "origin": "indian", "shop": "convenience"}}, {"type": "node", "id": 1872840196, "lat": 48.8831227, "lon": 2.3652929, "tags": {"name": "STR Alimentation G\u00e9n\u00e9rale", "shop": "convenience"}}, {"type": "node", "id": 1872840200, "lat": 48.8834375, "lon": 2.3605898, "tags": {"name": "Makkal Kadai", "origin": "indian", "shop": "convenience", "wheelchair": "limited"}}, {"type": "node", "id": 1872840269, "lat": 48.8832463, "lon": 2.3609305, "tags": {"addr:city": "Paris", "addr:housenumber": "57", "addr:postcode": "75010", "addr:street": "Rue Louis Blanc", "name": "Krishna Bhavan", "shop": "convenience"}}, {"type": "node", "id": 1876202746, "lat": 48.8686446, "lon": 2.2348955, "tags": {"shop": "convenience"}}, {"type": "node", "id": 1877545213, "lat": 48.8856758, "lon": 2.3260088, "tags": {"brand": "Franprix", "brand:wikidata": "Q2420096", "brand:wikipedia": "fr:Franprix", "contact:city": "Paris", "contact:housenumber": "4", "contact:postcode": "75017", "contact:street": "Rue des Dames", "contact:website": "http://www.franprix.fr/paris/4-rue-des-dames/promotions/la-marque-marche-franprix/87", "description": "fermeture temporaire", "level": "0", "name": "Franprix", "operator": "Groupe Casino", "organic": "yes", "shop": "convenience", "source": "survey:2015-03-26", "toilets": "no"}}, {"type": "node", "id": 1877600066, "lat": 48.885169, "lon": 2.3306135, "tags": {"name": "Superette du Sacr\u00e9 Coeur", "shop": "convenience"}}, {"type": "node", "id": 1886394598, "lat": 48.8872701, "lon": 2.3233457, "tags": {"addr:city": "Paris", "addr:country": "FR", "addr:housenumber": "24-26", "addr:postcode": "75017", "addr:street": "Rue la Condamine", "brand": "Franprix", "brand:wikidata": "Q2420096", "brand:wikipedia": "fr:Franprix", "name": "Franprix", "opening_hours": "Mo-Sa 07:30-21:00, Su 09:00-21:00", "operator": "Groupe Casino", "shop": "convenience", "survey:date": "2017-08-30", "wheelchair": "yes"}}, {"type": "node", "id": 1894571868, "lat": 48.8881025, "lon": 2.2993024, "tags": {"addr:city": "Paris", "addr:housenumber": "134", "addr:street": "Boulevard Berthier", "branch": "Paris Berthier", "brand": "Carrefour Express", "brand:wikidata": "Q2940190", "brand:wikipedia": "fr:Carrefour Express", "name": "Carrefour Express", "opening_hours": "Mo-Sa 08:00-21:30", "operator": "Carrefour", "phone": "+33 1 43 80 15 06", "shop": "convenience", "source": "Survey", "wheelchair": "yes"}}, {"type": "node", "id": 1894586730, "lat": 48.887754, "lon": 2.297555, "tags": {"brand": "CocciMarket", "brand:wikidata": "Q17561658", "name": "CocciMarket", "operator": "Cocci Market", "shop": "convenience"}}, {"type": "node", "id": 1896130094, "lat": 48.8906695, "lon": 2.3342086, "tags": {"brand": "Franprix", "brand:wikidata": "Q2420096", "brand:wikipedia": "fr:Franprix", "name": "Franprix", "operator": "Groupe Casino", "shop": "convenience"}}, {"type": "node", "id": 1896232180, "lat": 48.8961759, "lon": 2.3461635, "tags": {"addr:city": "Paris", "addr:housenumber": "66", "addr:postcode": "75018", "addr:street": "Boulevard Ornano", "brand": "Franprix", "brand:wikidata": "Q2420096", "brand:wikipedia": "fr:Franprix", "level": "0", "name": "Franprix", "opening_hours": "Mo-Sa 08:30-21:00; Su 09:00-13:00", "operator": "Groupe Casino", "payment:cash": "yes", "payment:credit_cards": "yes", "payment:debit_cards": "yes", "payment:electronic_purses": "yes", "phone": "+33 1 42 58 30 73", "shop": "convenience", "source": "survey", "toilets": "no", "wheelchair": "yes"}}, {"type": "node", "id": 1896328979, "lat": 48.888102, "lon": 2.3326713, "tags": {"check_date": "2022-10-01", "name": "Rapid Market", "shop": "convenience"}}, {"type": "node", "id": 1900791147, "lat": 48.8345691, "lon": 2.2884841, "tags": {"contact:city": "Paris", "contact:housenumber": "1", "contact:postcode": "75015", "contact:street": "Rue de Cadix", "name": "APM Alimentation G\u00e9n\u00e9rale", "shop": "convenience"}}, {"type": "node", "id": 1902388834, "lat": 48.8287412, "lon": 2.3284286, "tags": {"addr:city": "Paris", "addr:housenumber": "43", "addr:postcode": "75014", "addr:street": "Rue B\u00e9zout", "bulk_purchase": "yes", "check_date:opening_hours": "2022-11-13", "name": "La Ruche d'Al\u00e9sia", "opening_hours": "Mo 14:30-20:00; Tu-Sa 10:00-20:00; Su 10:00-13:00", "opening_hours:covid19": "Mo-Sa 10:00-18:00", "operator": "Biocoop", "organic": "only", "phone": "+33 9 50 90 45 33", "shop": "convenience", "website": "http://ruchebiocoop.com/"}}, {"type": "node", "id": 1909184294, "lat": 48.8980487, "lon": 2.3349868, "tags": {"shop": "convenience"}}, {"type": "node", "id": 1909294899, "lat": 48.8943287, "lon": 2.3276918, "tags": {"brand": "Naturalia", "brand:wikidata": "Q3337081", "brand:wikipedia": "fr:Naturalia", "contact:city": "Paris", "contact:housenumber": "107", "contact:postcode": "75018", "contact:street": "Avenue de Saint-Ouen", "contact:website": "https://naturalia.fr/", "fixme": "resurvey", "name": "Naturalia", "note": "Ce commerce est remplac\u00e9 par une alimentation g\u00e9n\u00e9rale (turque) \"sahra Orientale\"", "operator": "Groupe Casino", "organic": "only", "shop": "convenience", "wheelchair": "yes"}}, {"type": "node", "id": 1915656042, "lat": 48.8352996, "lon": 2.2893621, "tags": {"name": "Chez Max Fils", "shop": "convenience"}}, {"type": "node", "id": 1915692171, "lat": 48.8348486, "lon": 2.2888176, "tags": {"name": "Latino Shop", "opening_hours": "10:00-20:00", "origin": "latin_american", "shop": "convenience", "website": "https://www.meneatefrance.com/latino-shop/"}}, {"type": "node", "id": 1917523414, "lat": 48.822392, "lon": 2.3581308, "tags": {"brand": "Carrefour Express", "brand:wikidata": "Q2940190", "brand:wikipedia": "fr:Carrefour Express", "name": "Carrefour Express", "opening_hours": "Mo-Sa 08:00-22:00; Su 09:00-22:00", "operator": "Groupe Carrefour", "operator:wikidata": "Q3117359", "operator:wikipedia": "fr:Groupe Carrefour", "shop": "convenience", "wheelchair": "no"}}, {"type": "node", "id": 1924853448, "lat": 48.8858593, "lon": 2.3121411, "tags": {"brand": "Franprix", "brand:wikidata": "Q2420096", "brand:wikipedia": "fr:Franprix", "contact:city": "Paris", "contact:housenumber": "112", "contact:postcode": "75017", "contact:street": "Rue Cardinet", "contact:website": "http://www.coursengo.com/supermarche/nos-magasins/franprix-17e-cardinet.html", "name": "Franprix", "operator": "Groupe Casino", "shop": "convenience", "wheelchair": "yes"}}, {"type": "node", "id": 1930542188, "lat": 48.8481379, "lon": 2.3416037, "tags": {"name": "Coreewa", "opening_hours": "Mo-Sa 09:00-21:00", "origin": "korean", "shop": "convenience", "website": "https://coreewa.com"}}, {"type": "node", "id": 1930542190, "lat": 48.8480063, "lon": 2.3415192, "tags": {"brand": "Carrefour Express", "brand:wikidata": "Q2940190", "name": "Carrefour Express", "opening_hours": "Mo-Sa 08:00-22:00; Su 09:00-22:00", "shop": "convenience"}}, {"type": "node", "id": 1930542335, "lat": 48.8464543, "lon": 2.3433144, "tags": {"name": "Cr\u00e8merie du Panth\u00e9on - Alimentation G\u00e9n\u00e9rale", "opening_hours:covid19": "open", "shop": "convenience"}}, {"type": "node", "id": 1935564538, "lat": 48.8493014, "lon": 2.3908156, "tags": {"shop": "convenience"}}, {"type": "node", "id": 1937157672, "lat": 48.8519985, "lon": 2.2908966, "tags": {"amenity": "fuel", "brand": "Total", "brand:wikidata": "Q154037", "brand:wikipedia": "fr:Total (entreprise)", "compressed_air": "yes", "fuel:diesel": "yes", "fuel:octane_98": "yes", "name": "Total", "operator": "Total", "ref:FR:prix-carburants": "75015025", "shop": "convenience", "source": "survey", "toilets": "yes"}}, {"type": "node", "id": 1939290603, "lat": 48.8377658, "lon": 2.3459301, "tags": {"contact:phone": "+33 171600015", "delivery:covid19": "yes", "name": "Royal Market", "opening_hours:covid19": "open", "shop": "convenience"}}, {"type": "node", "id": 1942582279, "lat": 48.8250568, "lon": 2.3433047, "tags": {"brand": "Franprix", "brand:wikidata": "Q2420096", "brand:wikipedia": "fr:Franprix", "name": "Franprix", "opening_hours": "Mo-Su 09:00-21:30", "opening_hours:covid19": "same", "operator": "Groupe Casino", "shop": "convenience"}}, {"type": "node", "id": 1944211221, "lat": 48.8618999, "lon": 2.3802249, "tags": {"name": "Good Filash Express", "shop": "convenience"}}, {"type": "node", "id": 1950719999, "lat": 48.8593263, "lon": 2.4026463, "tags": {"brand": "Sitis", "brand:wikidata": "Q39075072", "name": "Sitis Market", "opening_hours": "Tu-Sa 07:30-23:00, Su 09:00+", "operator": "Sitis", "shop": "convenience", "wheelchair": "limited"}}, {"type": "node", "id": 1950785321, "lat": 48.8577342, "lon": 2.4078256, "tags": {"addr:housenumber": "53", "addr:postcode": "75020", "addr:street": "Rue Saint-Blaise", "brand": "Franprix", "brand:wikidata": "Q2420096", "brand:wikipedia": "fr:Franprix", "check_date:opening_hours": "2022-08-14", "name": "Franprix", "name:en": "Franprix Saint Blaise", "name:fr": "Franprix Saint Blaise", "opening_hours": "Mo-Sa 08:30-21:00; Su 09:00-21:00", "operator": "Groupe Casino", "shop": "convenience", "wheelchair": "yes"}}, {"type": "node", "id": 1954922460, "lat": 48.8838368, "lon": 2.3847889, "tags": {"brand": "Franprix", "brand:wikidata": "Q2420096", "brand:wikipedia": "fr:Franprix", "name": "Franprix", "opening_hours": "Mo-Sa 08:00-21:00; Su 09:00-21:00", "operator": "Groupe Casino", "shop": "convenience"}}, {"type": "node", "id": 1986819816, "lat": 48.8538324, "lon": 2.2756981, "tags": {"name": "Au March\u00e9 du Coin", "phone": "+33 1 45 27 03 28", "shop": "convenience", "wheelchair": "no"}}, {"type": "node", "id": 1987166804, "lat": 48.8611261, "lon": 2.2842369, "tags": {"addr:city": "Paris", "brand": "Franprix", "brand:wikidata": "Q2420096", "brand:wikipedia": "fr:Franprix", "name": "Franprix", "opening_hours": "Mo-Sa 08:30-21:00; Su 08:30-13:00", "operator": "Groupe Casino", "shop": "convenience"}}, {"type": "node", "id": 1987166997, "lat": 48.8651841, "lon": 2.2885128, "tags": {"shop": "convenience"}}, {"type": "node", "id": 1989893200, "lat": 48.8671682, "lon": 2.4041296, "tags": {"brand": "Franprix", "brand:wikidata": "Q2420096", "brand:wikipedia": "fr:Franprix", "contact:city": "Paris", "contact:housenumber": "36", "contact:postcode": "75020", "contact:street": "Rue des Montib\u0153ufs", "name": "Franprix", "operator": "Groupe Casino", "shop": "convenience", "source": "cadastre-dgi-fr source : Direction G\u00e9n\u00e9rale des Imp\u00f4ts - Cadastre. Mise \u00e0 jour : 2012"}}, {"type": "node", "id": 2000262281, "lat": 48.8768292, "lon": 2.3480366, "tags": {"addr:housenumber": "88", "addr:street": "rue Lafayette", "atm": "no", "brand": "Monop'", "brand:wikidata": "Q89913683", "brand:wikipedia": "fr:Monoprix (France)", "internet_access": "no", "name": "U express", "opening_hours": "Mo-Sa 07:30-22:30; Su 09:00-22:30", "opening_hours:covid19": "08:00-21:00", "shop": "convenience", "website": "https://www.coursesu.com/"}}, {"type": "node", "id": 2003145805, "lat": 48.8625285, "lon": 2.3539585, "tags": {"addr:city": "Paris", "addr:housenumber": "43", "addr:postcode": "75003", "addr:street": "Rue Beaubourg", "contact:housenumber": "43", "contact:phone": "+339 52 07 18 13", "contact:street": "Rue Beaubourg", "contact:website": "http://www.la-recolte.net/", "name": "La R\u00e9colte", "opening_hours": "Mo-Sa 09:00-20:00", "opening_hours:covid19": "Mo-Su 09:00-17:00", "shop": "convenience", "wheelchair": "yes"}}, {"type": "node", "id": 2003145824, "lat": 48.8610606, "lon": 2.3542444, "tags": {"brand": "Franprix", "brand:wikidata": "Q2420096", "brand:wikipedia": "fr:Franprix", "name": "Franprix", "opening_hours": "Mo-Sa 08:30-21:45; Su 08:30-00:30", "operator": "Groupe Casino", "shop": "convenience", "source": "survey 2018", "wheelchair": "yes"}}, {"type": "node", "id": 2003233917, "lat": 48.8606381, "lon": 2.3470225, "tags": {"addr:city": "Paris", "addr:housenumber": "7", "addr:postcode": "75001", "addr:street": "Rue des Innocents", "level": "0", "name": "Le March\u00e9 des Halles", "opening_hours": "Mo-Sa 08:30-23:30, Su 10:00-23:00", "shop": "convenience"}}, {"type": "node", "id": 2013669130, "lat": 48.8441469, "lon": 2.3840721, "tags": {"addr:city": "Paris", "addr:housenumber": "174", "addr:postcode": "75012", "addr:street": "Rue de Charenton", "name": "RMK", "shop": "convenience", "source": "survey 09/2017"}}, {"type": "node", "id": 2013743080, "lat": 48.8395273, "lon": 2.3323394, "tags": {"brand": "Franprix", "brand:wikidata": "Q2420096", "brand:wikipedia": "fr:Franprix", "level": "0", "name": "Franprix", "opening_hours": "Mo-Sa 08:00-21:00, Su 09:00-21:00", "operator": "Groupe Casino", "shop": "convenience", "toilets": "no", "wheelchair": "no"}}, {"type": "node", "id": 2026702509, "lat": 48.878211, "lon": 2.2885201, "tags": {"contact:city": "Paris", "contact:housenumber": "26", "contact:postcode": "75017", "contact:street": "Rue Saint-Ferdinand", "diet:vegan": "yes", "diet:vegetarian": "yes", "name": "Bio Frais", "organic": "only", "shop": "convenience"}}, {"type": "node", "id": 2034698944, "lat": 48.8278602, "lon": 2.3151599, "tags": {"brand": "Franprix", "brand:wikidata": "Q2420096", "brand:wikipedia": "fr:Franprix", "name": "Franprix", "opening_hours": "Mo-Sa 08:30-21:00; Su 09:00-21:00", "operator": "Franprix", "shop": "convenience"}}, {"type": "node", "id": 2049099313, "lat": 48.8534279, "lon": 2.3834438, "tags": {"brand": "Franprix", "brand:wikidata": "Q2420096", "brand:wikipedia": "fr:Franprix", "name": "Franprix", "operator": "Groupe Casino", "shop": "convenience"}}, {"type": "node", "id": 2068414431, "lat": 48.8680984, "lon": 2.3601089, "tags": {"brand": "Carrefour Express", "brand:wikidata": "Q2940190", "brand:wikipedia": "fr:Intermarch\u00e9", "check_date": "2023-03-18", "name": "Carrefour Express", "operator": "Groupement des Mousquetaires", "shop": "convenience"}}, {"type": "node", "id": 2075428199, "lat": 48.8223949, "lon": 2.3603765, "tags": {"name": "Monorom", "opening_hours:covid19": "open", "shop": "convenience"}}, {"type": "node", "id": 2079256242, "lat": 48.8288446, "lon": 2.3012353, "tags": {"brand": "Franprix", "brand:wikidata": "Q2420096", "brand:wikipedia": "fr:Franprix", "name": "Franprix", "opening_hours": "Mo-Sa 07:30-22:00;Su 09:00+", "operator": "Groupe Casino", "shop": "convenience", "source": "survey"}}, {"type": "node", "id": 2093602548, "lat": 48.8805483, "lon": 2.3173568, "tags": {"name": "Magasin/Kebab", "shop": "convenience"}}, {"type": "node", "id": 2093603869, "lat": 48.8778292, "lon": 2.3144145, "tags": {"name": "83", "shop": "convenience"}}, {"type": "node", "id": 2107054818, "lat": 48.8450824, "lon": 2.2637558, "tags": {"access:covid19": "yes", "name": "A la Providence", "opening_hours:covid19": "open", "shop": "convenience"}}, {"type": "node", "id": 2107699914, "lat": 48.8403372, "lon": 2.2638824, "tags": {"brand": "Franprix", "brand:wikidata": "Q2420096", "brand:wikipedia": "fr:Franprix", "name": "Franprix", "opening_hours": "Mo-Sa 07:30-21:30; Su 09:00+", "operator": "Groupe Casino", "shop": "convenience"}}, {"type": "node", "id": 2108571026, "lat": 48.8428845, "lon": 2.264913, "tags": {"name": "Sup'lag", "shop": "convenience"}}, {"type": "node", "id": 2126361725, "lat": 48.8722919, "lon": 2.3433234, "tags": {"name": "L'Or\u00e9e de Montmartre", "shop": "convenience", "source": "survey"}}, {"type": "node", "id": 2145835687, "lat": 48.8451819, "lon": 2.3886925, "tags": {"name": "Agalya", "shop": "convenience"}}, {"type": "node", "id": 2160594534, "lat": 48.8763592, "lon": 2.3483732, "tags": {"brand": "Franprix", "brand:wikidata": "Q2420096", "brand:wikipedia": "fr:Franprix", "name": "Franprix", "opening_hours": "Mo-Sa 08:30-22:00; Su 09:00-13:00", "operator": "Groupe Casino", "shop": "convenience", "source": "survey:2016-06-03", "website": "http://www.franprix.fr/", "wheelchair": "yes"}}, {"type": "node", "id": 2160622352, "lat": 48.8699972, "lon": 2.3521412, "tags": {"brand": "Naturalia", "brand:wikidata": "Q3337081", "brand:wikipedia": "fr:Naturalia", "name": "Naturalia", "opening_hours": "Mo-Sa 10:00-08:00", "operator": "Groupe Casino", "organic": "only", "shop": "convenience", "source": "survey", "website": "https://naturalia.fr/", "wheelchair": "yes"}},