{"version": 0.6, "generator": "Overpass API 0.7.60 f4c14d41", "osm3s": {"timestamp_osm_base": "2023-05-02T21:15:23Z", "copyright": "The data included in this document is from www.openstreetmap.org. The data is made available under ODbL."}, "elements": [{"type": "node", "id": 1427212583, "lat": 40.7525995, "lon": -73.9792197, "tags": {"amenity": "bureau_de_change"}}, {"type": "node", "id": 2562438636, "lat": 40.8237853, "lon": -73.9445884, "tags": {"addr:housenumber": "358", "addr:postcode": "10030", "addr:street": "West 145th Street", "amenity": "bureau_de_change", "atm": "yes", "name": "CFSC", "office": "financial", "official_name": "Community Financial Service Centers", "opening_hours": "24/7", "phone": "+1-212-368-1657", "website": "https://locations.cfsc.com/cfsc-checks-cashed-358-w-145th-82920f09bf48"}}, {"type": "node", "id": 2709702391, "lat": 40.7503743, "lon": -73.9908121, "tags": {"addr:city": "New York", "addr:housenumber": "421", "addr:postcode": "10001", "addr:state": "NY", "addr:street": "7th Avenue", "amenity": "bureau_de_change"}}, {"type": "node", "id": 2766039255, "lat": 40.7008987, "lon": -73.8076083, "tags": {"addr:city": "Jamaica", "addr:country": "US", "addr:housenumber": "90-79", "addr:postcode": "11435", "addr:state": "NY", "addr:street": "Sutphin Boulevard", "amenity": "bureau_de_change", "name": "Cash Zone"}}, {"type": "node", "id": 3677073036, "lat": 40.666457, "lon": -73.9883682, "tags": {"amenity": "bureau_de_change", "description": "Hair salon, money orders, money wires, currency exchange", "money_transfer": "La Nacionel", "name": "Judy Unisex", "office": "money_transfer", "phone": "+1-718-832-0639", "shop": "hairdresser"}}, {"type": "node", "id": 5651033398, "lat": 40.7566453, "lon": -73.9888966, "tags": {"addr:city": "New York", "addr:housenumber": "234", "addr:postcode": "10036", "addr:street": "West 42nd Street", "amenity": "bureau_de_change", "name": "Change Money", "operator": "ChangeGroup"}}, {"type": "node", "id": 5810913537, "lat": 40.6393119, "lon": -73.7814412, "tags": {"amenity": "bureau_de_change", "brand": "Travelex", "brand:wikidata": "Q2337964", "brand:wikipedia": "en:Travelex", "name": "Travelex"}}, {"type": "node", "id": 5906945687, "lat": 40.6478771, "lon": -73.7920485, "tags": {"amenity": "bureau_de_change", "name": "Currency Exchange"}}, {"type": "node", "id": 5906946192, "lat": 40.6471954, "lon": -73.7937795, "tags": {"amenity": "bureau_de_change", "brand": "Travelex", "brand:wikidata": "Q2337964", "brand:wikipedia": "en:Travelex", "name": "Travelex"}}, {"type": "node", "id": 5906982689, "lat": 40.6500814, "lon": -73.791993, "tags": {"amenity": "bureau_de_change", "brand": "Travelex", "brand:wikidata": "Q2337964", "brand:wikipedia": "en:Travelex", "name": "Travelex"}}, {"type": "node", "id": 6442303486, "lat": 40.6430901, "lon": -73.7827304, "tags": {"amenity": "bureau_de_change", "brand": "Travelex", "brand:wikidata": "Q2337964", "brand:wikipedia": "en:Travelex", "name": "Travelex"}}, {"type": "node", "id": 6442303489, "lat": 40.6437479, "lon": -73.7814341, "tags": {"amenity": "bureau_de_change", "brand": "Travelex", "brand:wikidata": "Q2337964", "brand:wikipedia": "en:Travelex", "name": "Travelex"}}, {"type": "node", "id": 6684047212, "lat": 40.6498789, "lon": -73.7834324, "tags": {"amenity": "bureau_de_change", "brand": "Travelex", "brand:wikidata": "Q2337964", "brand:wikipedia": "en:Travelex", "name": "Travelex"}}, {"type": "node", "id": 7951223524, "lat": 40.7549729, "lon": -73.9911913, "tags": {"amenity": "bureau_de_change"}}, {"type": "node", "id": 8551295308, "lat": 40.7607939, "lon": -73.9694171, "tags": {"amenity": "bureau_de_change"}}, {"type": "node", "id": 9057614890, "lat": 40.5825874, "lon": -74.165909, "tags": {"amenity": "bureau_de_change", "currency:USD": "yes", "indoor": "yes", "level": "0", "payment:cash": "yes", "payment:coins": "yes"}}, {"type": "node", "id": 9721905121, "lat": 40.7019703, "lon": -73.8951629, "tags": {"addr:city": "Ridgewood", "addr:housenumber": "70-768", "addr:postcode": "11385", "addr:state": "NY", "addr:street": "Fresh Pond Road", "amenity": "bureau_de_change", "name": "Gold & Silver Enterprise", "phone": "+1-718-381-7296", "product": "diamonds;gold;silver"}}, {"type": "node", "id": 9738403852, "lat": 40.6443542, "lon": -73.9765141, "tags": {"addr:housenumber": "323", "addr:postcode": "11218", "addr:street": "East 4th Street", "amenity": "bureau_de_change", "fax": "+1-347-365-3192", "name": "Touchpoint Multi Services", "opening_hours": "Mo-Sa 11:00-21:00; Su 16:00-21:00", "phone": "+1-347-369-6093"}}]}