{"version": 0.6, "generator": "Overpass API 0.7.60 f4c14d41", "osm3s": {"timestamp_osm_base": "2023-05-02T21:19:24Z", "copyright": "The data included in this document is from www.openstreetmap.org. The data is made available under ODbL."}, "elements": [{"type": "node", "id": 426899446, "lat": -33.7447854, "lon": 150.6105888, "tags": {"name": "Blaxland Cellars", "shop": "alcohol", "source": "survey"}}, {"type": "node", "id": 2763941396, "lat": -33.7116132, "lon": 150.3100916, "tags": {"brand": "Dan Murphy's", "brand:wikidata": "Q5214075", "brand:wikipedia": "en:Dan Murphy's", "name": "Dan Murphy's", "shop": "alcohol", "toilets:wheelchair": "no", "wheelchair": "yes"}}, {"type": "node", "id": 5237382306, "lat": -33.7200232, "lon": 150.4293022, "tags": {"name": "Cellarbration", "shop": "alcohol"}}, {"type": "node", "id": 6449128862, "lat": -33.7133932, "lon": 150.331361, "tags": {"branch": "Leura", "brand": "BWS", "brand:wikidata": "Q4836848", "brand:wikipedia": "en:BWS (liquor retailer)", "name": "BWS Leura", "shop": "alcohol"}}, {"type": "node", "id": 6460201218, "lat": -33.7218078, "lon": 150.4530826, "tags": {"name": "The Bottle-O Hazelbrook", "shop": "alcohol"}}, {"type": "node", "id": 6681060673, "lat": -33.7101311, "lon": 150.3752608, "tags": {"addr:housenumber": "201", "addr:street": "Great Western Highway", "addr:suburb": "Wentworth Falls", "name": "D'vine Cellars", "phone": "+61 2 4757 1880", "shop": "alcohol"}}, {"type": "node", "id": 6690336855, "lat": -33.6990767, "lon": 150.5679026, "tags": {"name": "Chambers Callars", "shop": "alcohol"}}, {"type": "node", "id": 6690336913, "lat": -33.6988025, "lon": 150.5661605, "tags": {"brand": "BWS", "brand:wikidata": "Q4836848", "brand:wikipedia": "en:BWS (liquor retailer)", "name": "BWS", "shop": "alcohol"}}, {"type": "node", "id": 6784997335, "lat": -33.6712418, "lon": 150.6088357, "tags": {"addr:housenumber": "14-28", "addr:street": "White Cross Road", "addr:unit": "2", "brand": "Liquorland", "brand:wikidata": "Q2283837", "brand:wikipedia": "en:Liquorland", "name": "Liquorland", "shop": "alcohol"}}, {"type": "node", "id": 6934570391, "lat": -33.7118982, "lon": 150.3100262, "tags": {"name": "Bottle Mart", "shop": "alcohol"}}, {"type": "node", "id": 6938677692, "lat": -33.7168831, "lon": 150.3105662, "tags": {"brand": "Liquorland", "brand:wikidata": "Q2283837", "brand:wikipedia": "en:Liquorland", "name": "Liquorland", "shop": "alcohol"}}, {"type": "node", "id": 6938921566, "lat": -33.7131489, "lon": 150.3119253, "tags": {"name": "Katoomba Wines", "opening_hours": "Mo-Fr 15:00-22:00; Sa,Su 12:00-22:00", "shop": "alcohol", "wheelchair": "limited"}}, {"type": "node", "id": 7057730928, "lat": -33.7223841, "lon": 150.603122, "tags": {"addr:housenumber": "281", "addr:street": "Great Western Highway", "name": "Murray's Porters Liquor Warrimoo", "opening_hours": "Mo-Th 10:00-20:00; Fr-Sa 09:00-21:00; Su 10:00-19:00", "phone": "+61 2 4753 6186", "shop": "alcohol", "website": "https://www.portersliquor.com.au/"}}, {"type": "node", "id": 7057810947, "lat": -33.6939572, "lon": 150.5476015, "tags": {"name": "Chambers Cellars Faulconbridge", "shop": "alcohol"}}, {"type": "node", "id": 8326535939, "lat": -33.7143821, "lon": 150.3106337, "tags": {"addr:unit": "Shop 3", "brand": "Liquorland", "brand:wikidata": "Q2283837", "brand:wikipedia": "en:Liquorland", "level": "0", "name": "Liquorland", "shop": "alcohol"}}]}