{"version": 0.6, "generator": "Overpass API 0.7.60 f4c14d41", "osm3s": {"timestamp_osm_base": "2023-05-02T21:17:24Z", "copyright": "The data included in this document is from www.openstreetmap.org. The data is made available under ODbL."}, "elements": [{"type": "node", "id": 448610218, "lat": -33.886362, "lon": 150.8885279, "tags": {"amenity": "cafe"}}, {"type": "node", "id": 448631264, "lat": -33.8732451, "lon": 150.9577469, "tags": {"amenity": "cafe"}}, {"type": "node", "id": 560217485, "lat": -33.8056729, "lon": 150.9037672}, {"type": "node", "id": 560217486, "lat": -33.8055262, "lon": 150.9039059}, {"type": "node", "id": 560217487, "lat": -33.8057407, "lon": 150.9042249}, {"type": "node", "id": 560217488, "lat": -33.8058821, "lon": 150.9040914}, {"type": "node", "id": 600744650, "lat": -33.7669904, "lon": 150.6217584, "tags": {"amenity": "cafe", "name": "Cafe Cee"}}, {"type": "node", "id": 600745432, "lat": -33.767338, "lon": 150.6219718, "tags": {"addr:city": "Glenbrook", "addr:housenumber": "6", "addr:postcode": "2773", "addr:street": "Ross Street", "amenity": "cafe", "contact:facebook": "https://www.facebook.com/kickaboom/", "name": "Kickaboom"}}, {"type": "node", "id": 1307725781, "lat": -33.9074996, "lon": 150.9189988, "tags": {"addr:housenumber": "10", "addr:street": "Orange Grove Road", "addr:suburb": "Liverpool", "addr:unit": "2", "amenity": "cafe", "brand": "McCaf\u00e9", "brand:wikidata": "Q3114287", "brand:wikipedia": "en:McCaf\u00e9", "cuisine": "coffee_shop", "name": "McCaf\u00e9", "takeaway": "yes"}}, {"type": "node", "id": 1314982825, "lat": -33.7727215, "lon": 150.9696464, "tags": {"amenity": "cafe"}}, {"type": "node", "id": 1500998490, "lat": -33.9483367, "lon": 150.9535708, "tags": {"amenity": "cafe", "name": "Catch Up Cafe", "wheelchair": "limited"}}, {"type": "node", "id": 1500998491, "lat": -33.9484057, "lon": 150.9535975, "tags": {"amenity": "cafe", "cuisine": "pizza", "name": "Mimi's Pizza"}}, {"type": "node", "id": 1613723981, "lat": -33.8329857, "lon": 150.9694843, "tags": {"amenity": "cafe", "cuisine": "turkish", "name": "Alba's Patisserie"}}, {"type": "node", "id": 1716304901, "lat": -33.8183355, "lon": 150.9326652, "tags": {"amenity": "cafe", "cuisine": "coffee_shop", "name": "Michels Patisserie"}}, {"type": "node", "id": 1852735978, "lat": -33.7888799, "lon": 150.6690118, "tags": {"amenity": "cafe", "cuisine": "coffee_shop", "name": "Gloria Jean's Coffees", "source": "survey", "wifi": "yes"}}, {"type": "node", "id": 2197151241, "lat": -33.7893752, "lon": 150.8895183, "tags": {"amenity": "cafe", "cuisine": "coffee_shop", "name": "Gloria Jean"}}, {"type": "node", "id": 2521832291, "lat": -33.7961356, "lon": 150.7057456, "tags": {"amenity": "cafe", "cuisine": "coffee_shop", "name": "The Lighthouse Cafe"}}, {"type": "node", "id": 2618190726, "lat": -33.8026914, "lon": 150.9552496, "tags": {"amenity": "cafe", "name": "Coffee Shack", "source": "survey"}}, {"type": "node", "id": 2696066263, "lat": -33.8343899, "lon": 150.968536, "tags": {"amenity": "cafe", "brand": "McCaf\u00e9", "brand:wikidata": "Q3114287", "cuisine": "coffee_shop", "name": "McCaf\u00e9", "takeaway": "yes"}}, {"type": "node", "id": 2787059924, "lat": -33.9073494, "lon": 150.8661601, "tags": {"amenity": "cafe", "brand": "McCaf\u00e9", "brand:wikidata": "Q3114287", "brand:wikipedia": "en:McCaf\u00e9", "cuisine": "coffee_shop", "name": "McCaf\u00e9", "takeaway": "yes"}}, {"type": "node", "id": 2787201117, "lat": -33.9177853, "lon": 150.9121737, "tags": {"amenity": "cafe", "brand": "McCaf\u00e9", "brand:wikidata": "Q3114287", "brand:wikipedia": "en:McCaf\u00e9", "cuisine": "coffee_shop", "name": "McCaf\u00e9", "source": "survey", "takeaway": "yes"}}, {"type": "node", "id": 2814671553, "lat": -33.8567716, "lon": 150.8974794, "tags": {"amenity": "cafe", "brand": "McCaf\u00e9", "brand:wikidata": "Q3114287", "brand:wikipedia": "en:McCaf\u00e9", "cuisine": "coffee_shop", "name": "McCaf\u00e9", "source": "survey", "takeaway": "yes"}}, {"type": "node", "id": 2817273754, "lat": -33.8452893, "lon": 150.8957139, "tags": {"amenity": "cafe", "name": "Primo Caffe"}}, {"type": "node", "id": 2877174863, "lat": -33.928624, "lon": 150.9475496, "tags": {"amenity": "cafe", "brand": "McCaf\u00e9", "brand:wikidata": "Q3114287", "brand:wikipedia": "en:McCaf\u00e9", "cuisine": "coffee_shop", "name": "McCaf\u00e9", "source": "survey", "takeaway": "yes"}}, {"type": "node", "id": 3239026416, "lat": -33.7806032, "lon": 150.9199654, "tags": {"amenity": "cafe", "brand": "McCaf\u00e9", "brand:wikidata": "Q3114287", "brand:wikipedia": "en:McCaf\u00e9", "cuisine": "coffee_shop", "name": "McCaf\u00e9", "takeaway": "yes"}}, {"type": "node", "id": 3240687729, "lat": -33.8881361, "lon": 150.8818348, "tags": {"amenity": "cafe", "name": "McCafe", "source": "survey"}}, {"type": "node", "id": 3262661932, "lat": -33.882312, "lon": 150.8589793, "tags": {"amenity": "cafe", "name": "Amoretti's Cafe"}}, {"type": "node", "id": 3285065230, "lat": -33.7679573, "lon": 150.6219022, "tags": {"amenity": "cafe", "cuisine": "coffee_shop", "name": "The Church Cafe"}}, {"type": "node", "id": 3329410104, "lat": -34.0695432, "lon": 150.7920361, "tags": {"amenity": "cafe", "brand": "Jamaica Blue", "brand:wikidata": "Q24965819", "cuisine": "coffee_shop", "name": "Jamaica Blue", "smoking": "no", "takeaway": "yes"}}, {"type": "node", "id": 3329413808, "lat": -34.0685068, "lon": 150.7903053, "tags": {"amenity": "cafe", "name": "Bobbie's Cafe", "smoking": "no"}}, {"type": "node", "id": 4092067567, "lat": -34.0008453, "lon": 150.739837, "tags": {"amenity": "cafe", "name": "Oran Park Town Cafe"}}, {"type": "node", "id": 4167363133, "lat": -33.8082997, "lon": 150.9111274, "tags": {"amenity": "cafe", "name": "Little Fins Cafe"}}, {"type": "node", "id": 4167363134, "lat": -33.8083933, "lon": 150.9108806, "tags": {"amenity": "cafe", "name": "Sweet Treats"}}, {"type": "node", "id": 4167363135, "lat": -33.8074066, "lon": 150.9100237, "tags": {"amenity": "cafe", "name": "The Surf Club"}}, {"type": "node", "id": 4186871261, "lat": -33.8823963, "lon": 150.8588884}, {"type": "node", "id": 4186871262, "lat": -33.8824529, "lon": 150.8589148}, {"type": "node", "id": 4186871263, "lat": -33.8824714, "lon": 150.858867}, {"type": "node", "id": 4186871264, "lat": -33.882414, "lon": 150.8588386}, {"type": "node", "id": 4186871265, "lat": -33.8824073, "lon": 150.8588589}, {"type": "node", "id": 4186871266, "lat": -33.8823027, "lon": 150.8588081}, {"type": "node", "id": 4186871267, "lat": -33.882279, "lon": 150.8588772}, {"type": "node", "id": 4186871268, "lat": -33.8822984, "lon": 150.8588863}, {"type": "node", "id": 4186871269, "lat": -33.8822588, "lon": 150.8590052}, {"type": "node", "id": 4186871270, "lat": -33.8822385, "lon": 150.8589971}, {"type": "node", "id": 4186871271, "lat": -33.8822082, "lon": 150.8590835}, {"type": "node", "id": 4186871272, "lat": -33.8822571, "lon": 150.8591089}, {"type": "node", "id": 4186871273, "lat": -33.8822689, "lon": 150.8590754}, {"type": "node", "id": 4186871274, "lat": -33.8823432, "lon": 150.859111}, {"type": "node", "id": 4186871275, "lat": -33.8823761, "lon": 150.8590205}, {"type": "node", "id": 4186871276, "lat": -33.8823575, "lon": 150.8590093}, {"type": "node", "id": 4186871278, "lat": -33.8822821, "lon": 150.8589354}, {"type": "node", "id": 4226257940, "lat": -33.8754743, "lon": 150.6892469, "tags": {"addr:city": "Luddenham", "addr:housenumber": "3035", "addr:postcode": "2745", "addr:street": "The Northern Road", "amenity": "cafe", "name": "Luddenham Village Cafe", "opening_hours": "We-Fr 06:30-14:00, Sa-Su 07:00-14:00"}}, {"type": "node", "id": 4228128902, "lat": -33.8839777, "lon": 150.6944692, "tags": {"amenity": "cafe", "fixme": "name"}}, {"type": "node", "id": 4278516540, "lat": -34.1013305, "lon": 150.7674803, "tags": {"amenity": "cafe", "name": "Cafeteria", "smoking": "no"}}, {"type": "node", "id": 4374907078, "lat": -34.0046082, "lon": 150.7843117, "tags": {"amenity": "cafe", "name": "Gledswood Homestead", "source": "NSW LPI Base Map", "source:date": "2016-08", "website": "http://www.gledswood.com.au/"}}, {"type": "node", "id": 4385263609, "lat": -33.7676442, "lon": 150.7287474, "tags": {"amenity": "cafe", "internet_access": "no", "name": "Piccolo Me", "outdoor_seating": "yes", "smoking": "no"}}, {"type": "node", "id": 4388782889, "lat": -33.7663323, "lon": 150.7301421, "tags": {"amenity": "cafe", "fixme": "I think this business no longer operates at WSU, I will survey later.", "name": "BAR Cafe", "outdoor_seating": "yes", "smoking": "no", "takeaway": "yes"}}, {"type": "node", "id": 4544481693, "lat": -33.9347653, "lon": 150.8895216, "tags": {"amenity": "cafe", "name": "Rola's Kitchen", "name:en": "Rola's Kitchen"}}, {"type": "node", "id": 4544636889, "lat": -33.9186242, "lon": 150.9247483, "tags": {"amenity": "cafe", "name": "Oliver Brown", "name:en": "Oliver Brown"}}, {"type": "node", "id": 4546121391, "lat": -33.9280616, "lon": 150.9090915, "tags": {"amenity": "cafe", "name": "Car Wash", "name:en": "Car Wash"}}, {"type": "node", "id": 4546121490, "lat": -33.9266016, "lon": 150.9201113, "tags": {"amenity": "cafe", "name": "Gelato Cafe", "name:en": "Gelato Cafe"}}, {"type": "node", "id": 4546122589, "lat": -33.9248253, "lon": 150.9263851, "tags": {"amenity": "cafe", "name": "Lara's", "name:en": "Lara's"}}, {"type": "node", "id": 4546260405, "lat": -33.9199535, "lon": 150.9240664, "tags": {"amenity": "cafe", "name": "H", "name:en": "H"}}, {"type": "node", "id": 4546297605, "lat": -33.9220638, "lon": 150.9239683, "tags": {"amenity": "cafe", "name": "Little Coffee Beans", "name:en": "Little Coffee Beans"}}, {"type": "node", "id": 4546298995, "lat": -33.9219453, "lon": 150.9239911, "tags": {"amenity": "cafe", "name": "Echo", "name:en": "Echo"}}, {"type": "node", "id": 4546298997, "lat": -33.9221427, "lon": 150.9239526, "tags": {"amenity": "cafe", "name": "Hennessy", "name:en": "Hennessy"}}, {"type": "node", "id": 4546305891, "lat": -33.917078, "lon": 150.9250268, "tags": {"amenity": "cafe", "name": "Cafe Twenty3"}}, {"type": "node", "id": 4546306393, "lat": -33.9205595, "lon": 150.9252162, "tags": {"amenity": "cafe", "name": "129 on Georges", "name:en": "129 on Georges"}}, {"type": "node", "id": 4547815494, "lat": -33.9184152, "lon": 150.9236997, "tags": {"amenity": "cafe", "brand": "Gloria Jean's", "brand:wikidata": "Q2666365", "brand:wikipedia": "en:Gloria Jean's Coffees", "cuisine": "coffee_shop", "name": "Gloria Jean's", "name:en": "Gloria Jean's", "official_name": "Gloria Jean's Coffees", "takeaway": "yes"}}, {"type": "node", "id": 4547826394, "lat": -33.9192055, "lon": 150.9232916, "tags": {"amenity": "cafe", "name": "The Bean Bag", "name:en": "The Bean Bag"}}, {"type": "node", "id": 4784427568, "lat": -33.9986944, "lon": 150.8659691, "tags": {"amenity": "cafe"}}, {"type": "node", "id": 5154162506, "lat": -33.767566, "lon": 150.621655, "tags": {"addr:city": "Glenbrook", "addr:housenumber": "25", "addr:postcode": "2773", "addr:street": "Ross Street", "amenity": "cafe", "name": "Vincent Diner", "website": "https://www.vincent-diner.com.au/"}}, {"type": "node", "id": 5639617827, "lat": -33.9226514, "lon": 150.9278677, "tags": {"amenity": "cafe"}}, {"type": "node", "id": 5875641864, "lat": -33.9977683, "lon": 150.8651288, "tags": {"amenity": "cafe"}}, {"type": "node", "id": 5875641870, "lat": -33.9978207, "lon": 150.8656115, "tags": {"amenity": "cafe"}}, {"type": "node", "id": 5875641873, "lat": -33.9974078, "lon": 150.8661951, "tags": {"amenity": "cafe"}}, {"type": "node", "id": 5875641880, "lat": -33.9967184, "lon": 150.866414, "tags": {"amenity": "cafe"}}, {"type": "node", "id": 5999557032, "lat": -33.8219576, "lon": 150.9211671, "tags": {"amenity": "cafe", "name": "Granata's"}}, {"type": "node", "id": 5999570416, "lat": -33.8219289, "lon": 150.9211892}, {"type": "node", "id": 5999570419, "lat": -33.8219428, "lon": 150.9212944}, {"type": "node", "id": 5999570420, "lat": -33.821989, "lon": 150.9212845}, {"type": "node", "id": 5999570421, "lat": -33.8219924, "lon": 150.921326}, {"type": "node", "id": 5999570422, "lat": -33.8220169, "lon": 150.9213233}, {"type": "node", "id": 5999570423, "lat": -33.821998, "lon": 150.9211919}, {"type": "node", "id": 5999570424, "lat": -33.8219779, "lon": 150.9211946}, {"type": "node", "id": 5999570425, "lat": -33.8219545, "lon": 150.921027}, {"type": "node", "id": 5999570426, "lat": -33.8219089, "lon": 150.9210355}, {"type": "node", "id": 6043928972, "lat": -33.8955078, "lon": 150.93583, "tags": {"addr:postcode": "2166", "addr:street": "Belvedere Arcade", "amenity": "cafe", "cuisine": "vietnamese", "name": "Caf\u00e9 Nh\u00f3", "wheelchair": "no"}}, {"type": "node", "id": 6351291285, "lat": -33.8162428, "lon": 150.9218199, "tags": {"amenity": "cafe", "name": "Cafe with an E", "outdoor_seating": "yes", "takeaway": "yes"}}, {"type": "node", "id": 6514566685, "lat": -34.0323856, "lon": 150.6563867, "tags": {"amenity": "cafe", "name": "Cafe 104"}}, {"type": "node", "id": 6519615291, "lat": -34.055409, "lon": 150.6942869, "tags": {"amenity": "cafe"}}, {"type": "node", "id": 6519615298, "lat": -34.0552535, "lon": 150.694527, "tags": {"amenity": "cafe"}}, {"type": "node", "id": 6768360912, "lat": -34.0735654, "lon": 150.798517, "tags": {"amenity": "cafe", "name": "Nu Healthy Cafe"}}, {"type": "node", "id": 6872651457, "lat": -33.8873436, "lon": 150.9429906, "tags": {"amenity": "cafe", "name": "The Weston Eatery"}}, {"type": "node", "id": 7124063888, "lat": -34.0758133, "lon": 150.8049293, "tags": {"amenity": "cafe", "brand": "Jamaica Blue", "brand:wikidata": "Q24965819", "brand:wikipedia": "en:Jamaica Blue", "cuisine": "coffee_shop", "name": "Jamaica Blue", "outdoor_seating": "yes", "takeaway": "yes"}}, {"type": "node", "id": 7217830040, "lat": -33.7693515, "lon": 150.6697321, "tags": {"amenity": "cafe", "name": "Para Bey Gourmet Kitchen"}}, {"type": "node", "id": 7217830058, "lat": -33.7713284, "lon": 150.6719134, "tags": {"amenity": "cafe", "name": "SALT Cafe", "website": "https://salt-cafe.com.au/"}}, {"type": "node", "id": 7432065370, "lat": -33.7881996, "lon": 150.8654978}, {"type": "node", "id": 7432065371, "lat": -33.7882597, "lon": 150.8655466}, {"type": "node", "id": 7432065372, "lat": -33.788186, "lon": 150.8656782}, {"type": "node", "id": 7432065373, "lat": -33.7881259, "lon": 150.8656295}, {"type": "node", "id": 7432065374, "lat": -33.7886213, "lon": 150.8660133}, {"type": "node", "id": 7432065375, "lat": -33.7887729, "lon": 150.8659966}, {"type": "node", "id": 7432065376, "lat": -33.788626, "lon": 150.8660759}, {"type": "node", "id": 7432065377, "lat": -33.7887777, "lon": 150.8660592}, {"type": "node", "id": 7675660655, "lat": -33.9722989, "lon": 150.8937149, "tags": {"amenity": "cafe", "cuisine": "coffee_shop", "name": "Platform No 5", "outdoor_seating": "yes"}}, {"type": "node", "id": 7795911531, "lat": -33.8055359, "lon": 150.9039204}, {"type": "node", "id": 7795911536, "lat": -33.8055887, "lon": 150.9039988}, {"type": "node", "id": 7795911537, "lat": -33.8057786, "lon": 150.9039311}, {"type": "node", "id": 7795911540, "lat": -33.8058659, "lon": 150.9040663}, {"type": "node", "id": 8009577586, "lat": -34.0154759, "lon": 150.6821542, "tags": {"amenity": "cafe", "name": "Cobbitty Bakehouse"}}, {"type": "node", "id": 8263376798, "lat": -33.8404409, "lon": 150.9155639}, {"type": "node", "id": 8263376799, "lat": -33.8404561, "lon": 150.9156955}, {"type": "node", "id": 8263376800, "lat": -33.8405046, "lon": 150.9155532}, {"type": "node", "id": 8263376802, "lat": -33.8405198, "lon": 150.9156848}, {"type": "node", "id": 8784013806, "lat": -34.0840868, "lon": 150.8130549, "tags": {"addr:housenumber": "100", "addr:postcode": "2560", "addr:state": "NSW", "addr:street": "The Parkway", "addr:suburb": "Bradbury", "amenity": "cafe", "cuisine": "coffee_shop", "internet_access": "yes", "internet_access:fee": "customers", "name": "Crave Espresso", "outdoor_seating": "yes", "payment:cash": "yes", "payment:contactless": "yes", "payment:credit_cards": "yes", "payment:mastercard": "yes", "payment:visa": "yes", "phone": "+61 2 4628 1071", "reservation": "no", "takeaway": "yes"}}, {"type": "node", "id": 8794507913, "lat": -33.8498535, "lon": 150.8742153, "tags": {"amenity": "cafe", "name": "Saluti Cafe"}}, {"type": "node", "id": 8907192977, "lat": -34.0734814, "lon": 150.7969652, "tags": {"addr:housenumber": "200", "addr:level": "1", "addr:postcode": "2560", "addr:state": "NSW", "addr:street": "Gilchrist Drive", "addr:suburb": "Campbelltown", "addr:unit": "KC01", "amenity": "cafe", "branch": "Macarthur Square", "brand": "Gong Cha", "brand:wikidata": "Q5581670", "brand:zh": "\u8ca2\u8336", "cuisine": "bubble_tea", "int_name": "Gong Cha", "name": "Gong Cha", "name:zh": "\u8ca2\u8336", "opening_hours": "Fr-We 09:00-20:30; Th 09:00-21:30", "outdoor_seating": "no", "takeaway": "yes"}}, {"type": "node", "id": 9170548991, "lat": -33.8839195, "lon": 150.9271718, "tags": {"addr:housenumber": "215", "addr:street": "Canley Vale Road", "amenity": "cafe", "cuisine": "bubble_tea", "name": "The Alley Lujiaoxiang"}}, {"type": "node", "id": 9171005059, "lat": -33.8842037, "lon": 150.9265077, "tags": {"addr:housenumber": "236", "addr:street": "Canley Vale Road", "addr:unit": "2", "amenity": "cafe", "cuisine": "vietnamese", "name": "Canley Heights Corner Cafe"}}, {"type": "node", "id": 9171005063, "lat": -33.8841906, "lon": 150.9268438, "tags": {"addr:housenumber": "226", "addr:street": "Canley Vale Road", "amenity": "cafe", "name": "Le Courtyard Cafe"}}, {"type": "node", "id": 9171005094, "lat": -33.8843542, "lon": 150.9280635, "tags": {"addr:housenumber": "194", "addr:street": "Canley Vale Road", "addr:unit": "2", "amenity": "cafe", "name": "Excellent Coffee House"}}, {"type": "node", "id": 9173759739, "lat": -33.8872146, "lon": 150.9426491, "tags": {"amenity": "cafe", "name": "Cafe Bosa"}}, {"type": "node", "id": 9173759742, "lat": -33.8871325, "lon": 150.9423375, "tags": {"amenity": "cafe", "brand": "Gong Cha", "brand:wikidata": "Q5581670", "brand:wikipedia": "en:Gong Cha", "brand:zh": "\u8ca2\u8336", "cuisine": "bubble_tea", "int_name": "Gong Cha", "name": "Gong Cha", "name:zh": "\u8ca2\u8336", "takeaway": "yes"}}, {"type": "node", "id": 9211879687, "lat": -34.0717168, "lon": 150.8040077, "tags": {"amenity": "cafe", "brand": "Jamaica Blue", "brand:wikidata": "Q24965819", "brand:wikipedia": "en:Jamaica Blue", "cuisine": "coffee_shop", "name": "Jamaica Blue", "outdoor_seating": "no", "takeaway": "yes"}}, {"type": "node", "id": 9220095523, "lat": -33.9521801, "lon": 150.8548321, "tags": {"addr:housenumber": "1975", "addr:postcode": "2170", "addr:state": "NSW", "addr:street": "Camden Valley Way", "addr:suburb": "Prestons", "addr:unit": "5", "amenity": "cafe", "name": "XS Espresso Prestons"}}, {"type": "node", "id": 9220095534, "lat": -33.9484117, "lon": 150.9001342, "tags": {"amenity": "cafe", "name": "Cafe 4se7en"}}, {"type": "node", "id": 9220095536, "lat": -33.9474766, "lon": 150.9003186, "tags": {"amenity": "cafe", "name": "Oliver Brown"}}, {"type": "node", "id": 9236700524, "lat": -33.788234, "lon": 150.8655925}, {"type": "node", "id": 9236700635, "lat": -33.7882311, "lon": 150.8655977}, {"type": "node", "id": 9364658412, "lat": -33.7689361, "lon": 150.7734713, "tags": {"amenity": "cafe", "name": "Rush-In Bites Cafe"}}, {"type": "node", "id": 9365266963, "lat": -33.7668926, "lon": 150.7741951, "tags": {"amenity": "cafe", "name": "Fernz Cafe"}}, {"type": "node", "id": 9369045765, "lat": -34.0745225, "lon": 150.8052061, "tags": {"amenity": "cafe", "brand": "Gloria Jean's", "brand:wikidata": "Q2666365", "brand:wikipedia": "en:Gloria Jean's Coffees", "cuisine": "coffee_shop", "name": "Gloria Jean's", "official_name": "Gloria Jean's Coffees", "takeaway": "yes"}}, {"type": "node", "id": 9369046088, "lat": -34.0675408, "lon": 150.8124496, "tags": {"amenity": "cafe", "name": "Seta's Cafe"}}, {"type": "node", "id": 9369124989, "lat": -34.0675246, "lon": 150.8140061, "tags": {"amenity": "cafe", "name": "Khafe Co."}}, {"type": "node", "id": 9369263679, "lat": -34.0654077, "lon": 150.8151889, "tags": {"amenity": "cafe", "name": "Centre Court Take Away"}}, {"type": "node", "id": 9369263698, "lat": -34.0660102, "lon": 150.8146741, "tags": {"amenity": "cafe", "name": "Chino's Cappuccino"}}, {"type": "node", "id": 9369263707, "lat": -34.0660302, "lon": 150.8142728, "tags": {"amenity": "cafe", "name": "Le Coffee House"}}, {"type": "node", "id": 9369263708, "lat": -34.0663076, "lon": 150.8144048, "tags": {"amenity": "cafe", "brand": "Gloria Jean's", "brand:wikidata": "Q2666365", "brand:wikipedia": "en:Gloria Jean's Coffees", "cuisine": "coffee_shop", "name": "Gloria Jean's", "official_name": "Gloria Jean's Coffees", "takeaway": "yes"}}, {"type": "node", "id": 9380748705, "lat": -33.7948284, "lon": 150.7888103, "tags": {"amenity": "cafe", "brand": "Gloria Jean's", "brand:wikidata": "Q2666365", "brand:wikipedia": "en:Gloria Jean's Coffees", "cuisine": "coffee_shop", "name": "Gloria Jean's", "official_name": "Gloria Jean's Coffees", "source": "survey", "source:date": "2022-01", "takeaway": "yes"}}, {"type": "node", "id": 9385055882, "lat": -33.7685181, "lon": 150.6856626, "tags": {"amenity": "cafe", "name": "Pantere"}}, {"type": "node", "id": 9387589839, "lat": -33.7844446, "lon": 150.7095633, "tags": {"amenity": "cafe", "name": "Shalom Cafe"}}, {"type": "node", "id": 9389590838, "lat": -33.8794439, "lon": 150.7894868}, {"type": "node", "id": 9389590839, "lat": -33.8794552, "lon": 150.7895873}, {"type": "node", "id": 9389590840, "lat": -33.8796446, "lon": 150.7895538}, {"type": "node", "id": 9389590841, "lat": -33.8796309, "lon": 150.7894523}, {"type": "node", "id": 9459388451, "lat": -33.8022873, "lon": 150.6836311, "tags": {"addr:housenumber": "71", "addr:street": "Deerubbin Drive", "addr:unit": "1", "amenity": "cafe", "contact:instagram": "https://www.instagram.com/the_westend_cafe/", "name": "The Westend Cafe", "opening_hours": "Mo-Fr 06:30-14:00; Sa-Su 07:00-14:00", "phone": "+61 2 4742 6445", "website": "https://the-westend.business.site/"}}, {"type": "node", "id": 9465970332, "lat": -33.7952466, "lon": 150.7887694, "tags": {"amenity": "cafe", "name": "Leaf Cafe & Co", "source": "survey", "source:date": "2022-02"}}, {"type": "node", "id": 9465970342, "lat": -33.7949605, "lon": 150.7887489, "tags": {"amenity": "cafe", "brand": "Michel's Patisserie", "brand:wikidata": "Q6836235", "brand:wikipedia": "en:Michel's Patisserie", "cuisine": "coffee_shop", "name": "Michel's Patisserie", "source": "survey", "source:date": "2022-02", "takeaway": "yes"}}, {"type": "node", "id": 9465970344, "lat": -33.7950798, "lon": 150.7888729, "tags": {"amenity": "cafe", "cuisine": "teahouse", "name": "Floristea Tea House", "source": "survey", "source:date": "2022-02"}}, {"type": "node", "id": 9518451943, "lat": -33.8947625, "lon": 150.9348358, "tags": {"amenity": "cafe", "cuisine": "bubble_tea", "name": "Happy Cup", "phone": "+61 2 8747 1157", "website": "https://www.happycupwarehouse.com.au/"}}, {"type": "node", "id": 9520689200, "lat": -33.7894594, "lon": 150.8889249, "tags": {"addr:housenumber": "69", "addr:postcode": "2148", "addr:state": "NSW", "addr:street": "Holbeche Road", "addr:suburb": "Arndell Park", "addr:unit": "1", "amenity": "cafe", "cuisine": "coffee_shop", "name": "Industrial Grind", "phone": "+61 2 9622 4553"}}, {"type": "node", "id": 9547103061, "lat": -34.0735768, "lon": 150.7985186, "tags": {"addr:housenumber": "200", "addr:postcode": "2560", "addr:state": "NSW", "addr:street": "Gilchrist Drive", "addr:suburb": "Campbelltown", "addr:unit": "C51A", "amenity": "cafe", "cuisine": "asian;chinese;coffee_shop;bubble_tea;fruit_tea;smoothies;bread;bakery;toasts", "internet_access": "no", "name": "Bengong Maison", "opening_hours:covid19": "same", "outdoor_seating": "yes", "website": "https://bengongstea.com.au/"}}, {"type": "node", "id": 9547103062, "lat": -34.0741209, "lon": 150.797296, "tags": {"addr:housenumber": "200", "addr:postcode": "2560", "addr:state": "NSW", "addr:street": "Gilchrist Drive", "addr:suburb": "Campbelltown", "addr:unit": "Level 2, KL16", "amenity": "cafe", "brand:website": "https://www.thecoffeeemporium.com.au/location/macarthur-square/", "cuisine": "coffee_shop", "internet_access": "no", "name": "The Coffee Emporium Macarthur Square", "opening_hours": "Mo-We 09:00-17:30; Th 09:00-21:00; Fr 09:00-17:30; Sa 09:00-17:30; Su 10:00-17:00", "opening_hours:covid19": "same", "outdoor_seating": "no", "phone": "+61 2 4628 0004", "website": "https://www.macarthursquare.com.au/store-directory/the-coffee-emporium/"}}, {"type": "node", "id": 9671732211, "lat": -33.931861, "lon": 150.9232402, "tags": {"amenity": "cafe", "name": "Shepherd\u2019s Lane Caf\u00e9 & Dessert Bar"}}, {"type": "node", "id": 9672988221, "lat": -33.9251773, "lon": 150.9209646, "tags": {"amenity": "cafe", "name": "The Macquarie"}}, {"type": "node", "id": 9672988277, "lat": -33.9247177, "lon": 150.921056, "tags": {"amenity": "cafe", "cuisine": "middle_eastern", "name": "Nefiz"}}, {"type": "node", "id": 9675837976, "lat": -33.9250117, "lon": 150.9253137, "tags": {"amenity": "cafe", "name": "Out Of Office Espresso"}}, {"type": "node", "id": 9675838016, "lat": -33.9247423, "lon": 150.9246774, "tags": {"amenity": "cafe", "name": "Halal Food Treasure Cafe"}}, {"type": "node", "id": 9676422246, "lat": -33.9219113, "lon": 150.9215928, "tags": {"amenity": "cafe", "name": "Beppe & G's"}}, {"type": "node", "id": 9678537455, "lat": -33.9227534, "lon": 150.9241494, "tags": {"amenity": "cafe", "name": "Dark Blue Cafe & Pastry"}}, {"type": "node", "id": 9689013133, "lat": -33.9172323, "lon": 150.9281998, "tags": {"amenity": "cafe", "brand": "Gloria Jean's", "brand:wikidata": "Q2666365", "cuisine": "coffee_shop", "name": "Gloria Jean's", "official_name": "Gloria Jean's Coffees", "takeaway": "yes"}}, {"type": "node", "id": 9981457251, "lat": -33.8411934, "lon": 150.9614688, "tags": {"amenity": "cafe", "name": "Broast Cafe"}}, {"type": "node", "id": 10157225074, "lat": -34.0116638, "lon": 150.7755328}, {"type": "node", "id": 10157225075, "lat": -34.0117133, "lon": 150.7755437}, {"type": "node", "id": 10157225076, "lat": -34.0116934, "lon": 150.7756752}, {"type": "node", "id": 10157225077, "lat": -34.0116438, "lon": 150.7756643}, {"type": "node", "id": 10172680817, "lat": -33.7699817, "lon": 150.7662336, "tags": {"amenity": "cafe", "name": "Sweet Espresso Bar"}}, {"type": "node", "id": 10598598342, "lat": -34.0679689, "lon": 150.7995772, "tags": {"amenity": "cafe", "cuisine": "coffee_shop", "internet_access": "wlan", "internet_access:ssid": "TAFENSW", "note": "Cafe staffed by the hospitality students."}}, {"type": "node", "id": 10722525805, "lat": -33.7874295, "lon": 150.6687924, "tags": {"amenity": "cafe", "cuisine": "chinese", "name": "Hei Wok Cantonese Eatery"}}, {"type": "node", "id": 10727088782, "lat": -33.7723332, "lon": 150.8445856, "tags": {"amenity": "cafe", "name": "tnb", "outdoor_seating": "yes", "website": "https://www.facebook.com/thenakedbaristacafe/"}}, {"type": "node", "id": 10727088792, "lat": -33.7709956, "lon": 150.8437289, "tags": {"amenity": "cafe", "name": "Jas my Waffles", "outdoor_seating": "yes", "website": "https://www.facebook.com/jasmywaffles/"}}, {"type": "node", "id": 10798168453, "lat": -33.8155782, "lon": 150.971813, "tags": {"addr:housenumber": "326-336", "addr:postcode": "2145", "addr:state": "NSW", "addr:street": "Great Western Highway", "addr:suburb": "Wentworthville", "addr:unit": "Kiosk 1", "amenity": "cafe", "cuisine": "cake", "name": "Koko \u2018n\u2019 Beans", "opening_hours": "Mo-We,Fr 07:00-17:30; Th 07:00-18:00; Sa 07:00-17:00; Su 07:00-16:00", "outdoor_seating": "no", "phone": "+612 96315918", "website": "https://wentworthvilleshoppingplaza.com.au/store/koko-n-beans-cafe"}}, {"type": "node", "id": 10802157028, "lat": -33.7667003, "lon": 150.7700519, "tags": {"amenity": "cafe", "brand": "Chatime", "brand:wikidata": "Q16829306", "cuisine": "bubble_tea", "name": "Chatime", "takeaway": "yes"}}, {"type": "node", "id": 10802157057, "lat": -33.7666439, "lon": 150.7697426, "tags": {"amenity": "cafe", "brand": "Gloria Jean's", "brand:wikidata": "Q2666365", "cuisine": "coffee_shop", "name": "Gloria Jean's", "official_name": "Gloria Jean's Coffees", "takeaway": "yes"}}, {"type": "node", "id": 10828729506, "lat": -33.9480736, "lon": 150.8998305, "tags": {"addr:housenumber": "1", "addr:postcode": "2170", "addr:state": "NSW", "addr:street": "Ingham Drive", "addr:suburb": "Casula", "addr:unit": "K04", "amenity": "cafe", "cuisine": "bubble_tea", "name": "Cha Bar", "phone": "+6129602 0493", "website": "https://cha-bar.co/"}}, {"type": "way", "id": 44075506, "nodes": [560217485, 560217486, 7795911531, 7795911536, 560217487, 560217488, 7795911540, 7795911537, 560217485], "tags": {"amenity": "cafe", "building": "yes", "layer": "1"}}, {"type": "way", "id": 418249191, "nodes": [4186871261, 4186871262, 4186871263, 4186871264, 4186871265, 4186871266, 4186871267, 4186871268, 4186871278, 4186871269, 4186871270, 4186871271, 4186871272, 4186871273, 4186871274, 4186871275, 4186871276, 4186871261], "tags": {"amenity": "cafe", "building": "yes"}}, {"type": "way", "id": 636193558, "nodes": [5999570419, 5999570420, 5999570421, 5999570422, 5999570423, 5999570424, 5999570425, 5999570426, 5999570416, 5999570419], "tags": {"amenity": "cafe", "building": "yes"}}, {"type": "way", "id": 794603646, "nodes": [7432065370, 7432065371, 9236700524, 9236700635, 7432065372, 7432065373, 7432065370], "tags": {"amenity": "cafe", "building": "yes", "name": "Lion Deck Cafe"}}, {"type": "way", "id": 794603647, "nodes": [7432065374, 7432065375, 7432065377, 7432065376, 7432065374], "tags": {"amenity": "cafe", "building": "yes", "name": "Tiger Pool Cafe"}}, {"type": "way", "id": 888808334, "nodes": [8263376800, 8263376802, 8263376799, 8263376798, 8263376800], "tags": {"amenity": "cafe", "building": "yes"}}, {"type": "way", "id": 1017982023, "nodes": [9389590838, 9389590839, 9389590840, 9389590841, 9389590838], "tags": {"addr:housenumber": "1455", "addr:postcode": "2178", "addr:state": "NSW", "addr:street": "Elizabeth Drive", "addr:suburb": "Kemps Creek", "amenity": "cafe", "building": "yes", "name": "First Class Cafe", "phone": "+98 2611 92"}}, {"type": "way", "id": 1110302156, "nodes": [10157225074, 10157225075, 10157225076, 10157225077, 10157225074], "tags": {"amenity": "cafe", "building": "yes", "cuisine": "coffee_shop", "internet_access": "no", "name": "Kissaten", "opening_hours": "MONDAY - SATURDAY 7:30am - 3:30pm SUNDAY 8am - 2pm", "outdoor_seating": "yes", "website": "https://www.facebook.com/kissaten.coffeehouse/", "wheelchair": "yes"}}]}