{"version": 0.6, "generator": "Overpass API 0.7.60 f4c14d41", "osm3s": {"timestamp_osm_base": "2023-05-02T21:14:21Z", "copyright": "The data included in this document is from www.openstreetmap.org. The data is made available under ODbL."}, "elements": [{"type": "node", "id": 4562247186, "lat": 41.0719557, "lon": 28.8889629, "tags": {"amenity": "bureau_de_change", "name": "Bar\u0131\u015f D\u00f6viz"}}, {"type": "node", "id": 4569277998, "lat": 41.0586821, "lon": 28.9132775, "tags": {"amenity": "bureau_de_change", "name": "Anadolu"}}, {"type": "node", "id": 4838556724, "lat": 41.093289, "lon": 28.809473, "tags": {"amenity": "bureau_de_change", "name": "\u0645\u0642\u0627\u0628\u0644 \u0627\u0644\u0645\u062c\u0645\u0639", "name:tr": "\u0645\u0642\u0627\u0628\u0644 \u0627\u0644\u0645\u062c\u0645\u0639"}}, {"type": "node", "id": 5667672712, "lat": 41.0629922, "lon": 28.8551672, "tags": {"addr:city": "Istanbul", "addr:district": "Ba\u011fc\u0131lar", "addr:street": "Barbaros caddesi", "amenity": "bureau_de_change", "name": "\u0130fa D\u00f6viz", "name:ar": "\u0627\u064a\u0641\u0627"}}, {"type": "node", "id": 5667674992, "lat": 41.0542229, "lon": 28.8379162, "tags": {"addr:city": "Istanbul", "addr:district": "Ba\u011fc\u0131lar", "addr:street": "velio\u011flu caddesi", "amenity": "bureau_de_change", "name": "KOZA D\u00d6VIZ", "name:ar": "\u0643\u0648\u0632\u0627 \u0644\u0644\u0635\u0631\u0627\u0641\u0629"}}, {"type": "node", "id": 5667675011, "lat": 41.0537264, "lon": 28.837974, "tags": {"addr:city": "Istanbul", "addr:district": "Ba\u011fc\u0131lar", "addr:street": "Velio\u011flu caddesi", "amenity": "bureau_de_change", "name": "Koza", "name:ar": "\u0635\u0631\u0627\u0641 \u0643\u0648\u0632\u0627"}}, {"type": "node", "id": 7068105745, "lat": 41.262164, "lon": 28.7396389, "tags": {"amenity": "bureau_de_change", "level": "0"}}, {"type": "node", "id": 8957915917, "lat": 41.2613747, "lon": 28.7474256, "tags": {"amenity": "bureau_de_change", "name:en": "Exchange"}}, {"type": "node", "id": 10104720038, "lat": 41.08191, "lon": 28.9163281, "tags": {"amenity": "bureau_de_change", "name": "Singer D\u00f6viz"}}]}