{"version": 0.6, "generator": "Overpass API 0.7.60 f4c14d41", "osm3s": {"timestamp_osm_base": "2023-05-02T21:19:24Z", "copyright": "The data included in this document is from www.openstreetmap.org. The data is made available under ODbL."}, "elements": [{"type": "node", "id": 20979854, "lat": -33.8895087, "lon": 151.2836193, "tags": {"check_date": "2022-09-19", "name": "Ben Buckler Cellars", "shop": "alcohol"}}, {"type": "node", "id": 428468950, "lat": -33.8146986, "lon": 151.0558202, "tags": {"name": "Liquorland", "shop": "alcohol"}}, {"type": "node", "id": 512959778, "lat": -33.7860011, "lon": 151.2666259}, {"type": "node", "id": 512959791, "lat": -33.7858841, "lon": 151.266198}, {"type": "node", "id": 512959794, "lat": -33.7856922, "lon": 151.2662498}, {"type": "node", "id": 512959796, "lat": -33.785652, "lon": 151.2667256}, {"type": "node", "id": 518300355, "lat": -33.8883204, "lon": 151.1647475, "tags": {"name": "Vintage Cellars", "opening_hours": "Su-We 10:00-20:00; Th 10:00-21:00; Fr,Sa 10:00-22:00", "shop": "alcohol"}}, {"type": "node", "id": 599895220, "lat": -33.77735, "lon": 151.148882, "tags": {"name": "Liquorland", "shop": "alcohol"}}, {"type": "node", "id": 772481274, "lat": -33.9145657, "lon": 151.201141, "tags": {"brand": "Cellarbrations", "brand:wikidata": "Q109807592", "name": "Cellarbrations", "operator": "Cellarbrations", "shop": "alcohol"}}, {"type": "node", "id": 778967715, "lat": -34.0452093, "lon": 151.0508492, "tags": {"shop": "alcohol"}}, {"type": "node", "id": 976978465, "lat": -33.9127164, "lon": 151.2246029, "tags": {"amenity": "pub", "name": "Doncaster Hotel", "shop": "alcohol"}}, {"type": "node", "id": 988622214, "lat": -33.8241147, "lon": 151.2010546, "tags": {"check_date": "2022-07-21", "level": "0", "name": "Jim's Cellars", "shop": "alcohol"}}, {"type": "node", "id": 1081321621, "lat": -33.9517976, "lon": 151.0825973, "tags": {"shop": "alcohol"}}, {"type": "node", "id": 1083060658, "lat": -33.977815, "lon": 151.1227893}, {"type": "node", "id": 1083060659, "lat": -33.9780469, "lon": 151.1230242}, {"type": "node", "id": 1083060660, "lat": -33.9779173, "lon": 151.1232104}, {"type": "node", "id": 1083060661, "lat": -33.9777195, "lon": 151.12301}, {"type": "node", "id": 1083060662, "lat": -33.9778002, "lon": 151.1228941}, {"type": "node", "id": 1083060663, "lat": -33.9777856, "lon": 151.1228793}, {"type": "node", "id": 1083060664, "lat": -33.9778021, "lon": 151.1228556}, {"type": "node", "id": 1083060665, "lat": -33.9777826, "lon": 151.1228359}, {"type": "node", "id": 1161127096, "lat": -33.7939387, "lon": 151.262916, "tags": {"name": "Porter's Liquor", "shop": "alcohol"}}, {"type": "node", "id": 1259065382, "lat": -33.8013219, "lon": 151.1306991, "tags": {"name": "Liquorland", "shop": "alcohol"}}, {"type": "node", "id": 1280185146, "lat": -34.0442137, "lon": 151.1228258}, {"type": "node", "id": 1280189357, "lat": -34.0434456, "lon": 151.1186826, "tags": {"brand": "BWS", "brand:wikidata": "Q4836848", "brand:wikipedia": "en:BWS (liquor retailer)", "name": "BWS", "shop": "alcohol", "website": "https://bws.com.au/"}}, {"type": "node", "id": 1280196053, "lat": -34.0407959, "lon": 151.1212947, "tags": {"brand": "Liquorland", "brand:wikidata": "Q2283837", "brand:wikipedia": "en:Liquorland", "drive_through": "no", "name": "Liquorland", "opening_hours": "Su-Tu 10:00-20:00; We,Th 10:00-21:00; Fr 10:00-22:00; Sa 09:00-21:00", "shop": "alcohol"}}, {"type": "node", "id": 1280199988, "lat": -34.0418539, "lon": 151.1203559, "tags": {"brand": "Liquorland", "brand:wikidata": "Q2283837", "brand:wikipedia": "en:Liquorland", "drive_through": "no", "name": "Liquorland", "opening_hours": "Mo-We 10:00-20:00; Th,Fr 10:00-21:00; Sa 09:00-21:00; Su 10:00-19:00", "shop": "alcohol"}}, {"type": "node", "id": 1281315698, "lat": -34.0526178, "lon": 151.152859, "tags": {"name": "BottlO'Briens", "shop": "alcohol", "source": "survey", "source:location": "nearmap"}}, {"type": "node", "id": 1283595178, "lat": -34.0604585, "lon": 151.1545286, "tags": {"brand": "BWS", "brand:wikidata": "Q4836848", "name": "BWS", "opening_hours": "Su-Th 10:00-22:00; Fr,Sa 10:00-23:00", "shop": "alcohol"}}, {"type": "node", "id": 1344599257, "lat": -33.7968315, "lon": 151.2511342, "tags": {"addr:city": "Seaforth", "addr:housenumber": "548", "addr:postcode": "2092", "addr:street": "Sydney Road", "name": "Vintage Cellars", "opening_hours": "Mo-Th 09:00-20:00; Fr-Sa 09:00-21:00; Su 10:00-20:00", "shop": "alcohol"}}, {"type": "node", "id": 1604530411, "lat": -33.826582, "lon": 150.9819911, "tags": {"brand": "Cellarbrations", "brand:wikidata": "Q109807592", "name": "Cellarbrations", "shop": "alcohol"}}, {"type": "node", "id": 1611289094, "lat": -33.8130986, "lon": 151.0037334, "tags": {"addr:housenumber": "272", "addr:street": "Church Street", "addr:suburb": "Parramatta", "name": "Valore Cellars", "shop": "alcohol"}}, {"type": "node", "id": 1613899725, "lat": -33.8695432, "lon": 151.1936631, "tags": {"name": "Porter's", "shop": "alcohol", "wheelchair": "no"}}, {"type": "node", "id": 1616181210, "lat": -33.8357929, "lon": 151.0844534, "tags": {"brand": "Liquorland", "brand:wikidata": "Q2283837", "drive_through": "no", "name": "Liquorland", "operator": "Liquorland", "shop": "alcohol", "wheelchair": "yes"}}, {"type": "node", "id": 1635957633, "lat": -33.8127044, "lon": 150.9852231, "tags": {"addr:housenumber": "74", "addr:postcode": "2145", "addr:street": "Hawkesbury Road", "addr:suburb": "Westmead", "addr:unit": "10", "name": "Westmead Bottle Shop", "shop": "alcohol"}}, {"type": "node", "id": 1648303037, "lat": -33.8622998, "lon": 151.2039817, "tags": {"name": "Kent Street Cellar", "shop": "alcohol", "source": "survey"}}, {"type": "node", "id": 1653998464, "lat": -33.8879071, "lon": 151.1990218, "tags": {"addr:street": "Abercrombie Street", "name": "Chippendale Cellars", "shop": "alcohol", "wheelchair": "no"}}, {"type": "node", "id": 1693986550, "lat": -33.7986364, "lon": 151.2858222, "tags": {"name": "Liquorland", "shop": "alcohol"}}, {"type": "node", "id": 1693986556, "lat": -33.797152, "lon": 151.286144, "tags": {"name": "Liquorland Express", "name:en": "Liquorland Express", "shop": "alcohol"}}, {"type": "node", "id": 1699218312, "lat": -33.7881153, "lon": 151.284722, "tags": {"name": "Bottler", "shop": "alcohol"}}, {"type": "node", "id": 1732566732, "lat": -33.8999394, "lon": 151.1846249, "tags": {"addr:housenumber": "87", "addr:street": "Erskineville Road", "brand": "BWS", "brand:wikidata": "Q4836848", "brand:wikipedia": "en:BWS (liquor retailer)", "name": "BWS", "shop": "alcohol", "source": "survey"}}, {"type": "node", "id": 1739970858, "lat": -33.8647917, "lon": 151.1688042, "tags": {"shop": "alcohol"}}, {"type": "node", "id": 1788316293, "lat": -33.8011749, "lon": 151.1990528, "tags": {"addr:city": "Willoughby", "addr:postcode": "2068", "addr:street": "Penshurst Street", "brand": "Dan Murphy's", "brand:wikidata": "Q5214075", "brand:wikipedia": "en:Dan Murphy's", "name": "Dan Murphy's", "shop": "alcohol", "source": "knowledge", "website": "https://www.danmurphys.com.au/", "wheelchair": "yes"}}, {"type": "node", "id": 1833251506, "lat": -33.8732433, "lon": 151.1924157, "tags": {"name": "Fishermans Fine Wines", "shop": "alcohol", "source": "photo"}}, {"type": "node", "id": 1833885952, "lat": -34.0037736, "lon": 151.0619733, "tags": {"addr:housenumber": "56", "addr:street": "Wolger Street", "brand": "Bottlemart", "brand:wikidata": "Q102863175", "drive_through": "no", "name": "Bottlemart", "operator": "Como Cellars", "phone": "+61295283962", "shop": "alcohol", "source_ref:name": "http://img855.imageshack.us/img855/8814/gopr1026.jpg"}}, {"type": "node", "id": 1838701126, "lat": -33.7972025, "lon": 151.0256795, "tags": {"shop": "alcohol"}}, {"type": "node", "id": 1916708979, "lat": -33.8297526, "lon": 151.2184124, "tags": {"addr:housenumber": "116", "addr:street": "Military Road", "brand": "Liquorland", "brand:wikidata": "Q2283837", "brand:wikipedia": "en:Liquorland", "name": "Liquorland", "opening_hours": "Mo-Su 09:00-21:00", "payment:cash": "yes", "payment:credit_cards": "yes", "payment:debit_cards": "yes", "phone": "+61 02 7966 6380", "shop": "alcohol", "website": "https://www.liquorland.com.au"}}, {"type": "node", "id": 1916709576, "lat": -33.8301314, "lon": 151.2194585, "tags": {"shop": "alcohol", "source": "local_knowledge"}}, {"type": "node", "id": 1965666583, "lat": -33.7958549, "lon": 151.2767398, "tags": {"shop": "alcohol"}}, {"type": "node", "id": 1966400237, "lat": -33.8890493, "lon": 151.0907704}, {"type": "node", "id": 1966400269, "lat": -33.8886872, "lon": 151.0906749}, {"type": "node", "id": 1966400274, "lat": -33.8890671, "lon": 151.0909152}, {"type": "node", "id": 1966400354, "lat": -33.8891361, "lon": 151.0907489}, {"type": "node", "id": 1966400368, "lat": -33.888771, "lon": 151.0909688}, {"type": "node", "id": 1966400373, "lat": -33.8891116, "lon": 151.0905343}, {"type": "node", "id": 1966400380, "lat": -33.889068, "lon": 151.0905139}, {"type": "node", "id": 1966400386, "lat": -33.8887264, "lon": 151.0909286}, {"type": "node", "id": 1974543112, "lat": -33.7829538, "lon": 151.1041787, "tags": {"addr:street": "Agincourt Road", "name": "Little Bottler", "opening_hours": "Mo-Th 10:00-20:00", "shop": "alcohol"}}, {"type": "node", "id": 1974543132, "lat": -33.7944818, "lon": 151.1216647, "tags": {"addr:housenumber": "203-213", "addr:postcode": "2113", "addr:street": "Coxs Road", "brand": "BWS", "brand:wikidata": "Q4836848", "brand:wikipedia": "en:BWS (liquor retailer)", "name": "BWS", "phone": "+61 2 9887 2018", "shop": "alcohol"}}, {"type": "node", "id": 1974543204, "lat": -33.7810587, "lon": 151.1118786, "tags": {"brand": "Dan Murphy's", "brand:wikidata": "Q5214075", "brand:wikipedia": "en:Dan Murphy's", "name": "Dan Murphy's", "shop": "alcohol"}}, {"type": "node", "id": 2019456468, "lat": -33.7836641, "lon": 151.0936805, "tags": {"addr:housenumber": "8", "addr:postcode": "2122", "addr:street": "Corunna Road", "name": "The Bottle-O", "shop": "alcohol"}}, {"type": "node", "id": 2140866323, "lat": -33.9018064, "lon": 151.2007366, "tags": {"brand": "Cellarbrations", "brand:wikidata": "Q109807592", "name": "Cellarbrations", "shop": "alcohol", "source": "survey"}}, {"type": "node", "id": 2175005920, "lat": -33.8319216, "lon": 151.2379941, "tags": {"shop": "alcohol"}}, {"type": "node", "id": 2330509904, "lat": -33.8554809, "lon": 151.1033871, "tags": {"shop": "alcohol"}}, {"type": "node", "id": 2404311413, "lat": -33.7896836, "lon": 150.9968574, "tags": {"name": "IGA Liquor", "shop": "alcohol"}}, {"type": "node", "id": 2412504096, "lat": -34.0245525, "lon": 151.049324, "tags": {"shop": "alcohol"}}, {"type": "node", "id": 2424128458, "lat": -33.7957095, "lon": 151.1228085}, {"type": "node", "id": 2424128459, "lat": -33.7957971, "lon": 151.122705}, {"type": "node", "id": 2424128460, "lat": -33.795819, "lon": 151.1227274}, {"type": "node", "id": 2424128461, "lat": -33.7958799, "lon": 151.1226601}, {"type": "node", "id": 2424128462, "lat": -33.7958215, "lon": 151.12258}, {"type": "node", "id": 2424128463, "lat": -33.7958247, "lon": 151.1225771}, {"type": "node", "id": 2424128464, "lat": -33.7958004, "lon": 151.1225732}, {"type": "node", "id": 2424128465, "lat": -33.7956551, "lon": 151.1227372}, {"type": "node", "id": 2599253617, "lat": -33.890449, "lon": 151.1283706, "tags": {"name": "First Choice", "shop": "alcohol", "website": "https://www.1stchoice.com.au"}}, {"type": "node", "id": 2625897230, "lat": -33.8226918, "lon": 151.2007844, "tags": {"addr:housenumber": "162", "addr:postcode": "2065", "addr:state": "NSW", "addr:street": "Willoughby Road", "addr:suburb": "Crows Nest", "addr:unit": "2", "drive_through": "no", "name": "Chambers Cellars", "shop": "alcohol", "wheelchair": "yes"}}, {"type": "node", "id": 2625914398, "lat": -33.822896, "lon": 151.1947799, "tags": {"brand": "BWS", "brand:wikidata": "Q4836848", "brand:wikipedia": "en:BWS (liquor retailer)", "name": "BWS", "shop": "alcohol"}}, {"type": "node", "id": 2727806474, "lat": -33.9305882, "lon": 151.1544212, "tags": {"brand": "Dan Murphy's", "brand:wikidata": "Q5214075", "brand:wikipedia": "en:Dan Murphy's", "name": "Dan Murphy's", "opening_hours": "Mo-We 09:00-20:00; Th-Sa 09:00-21:00; Su 10:00-19:00", "shop": "alcohol", "website": "https://www.danmurphys.com.au/", "wheelchair": "yes"}}, {"type": "node", "id": 2751696177, "lat": -33.8739005, "lon": 151.2225585, "tags": {"addr:city": "Potts Point", "addr:housenumber": "204", "addr:postcode": "2011", "addr:street": "Victoria Street", "name": "Mr Liquor", "opening_hours": "Mo-Sa 09:00-22:00; Su 10:00-19:00", "phone": "+612 9357 2855", "shop": "alcohol", "source": "http://www.mrliquor.com.au/ma4/index.php/shopping-cart-3", "website": "http://www.mrliquor.com.au", "wheelchair": "yes"}}, {"type": "node", "id": 2787176590, "lat": -33.8923761, "lon": 151.1722493, "tags": {"addr:city": "Camerdown", "addr:housenumber": "21-23", "addr:postcode": "2050", "addr:street": "Kingston Road", "name": "Camperdown Cellars", "opening_hours": "Mo-Sa 10:00-21:00, PH Su 10:00-20:00", "phone": "+61 2 9519 3341", "shop": "alcohol", "website": "https://www.camperdowncellars.com.au/"}}, {"type": "node", "id": 2789598740, "lat": -33.8947775, "lon": 151.1645621, "tags": {"addr:city": "Stanmore", "addr:housenumber": "161", "addr:postcode": "2048", "addr:street": "Cambridge Street", "name": "Stanmore Cellars", "opening_hours": "Mo-Fr 12:00-20:00, Sa 10:00-22:00, Su 12:00-20:00", "phone": "+61 2 9560 9323", "shop": "alcohol"}}, {"type": "node", "id": 2841098103, "lat": -33.9293421, "lon": 151.2336071}, {"type": "node", "id": 2841098104, "lat": -33.9291228, "lon": 151.2336514}, {"type": "node", "id": 2841098105, "lat": -33.9288714, "lon": 151.2337037}, {"type": "node", "id": 2841098106, "lat": -33.9290605, "lon": 151.2340899}, {"type": "node", "id": 2841098107, "lat": -33.9290883, "lon": 151.2341087}, {"type": "node", "id": 2841098108, "lat": -33.9292397, "lon": 151.2340806}, {"type": "node", "id": 2841098109, "lat": -33.9292141, "lon": 151.2338754}, {"type": "node", "id": 2841098110, "lat": -33.9293009, "lon": 151.2338633}, {"type": "node", "id": 2841098111, "lat": -33.9293098, "lon": 151.2338459}, {"type": "node", "id": 2841098112, "lat": -33.9293721, "lon": 151.2338325}, {"type": "node", "id": 2852961928, "lat": -34.0333449, "lon": 151.0260152, "tags": {"name": "Porters Liquor Shop", "shop": "alcohol"}}, {"type": "node", "id": 2863856166, "lat": -33.9316724, "lon": 151.1257627, "tags": {"addr:housenumber": "9", "addr:street": "Hartill-Law Avenue", "name": "Local Liquor", "shop": "alcohol"}}, {"type": "node", "id": 2916946855, "lat": -33.7940791, "lon": 151.1960691, "tags": {"brand": "Liquorland", "brand:wikidata": "Q2283837", "brand:wikipedia": "en:Liquorland", "name": "Liquorland", "operator": "Coles Group", "operator:wikidata": "Q1339055", "operator:wikipedia": "en:Coles Group", "shop": "alcohol", "website": "https://www.liquorland.com.au/"}}, {"type": "node", "id": 2949066078, "lat": -33.7726051, "lon": 151.0826664}, {"type": "node", "id": 2949066081, "lat": -33.7726278, "lon": 151.0825284}, {"type": "node", "id": 2949066086, "lat": -33.7726853, "lon": 151.0826795}, {"type": "node", "id": 2949066087, "lat": -33.7726625, "lon": 151.0828813}, {"type": "node", "id": 2949066089, "lat": -33.7727167, "lon": 151.082885}, {"type": "node", "id": 2949066090, "lat": -33.7727511, "lon": 151.082572}, {"type": "node", "id": 3008464500, "lat": -33.8965766, "lon": 151.1996019, "tags": {"shop": "alcohol"}}, {"type": "node", "id": 3114386659, "lat": -33.7974466, "lon": 151.004921, "tags": {"addr:housenumber": "23", "addr:postcode": "2151", "addr:street": "Iron Street", "addr:suburb": "North Parramatta", "name": "Noor Mart", "shop": "alcohol"}}, {"type": "node", "id": 3232853591, "lat": -33.78324, "lon": 151.046376, "tags": {"name": "Liquor Legends Superstore", "shop": "alcohol", "source": "survey"}}, {"type": "node", "id": 3244269991, "lat": -33.7727619, "lon": 151.0810659}, {"type": "node", "id": 3244269992, "lat": -33.7727992, "lon": 151.0808669}, {"type": "node", "id": 3244269993, "lat": -33.7728985, "lon": 151.0810528}, {"type": "node", "id": 3244269994, "lat": -33.7729324, "lon": 151.0809089}, {"type": "node", "id": 3248713638, "lat": -33.7912946, "lon": 151.0804115, "tags": {"name": "Mr Liquor", "shop": "alcohol", "source": "survey", "wheelchair": "yes"}}, {"type": "node", "id": 3253175245, "lat": -33.8081525, "lon": 151.1835699, "tags": {"addr:housenumber": "128", "addr:postcode": "2064", "addr:state": "NSW", "addr:street": "Hampden Road", "addr:suburb": "Artarmon", "brand": "Liquorland", "brand:wikidata": "Q2283837", "brand:wikipedia": "en:Liquorland", "name": "Liquorland", "shop": "alcohol", "source": "survey", "website": "https://www.liquorland.com.au/stores/nsw/artarmon", "wheelchair": "yes"}}, {"type": "node", "id": 3390252747, "lat": -33.904759, "lon": 151.2130293, "tags": {"addr:housenumber": "2", "addr:postcode": "2017", "addr:state": "NSW", "addr:street": "Defries Avenue", "addr:suburb": "Zetland", "level": "0", "name": "Vintage Cellars", "opening_hours": "Mo-Sa 09:00-21:50; Su 10:00-21:50", "phone": "+61 2 8344 6280", "shop": "alcohol", "source": "local knowledge", "website": "https://www.vintagecellars.com.au/Stores/New%20South%20Wales/East%20Village", "wheelchair": "yes"}}, {"type": "node", "id": 3487935104, "lat": -33.9721448, "lon": 151.0950538, "tags": {"shop": "alcohol"}}, {"type": "node", "id": 3595863262, "lat": -34.0664377, "lon": 151.0134696, "tags": {"drive_through": "yes", "shop": "alcohol"}}, {"type": "node", "id": 3608748995, "lat": -33.8154962, "lon": 151.1869584, "tags": {"name": "Beer Cartel", "shop": "alcohol"}}, {"type": "node", "id": 3860546029, "lat": -33.8750698, "lon": 151.1537795}, {"type": "node", "id": 3860546030, "lat": -33.8750431, "lon": 151.154313}, {"type": "node", "id": 3860546031, "lat": -33.8751645, "lon": 151.1534603}, {"type": "node", "id": 3860546034, "lat": -33.8751175, "lon": 151.1534569}, {"type": "node", "id": 3860546036, "lat": -33.8750894, "lon": 151.1543164}, {"type": "node", "id": 3930018264, "lat": -33.8732645, "lon": 151.2076769, "tags": {"name": "Super Cellars Express", "shop": "alcohol"}}, {"type": "node", "id": 3938622451, "lat": -33.8785591, "lon": 151.2433286, "tags": {"addr:city": "Double Bay", "addr:housenumber": "1", "addr:postcode": "2028", "addr:street": "Kiaora Road", "brand": "Dan Murphy's", "brand:wikidata": "Q5214075", "brand:wikipedia": "en:Dan Murphy's", "name": "Dan Murphy's", "shop": "alcohol", "website": "https://www.danmurphys.com.au/"}}, {"type": "node", "id": 3951218961, "lat": -33.8932518, "lon": 151.1842767, "tags": {"brand": "BWS", "brand:wikidata": "Q4836848", "brand:wikipedia": "en:BWS (liquor retailer)", "name": "BWS", "shop": "alcohol"}}, {"type": "node", "id": 3977545459, "lat": -33.8838255, "lon": 151.1942088, "tags": {"brand": "Liquorland", "brand:wikidata": "Q2283837", "brand:wikipedia": "en:Liquorland", "level": "0", "name": "Liquorland", "opening_hours": "Mo-Th 09:00-22:00; Fr,Sa 08:00-23:00; Su 10:00-22:00", "shop": "alcohol", "wheelchair": "yes"}}, {"type": "node", "id": 3981216560, "lat": -33.877049, "lon": 151.2068923, "tags": {"brand": "Liquorland", "brand:wikidata": "Q2283837", "brand:wikipedia": "en:Liquorland", "level": "-1", "name": "Liquorland", "operator": "Coles Group", "operator:wikidata": "Q1339055", "operator:wikipedia": "en:Coles Group", "shop": "alcohol"}}, {"type": "node", "id": 3998849146, "lat": -33.8775744, "lon": 151.2077722, "tags": {"name": "red bottle", "shop": "alcohol"}}, {"type": "node", "id": 4021093889, "lat": -33.8777763, "lon": 151.2095153, "tags": {"addr:housenumber": "152", "addr:street": "Elizabeth Street", "name": "The Oak Barrel", "shop": "alcohol"}}, {"type": "node", "id": 4057784096, "lat": -33.8701039, "lon": 151.2039412, "tags": {"name": "Sussex Cellars", "shop": "alcohol"}}, {"type": "node", "id": 4071269495, "lat": -33.8843062, "lon": 151.1944593, "tags": {"name": "Sydney Cellars", "shop": "alcohol"}}, {"type": "node", "id": 4242645773, "lat": -33.847273, "lon": 151.2130698, "tags": {"brand": "BWS", "brand:wikidata": "Q4836848", "check_date": "2022-07-18", "level": "0", "name": "BWS", "shop": "alcohol"}}, {"type": "node", "id": 4420553826, "lat": -33.7969183, "lon": 151.1809481}, {"type": "node", "id": 4420553832, "lat": -33.7969378, "lon": 151.1808829}, {"type": "node", "id": 4420553879, "lat": -33.7970716, "lon": 151.1809498}, {"type": "node", "id": 4420553880, "lat": -33.7970726, "lon": 151.1808856}, {"type": "node", "id": 4420553953, "lat": -33.7972396, "lon": 151.1814258}, {"type": "node", "id": 4420553957, "lat": -33.7972729, "lon": 151.1813098}, {"type": "node", "id": 4420553972, "lat": -33.7972885, "lon": 151.1812481}, {"type": "node", "id": 4420553982, "lat": -33.797334, "lon": 151.1814694}, {"type": "node", "id": 4420553983, "lat": -33.7973344, "lon": 151.1813762}, {"type": "node", "id": 4420553984, "lat": -33.7973345, "lon": 151.1812474}, {"type": "node", "id": 4447257478, "lat": -33.7973108, "lon": 151.1812478, "tags": {"entrance": "yes", "indoor": "yes", "level": "-1"}}, {"type": "node", "id": 4453004734, "lat": -33.7969286, "lon": 151.1809137, "tags": {"entrance": "yes", "indoor": "yes", "level": "-1"}}, {"type": "node", "id": 4491604891, "lat": -33.8967333, "lon": 151.1597744, "tags": {"brand": "BWS", "brand:wikidata": "Q4836848", "brand:wikipedia": "en:BWS (liquor retailer)", "name": "BWS", "name:en": "BWS", "shop": "alcohol"}}, {"type": "node", "id": 4491615090, "lat": -33.8966132, "lon": 151.1592956, "tags": {"shop": "alcohol"}}, {"type": "node", "id": 4548831863, "lat": -33.7728025, "lon": 151.0810999}, {"type": "node", "id": 4574388352, "lat": -33.9103592, "lon": 151.1329329}, {"type": "node", "id": 4574388353, "lat": -33.9104772, "lon": 151.1330817}, {"type": "node", "id": 4574388354, "lat": -33.9105334, "lon": 151.133018}, {"type": "node", "id": 4574388355, "lat": -33.91046, "lon": 151.1329188}, {"type": "node", "id": 4574388356, "lat": -33.9104672, "lon": 151.1329114}, {"type": "node", "id": 4574388357, "lat": -33.9104132, "lon": 151.1328336}, {"type": "node", "id": 4613489500, "lat": -33.7755042, "lon": 151.0524922, "tags": {"brand": "Liquorland", "brand:wikidata": "Q2283837", "brand:wikipedia": "en:Liquorland", "name": "Liquorland", "shop": "alcohol"}}, {"type": "node", "id": 4739118626, "lat": -33.8614039, "lon": 151.2112944, "tags": {"level": "0", "name": "Mr. Liquor", "shop": "alcohol"}}, {"type": "node", "id": 4739424521, "lat": -33.8762188, "lon": 151.2214145, "tags": {"name": "Liquor Shop", "name:en": "Liquor Shop", "shop": "alcohol"}}, {"type": "node", "id": 4746947665, "lat": -34.0163262, "lon": 151.0115353, "tags": {"addr:city": "Menai", "addr:housenumber": "Building C, Menai Central", "addr:postcode": "2234", "addr:street": "Old Ilawarra Road", "brand": "Dan Murphy's", "brand:wikidata": "Q5214075", "brand:wikipedia": "en:Dan Murphy's", "description": "Large Bottle Shop and Liquor Store", "drive_through": "no", "name": "Dan Murphy's", "opening_hours": "Mo-Sa 09:00-21:00, Su 10:00-19:00", "shop": "alcohol"}}, {"type": "node", "id": 4860772953, "lat": -33.903928, "lon": 151.1802198, "tags": {"addr:city": "Newtown", "addr:street": "King Street", "name": "Union Liquor", "shop": "alcohol"}}, {"type": "node", "id": 4884361226, "lat": -34.0781312, "lon": 151.0111544, "tags": {"name": "BWS", "operator": "BWS", "shop": "alcohol"}}, {"type": "node", "id": 4924219552, "lat": -33.9024588, "lon": 151.1949984, "tags": {"brand": "Dan Murphy's", "brand:wikidata": "Q5214075", "brand:wikipedia": "en:Dan Murphy's", "name": "Dan Murphy's", "shop": "alcohol"}}, {"type": "node", "id": 4930714306, "lat": -33.8750605, "lon": 151.2423097, "tags": {"name": "Camperdown Cellars&Grocer", "phone": "+61 2 93633406", "shop": "alcohol"}}, {"type": "node", "id": 5114269170, "lat": -33.8575565, "lon": 151.1817972, "tags": {"brand": "BWS", "brand:wikidata": "Q4836848", "brand:wikipedia": "en:BWS (liquor retailer)", "name": "BWS", "shop": "alcohol"}}, {"type": "node", "id": 5264065352, "lat": -34.0071571, "lon": 151.0811906, "tags": {"shop": "alcohol"}}, {"type": "node", "id": 5264882765, "lat": -33.9113998, "lon": 151.1198002}, {"type": "node", "id": 5264882768, "lat": -33.9113736, "lon": 151.1197583}, {"type": "node", "id": 5264882769, "lat": -33.9115316, "lon": 151.1199276}, {"type": "node", "id": 5264882770, "lat": -33.9115149, "lon": 151.1199527}, {"type": "node", "id": 5264882771, "lat": -33.9115231, "lon": 151.1199606}, {"type": "node", "id": 5264882772, "lat": -33.9114741, "lon": 151.1200342}, {"type": "node", "id": 5264882773, "lat": -33.9114095, "lon": 151.1199718}, {"type": "node", "id": 5264882774, "lat": -33.9114205, "lon": 151.1199553}, {"type": "node", "id": 5264882775, "lat": -33.911313, "lon": 151.1198516}, {"type": "node", "id": 5264882776, "lat": -33.9113241, "lon": 151.1198621}, {"type": "node", "id": 5265144608, "lat": -33.9123213, "lon": 151.1178611, "tags": {"brand": "BWS", "brand:wikidata": "Q4836848", "brand:wikipedia": "en:BWS (liquor retailer)", "name": "BWS", "shop": "alcohol"}}, {"type": "node", "id": 5301566680, "lat": -33.9067127, "lon": 151.1875896, "tags": {"addr:housenumber": "219", "addr:postcode": "2015", "addr:state": "NSW", "addr:street": "Mitchell Road", "addr:suburb": "Alexandria", "name": "Red Bottle", "payment:cash": "yes", "payment:credit_cards": "yes", "payment:debit_cards": "yes", "phone": "+61 2 9516 1344", "shop": "alcohol", "website": "https://redbottle.com.au/store-locations/alexandria/"}}, {"type": "node", "id": 5324992587, "lat": -33.8755304, "lon": 151.1565885, "tags": {"name": "Amatos Liquor Mart", "shop": "alcohol", "website": "https://www.amatos.com.au/"}}, {"type": "node", "id": 5340160134, "lat": -33.7943271, "lon": 151.1897677}, {"type": "node", "id": 5340160135, "lat": -33.7944555, "lon": 151.1898232}, {"type": "node", "id": 5340160145, "lat": -33.7944842, "lon": 151.1898356}, {"type": "node", "id": 5365346912, "lat": -33.8983293, "lon": 151.176072}, {"type": "node", "id": 5365346913, "lat": -33.8984051, "lon": 151.1760816}, {"type": "node", "id": 5367211622, "lat": -33.9113217, "lon": 151.1610497, "tags": {"name": "The Bottler", "shop": "alcohol"}}, {"type": "node", "id": 5367304151, "lat": -33.881774, "lon": 151.2163702, "tags": {"name": "Darlinghurst Fine Wines", "shop": "alcohol"}}, {"type": "node", "id": 5404620962, "lat": -33.9534978, "lon": 151.1373739, "tags": {"name": "Little Bottler", "phone": "+61 2 9567 3048", "shop": "alcohol"}}, {"type": "node", "id": 5404621041, "lat": -33.9524595, "lon": 151.1390189, "tags": {"name": "Mr Liquor", "shop": "alcohol"}}, {"type": "node", "id": 5414179572, "lat": -33.8752425, "lon": 151.1543891}, {"type": "node", "id": 5414179573, "lat": -33.8752108, "lon": 151.1544484}, {"type": "node", "id": 5414179574, "lat": -33.8750445, "lon": 151.1542837}, {"type": "node", "id": 5414179590, "lat": -33.8751986, "lon": 151.1532955}, {"type": "node", "id": 5414179591, "lat": -33.8752513, "lon": 151.1532994}, {"type": "node", "id": 5414179592, "lat": -33.8753461, "lon": 151.1532471}, {"type": "node", "id": 5414179593, "lat": -33.8752542, "lon": 151.1532404}, {"type": "node", "id": 5414179594, "lat": -33.8752395, "lon": 151.1544505}, {"type": "node", "id": 5414179595, "lat": -33.8752471, "lon": 151.1542985}, {"type": "node", "id": 5414179596, "lat": -33.8752932, "lon": 151.1543018}, {"type": "node", "id": 5414179597, "lat": -33.8750832, "lon": 151.1544391}, {"type": "node", "id": 5414179598, "lat": -33.8751728, "lon": 151.1532936}, {"type": "node", "id": 5419957410, "lat": -33.8085525, "lon": 151.0062908, "tags": {"brand": "Liquorland", "brand:wikidata": "Q2283837", "brand:wikipedia": "en:Liquorland", "name": "Liquorland", "shop": "alcohol", "wheelchair": "yes"}}, {"type": "node", "id": 5427924724, "lat": -34.0260145, "lon": 151.1181998, "tags": {"name": "Ritchies Liquor", "shop": "alcohol"}}, {"type": "node", "id": 5481702795, "lat": -33.9302806, "lon": 151.1946644, "tags": {"addr:city": "Mascot", "addr:housenumber": "1153-1155", "addr:postcode": "2020", "addr:province": "NSW", "addr:street": "Botany Road", "name": "Mascot Liquor", "opening_hours": "Mo-Sa 09:00-20:00; Su 10:00-18:00", "shop": "alcohol"}}, {"type": "node", "id": 5506841121, "lat": -33.8981471, "lon": 151.1789184, "tags": {"addr:street": "King Street", "brand": "Cellarbrations", "brand:wikidata": "Q109807592", "name": "Cellarbrations", "shop": "alcohol"}}, {"type": "node", "id": 5509558597, "lat": -34.0334729, "lon": 151.0575164, "tags": {"shop": "alcohol"}}, {"type": "node", "id": 5553498743, "lat": -33.8764419, "lon": 151.2277062, "tags": {"name": "Vintage Cellars", "shop": "alcohol"}}, {"type": "node", "id": 5555611280, "lat": -34.016146, "lon": 151.0656396}, {"type": "node", "id": 5555611283, "lat": -34.0157746, "lon": 151.0655416}, {"type": "node", "id": 5555611284, "lat": -34.01612, "lon": 151.0654657}, {"type": "node", "id": 5572987708, "lat": -33.7739626, "lon": 151.1672737, "tags": {"addr:housenumber": "376-384", "addr:postcode": "2070", "addr:street": "Pacific Highway", "brand": "Liquorland", "brand:wikidata": "Q2283837", "brand:wikipedia": "en:Liquorland", "name": "Liquorland", "opening_hours": "Mo-Su 09:00-22:00", "operator": "Coles Group", "operator:wikidata": "Q1339055", "operator:wikipedia": "en:Coles Group", "shop": "alcohol"}}, {"type": "node", "id": 5586192643, "lat": -33.9148197, "lon": 151.2406476}, {"type": "node", "id": 5587505299, "lat": -33.9148041, "lon": 151.2405651}, {"type": "node", "id": 5587505300, "lat": -33.914863, "lon": 151.2405493}, {"type": "node", "id": 5587505301, "lat": -33.9148755, "lon": 151.2406346}, {"type": "node", "id": 5608349141, "lat": -33.8911137, "lon": 151.2130344, "tags": {"name": "Surry Hills Fine Wines", "shop": "alcohol"}}, {"type": "node", "id": 5674498175, "lat": -33.8737571, "lon": 151.2234156, "tags": {"amenity": "cafe", "name": "Froth espresso", "shop": "alcohol"}}, {"type": "node", "id": 5710651333, "lat": -33.8696388, "lon": 151.1964328, "tags": {"shop": "alcohol"}}, {"type": "node", "id": 5744962163, "lat": -33.8768413, "lon": 151.2126925, "tags": {"brand": "BWS", "brand:wikidata": "Q4836848", "name": "BWS", "shop": "alcohol"}}, {"type": "node", "id": 5746330448, "lat": -33.9069032, "lon": 151.1714242}, {"type": "node", "id": 5746331021, "lat": -33.907398, "lon": 151.171898}, {"type": "node", "id": 5746331022, "lat": -33.9074281, "lon": 151.1719372}, {"type": "node", "id": 5746331023, "lat": -33.9075383, "lon": 151.1719251}, {"type": "node", "id": 5746331039, "lat": -33.9069219, "lon": 151.1715955}, {"type": "node", "id": 5746331055, "lat": -33.9068729, "lon": 151.1716033}, {"type": "node", "id": 5746331056, "lat": -33.9068541, "lon": 151.171432}, {"type": "node", "id": 5746331105, "lat": -33.9075171, "lon": 151.1717112}, {"type": "node", "id": 5746331106, "lat": -33.9074794, "lon": 151.1717172}, {"type": "node", "id": 5746331107, "lat": -33.9074877, "lon": 151.1718005}, {"type": "node", "id": 5746331108, "lat": -33.9073905, "lon": 151.1718129}, {"type": "node", "id": 5753326668, "lat": -33.9152904, "lon": 151.1127188}, {"type": "node", "id": 5753326669, "lat": -33.9150093, "lon": 151.1125529}, {"type": "node", "id": 5753326670, "lat": -33.9150411, "lon": 151.1124248}, {"type": "node", "id": 5753326671, "lat": -33.9153385, "lon": 151.1126004}, {"type": "node", "id": 5753326672, "lat": -33.9150007, "lon": 151.1125241}, {"type": "node", "id": 5774544454, "lat": -33.9417035, "lon": 151.2387307, "tags": {"brand": "Bottlemart", "brand:wikidata": "Q102863175", "name": "Bottlemart", "shop": "alcohol"}}, {"type": "node", "id": 5782867247, "lat": -33.9166738, "lon": 151.1500653, "tags": {"brand": "BWS", "brand:wikidata": "Q4836848", "brand:wikipedia": "en:BWS (liquor retailer)", "name": "BWS", "shop": "alcohol"}}, {"type": "node", "id": 5809692856, "lat": -33.7743493, "lon": 151.1690326, "tags": {"brand": "BWS", "brand:wikidata": "Q4836848", "brand:wikipedia": "en:BWS (liquor retailer)", "name": "BWS", "shop": "alcohol"}}, {"type": "node", "id": 5809698053, "lat": -33.7844429, "lon": 151.1782933, "tags": {"name": "Porters", "shop": "alcohol"}}, {"type": "node", "id": 5834187110, "lat": -34.0094249, "lon": 151.1049601, "tags": {"name": "Choice Liquor Superstore", "shop": "alcohol"}}, {"type": "node", "id": 5839127359, "lat": -33.8989437, "lon": 151.1732817}, {"type": "node", "id": 5839511929, "lat": -33.8962483, "lon": 151.1534599, "tags": {"name": "Petersham Liquor Mart", "shop": "alcohol"}}, {"type": "node", "id": 5842632688, "lat": -33.8931377, "lon": 151.1645437, "tags": {"name": "Sake Shop", "shop": "alcohol"}}, {"type": "node", "id": 5842632895, "lat": -33.893455, "lon": 151.1641306, "tags": {"name": "Pubmart Bottle Shop", "shop": "alcohol"}}, {"type": "node", "id": 5862426459, "lat": -33.9057809, "lon": 151.1808797, "tags": {"shop": "alcohol"}}, {"type": "node", "id": 5872652634, "lat": -33.9130024, "lon": 151.2403049, "tags": {"name": "Randwick Cellars", "opening_hours": "Mo-We, Su 11:00-20:00; Th-Sa 11:00-21:00", "shop": "alcohol"}}, {"type": "node", "id": 5886006994, "lat": -33.881424, "lon": 151.2183241, "tags": {"name": "Misha's", "shop": "alcohol"}}, {"type": "node", "id": 5892223186, "lat": -33.8899495, "lon": 151.271713, "tags": {"name": "Bondi Beach Cellars", "shop": "alcohol"}}, {"type": "node", "id": 5901653823, "lat": -33.8852928, "lon": 151.2280699, "tags": {"addr:city": "Paddington", "addr:country": "AU", "addr:postcode": "2021", "addr:state": "NSW", "addr:street": "Oxford Street", "brand": "BWS", "brand:wikidata": "Q4836848", "brand:wikipedia": "en:BWS (liquor retailer)", "drive_through": "no", "name": "BWS", "shop": "alcohol"}}, {"type": "node", "id": 5956222295, "lat": -33.8847989, "lon": 151.2004599, "tags": {"addr:housenumber": "Shop RB04", "addr:postcode": "2008", "addr:state": "NSW", "addr:street": "Lower Ground Level, Central Shopping Centre, 28 Broadway", "addr:suburb": "Chippendale", "name": "Red Bottle Central", "opening_hours": "Mo-Sa 09:00-22:55, Su 10:00-21:55", "payment": "Cash, Credit Card, Debit Card", "phone": "+61 2 8005 4003", "shop": "alcohol", "website": "https://redbottle.com.au/store-locations/sydney-central-park/"}}, {"type": "node", "id": 6006786865, "lat": -33.8790685, "lon": 151.2147032, "tags": {"name": "Liquor on Oxford", "opening_hours": "Mo-We 09:30-23:00; Th-Sa 09:30-24:00; Su 11:00-23:00", "shop": "alcohol"}}, {"type": "node", "id": 6009432888, "lat": -33.9161698, "lon": 151.2402957, "tags": {"brand": "Liquorland", "brand:wikidata": "Q2283837", "brand:wikipedia": "en:Liquorland", "name": "Liquorland", "opening_hours": "Mo-We 09:00-21:00; Th-Sa 09:00-22:00; Su 10:00-21:00", "operator": "Coles Group", "operator:wikidata": "Q1339055", "operator:wikipedia": "en:Coles Group", "shop": "alcohol"}}, {"type": "node", "id": 6091814525, "lat": -33.879773, "lon": 151.2161493, "tags": {"name": "Corkscrew Cellars", "shop": "alcohol"}}, {"type": "node", "id": 6169815649, "lat": -33.9229515, "lon": 151.1860378, "tags": {"addr:housenumber": "55", "addr:street": "Church Avenue", "branch": "Mascot", "brand": "BWS", "brand:wikidata": "Q4836848", "brand:wikipedia": "en:BWS (liquor retailer)", "name": "BWS", "opening_hours": "Mo-Sa 09:00-21:00; Su 10:00-19:00", "phone": "+61 2 8565 9333", "shop": "alcohol"}}, {"type": "node", "id": 6261169202, "lat": -33.8670551, "lon": 151.2022158, "tags": {"name": "King Cellars", "opening_hours": "Mo-Sa 10:00-23:00; Su 11:00-22:00", "shop": "alcohol"}}, {"type": "node", "id": 6305259885, "lat": -33.8146687, "lon": 151.167943, "tags": {"brand": "BWS", "brand:wikidata": "Q4836848", "brand:wikipedia": "en:BWS (liquor retailer)", "name": "BWS", "shop": "alcohol"}}, {"type": "node", "id": 6338721705, "lat": -33.9085736, "lon": 151.2473242, "tags": {"name": "The Dog Bottle Shop", "opening_hours": "Mo-Sa 10:00-22:00; Su 10:00-22:00", "shop": "alcohol"}}, {"type": "node", "id": 6371771514, "lat": -33.9170106, "lon": 151.2493457, "tags": {"name": "George's Cellar", "shop": "alcohol"}}, {"type": "node", "id": 6372204523, "lat": -33.9205196, "lon": 151.2553332, "tags": {"brand": "Bottlemart", "brand:wikidata": "Q102863175", "name": "Bottlemart", "shop": "alcohol", "wheelchair": "no"}}, {"type": "node", "id": 6420145743, "lat": -33.9287554, "lon": 151.2352092}, {"type": "node", "id": 6420145744, "lat": -33.928939, "lon": 151.2351722}, {"type": "node", "id": 6420145745, "lat": -33.9288893, "lon": 151.2350804}, {"type": "node", "id": 6420145746, "lat": -33.928865, "lon": 151.23507}, {"type": "node", "id": 6420145747, "lat": -33.928698, "lon": 151.235099}, {"type": "node", "id": 6420145748, "lat": -33.9286971, "lon": 151.2350923}, {"type": "node", "id": 6420145749, "lat": -33.9286704, "lon": 151.2350975}, {"type": "node", "id": 6420145750, "lat": -33.9286711, "lon": 151.2351034}, {"type": "node", "id": 6420145751, "lat": -33.9285565, "lon": 151.2351249}, {"type": "node", "id": 6420145752, "lat": -33.9285926, "lon": 151.2353848}, {"type": "node", "id": 6420145754, "lat": -33.9286304, "lon": 151.2353815}, {"type": "node", "id": 6420145755, "lat": -33.928658, "lon": 151.2353766}, {"type": "node", "id": 6420145756, "lat": -33.9286386, "lon": 151.2352407}, {"type": "node", "id": 6420145757, "lat": -33.9287558, "lon": 151.235219}, {"type": "node", "id": 6444376680, "lat": -34.01585, "lon": 151.0657026}, {"type": "node", "id": 6524118798, "lat": -33.8820893, "lon": 151.2754397, "tags": {"name": "Vintage Cellars", "shop": "alcohol"}}, {"type": "node", "id": 6530757082, "lat": -33.9776503, "lon": 151.1042581, "tags": {"brand": "BWS", "brand:wikidata": "Q4836848", "brand:wikipedia": "en:BWS (liquor retailer)", "name": "BWS", "shop": "alcohol"}}, {"type": "node", "id": 6594152040, "lat": -33.9577734, "lon": 151.2312848, "tags": {"brand": "BWS", "brand:wikidata": "Q4836848", "brand:wikipedia": "en:BWS (liquor retailer)", "name": "BWS", "shop": "alcohol"}}, {"type": "node", "id": 6622307529, "lat": -33.8794058, "lon": 151.2367734, "tags": {"brand": "Liquorland", "brand:wikidata": "Q2283837", "brand:wikipedia": "en:Liquorland", "drive_through": "no", "level": "0", "name": "Liquorland", "shop": "alcohol"}}, {"type": "node", "id": 6652928344, "lat": -33.8742301, "lon": 151.272693, "tags": {"drive_through": "yes", "fixme": "name", "shop": "alcohol"}}, {"type": "node", "id": 6669783188, "lat": -33.822384, "lon": 151.0081517, "tags": {"name": "Harris Park Cellars", "shop": "alcohol", "wheelchair": "yes"}}, {"type": "node", "id": 6763328723, "lat": -33.9011375, "lon": 151.2097039, "tags": {"name": "Local Liquor", "shop": "alcohol"}}, {"type": "node", "id": 6796831037, "lat": -33.8861348, "lon": 151.2727636, "tags": {"drive_through": "yes", "shop": "alcohol"}}, {"type": "node", "id": 6817267980, "lat": -33.8890072, "lon": 151.2698, "tags": {"drive_through": "no", "name": "Native Drops Artisan Cellar", "opening_hours": "Mo 15:00-20:00; Tu 15:00-21:00; We-Th 12:00-21:00; Fr-Sa 10:00-21:00; Su 11:00-20:00", "shop": "alcohol"}}, {"type": "node", "id": 6943941285, "lat": -33.8872233, "lon": 151.2015139, "tags": {"name": "Craft Beer to Take Home", "shop": "alcohol"}}, {"type": "node", "id": 7039553985, "lat": -33.8934931, "lon": 151.1832851, "tags": {"description": "Bottle Shop", "shop": "alcohol"}}, {"type": "node", "id": 7063115085, "lat": -33.9224632, "lon": 151.187974, "tags": {"name": "IGA Express", "shop": "alcohol"}}, {"type": "node", "id": 7066425026, "lat": -33.9064424, "lon": 151.2047716, "tags": {"addr:housenumber": "20-26", "addr:postcode": "2017", "addr:state": "NSW", "addr:street": "Ebsworth Street", "addr:suburb": "Zetland", "brand": "BWS", "brand:wikidata": "Q4836848", "brand:wikipedia": "en:BWS (liquor retailer)", "name": "BWS", "opening_hours": "Mo-Sa 10:00-21:55; Su 10:00-20:00", "phone": "+61283995980", "shop": "alcohol", "website": "https://bws.com.au/storelocator/nsw-zetland-1619"}}, {"type": "node", "id": 7076859785, "lat": -33.7973217, "lon": 151.1831602, "tags": {"brand": "Liquorland", "brand:wikidata": "Q2283837", "level:ref": "2", "name": "Liquorland", "shop": "alcohol", "wheelchair": "yes"}}, {"type": "node", "id": 7118249572, "lat": -33.8976365, "lon": 151.2129349, "tags": {"name": "Vintage Cellars", "shop": "alcohol", "source": "survey"}}, {"type": "node", "id": 7142074992, "lat": -33.9260074, "lon": 151.0580742, "tags": {"brand": "BWS", "brand:wikidata": "Q4836848", "brand:wikipedia": "en:BWS (liquor retailer)", "name": "BWS", "shop": "alcohol"}}, {"type": "node", "id": 7182781534, "lat": -33.9192006, "lon": 151.2545367, "tags": {"brand": "Dan Murphy's", "brand:wikidata": "Q5214075", "name": "Dan Murphy's", "shop": "alcohol"}}, {"type": "node", "id": 7297624464, "lat": -33.7857111, "lon": 151.2663442}, {"type": "node", "id": 7297624465, "lat": -33.7856046, "lon": 151.2664611}, {"type": "node", "id": 7297624466, "lat": -33.7856278, "lon": 151.2664}, {"type": "node", "id": 7297624467, "lat": -33.7856761, "lon": 151.266352}, {"type": "node", "id": 7297624468, "lat": -33.7856093, "lon": 151.266643}, {"type": "node", "id": 7297624469, "lat": -33.7856318, "lon": 151.2666387}, {"type": "node", "id": 7297624470, "lat": -33.7859448, "lon": 151.2663731}, {"type": "node", "id": 7297624471, "lat": -33.7859201, "lon": 151.266354}, {"type": "node", "id": 7444349465, "lat": -33.8175471, "lon": 151.0041672, "tags": {"brand": "BWS", "brand:wikidata": "Q4836848", "brand:wikipedia": "en:BWS (liquor retailer)", "indoor": "yes", "level": "1", "name": "BWS", "shop": "alcohol"}}, {"type": "node", "id": 7444349484, "lat": -33.8156886, "lon": 151.0097086, "tags": {"addr:housenumber": "22", "addr:street": "George Street", "addr:suburb": "Parramatta", "name": "Parramatta Bottler", "opening_hours": "Mo-Fr 10:00-20:00, Sa-Su 11:00-20:00", "shop": "alcohol"}}, {"type": "node", "id": 7518159284, "lat": -33.7895152, "lon": 151.1799847}, {"type": "node", "id": 7518168985, "lat": -33.7894812, "lon": 151.1801563}, {"type": "node", "id": 7518168986, "lat": -33.7892978, "lon": 151.1800886}, {"type": "node", "id": 7518168987, "lat": -33.7893541, "lon": 151.1799283}, {"type": "node", "id": 7540275590, "lat": -33.8060013, "lon": 151.0876083, "tags": {"addr:housenumber": "17", "addr:postcode": "2114", "addr:state": "NSW", "addr:street": "Chatham Road", "addr:suburb": "West Ryde", "brand": "Liquorland", "brand:wikidata": "Q2283837", "brand:wikipedia": "en:Liquorland", "drive_through": "no", "name": "Liquorland", "shop": "alcohol"}}, {"type": "node", "id": 7693215296, "lat": -33.933612, "lon": 151.0263569}, {"type": "node", "id": 7693215297, "lat": -33.9337303, "lon": 151.0264955}, {"type": "node", "id": 7693215298, "lat": -33.9338114, "lon": 151.026395}, {"type": "node", "id": 7693215299, "lat": -33.9336931, "lon": 151.0262564}, {"type": "node", "id": 7727981495, "lat": -33.8763359, "lon": 151.1779582, "tags": {"level": "1", "name": "Chambers Cellars", "shop": "alcohol", "website": "https://chamberscellars.com.au/"}}, {"type": "node", "id": 7732728719, "lat": -33.8757185, "lon": 151.1839275, "tags": {"level": "1", "name": "The Little Bottle Shop of Glebe", "shop": "alcohol"}}, {"type": "node", "id": 7765400658, "lat": -33.8767629, "lon": 151.1847489, "tags": {"name": "Glebe Wine Shop", "shop": "alcohol"}}, {"type": "node", "id": 7811338131, "lat": -33.877181, "lon": 151.2422312, "tags": {"name": "World of Whisky", "shop": "alcohol"}}, {"type": "node", "id": 7979204885, "lat": -33.8640527, "lon": 151.0447028, "tags": {"name": "Bottle shop", "shop": "alcohol"}}, {"type": "node", "id": 8001680083, "lat": -33.847872, "lon": 151.0866111, "tags": {"name": "Bottlemart Concord West", "opening_hours": "Su-Th 11:00-21:30; Fr,Sa 11:00-22:00", "shop": "alcohol"}}, {"type": "node", "id": 8004454685, "lat": -34.0116687, "lon": 151.2094305, "tags": {"brand": "BWS", "brand:wikidata": "Q4836848", "brand:wikipedia": "en:BWS (liquor retailer)", "drive_through": "no", "name": "BWS", "shop": "alcohol"}}, {"type": "node", "id": 8582533621, "lat": -33.7953789, "lon": 151.1864605, "tags": {"name": "Wuliangye", "shop": "alcohol"}}, {"type": "node", "id": 8610036249, "lat": -34.0158001, "lon": 151.0657146}, {"type": "node", "id": 8648599638, "lat": -33.8154726, "lon": 151.009281, "tags": {"name": "Bottler", "shop": "alcohol"}}, {"type": "node", "id": 8676483423, "lat": -33.8940058, "lon": 151.2631758, "tags": {"addr:housenumber": "137-147", "addr:postcode": "2026", "addr:state": "NSW", "addr:street": "Bondi Road", "addr:suburb": "Bondi", "drive_through": "no", "name": "Kemenys", "shop": "alcohol"}}, {"type": "node", "id": 8690532718, "lat": -33.9171358, "lon": 151.2004832, "tags": {"brand": "Dan Murphy's", "brand:wikidata": "Q5214075", "brand:wikipedia": "en:Dan Murphy's", "name": "Dan Murphy's", "shop": "alcohol"}}, {"type": "node", "id": 8855865552, "lat": -33.8086596, "lon": 151.1842167, "tags": {"brand": "BWS", "brand:wikidata": "Q4836848", "brand:wikipedia": "en:BWS (liquor retailer)", "name": "BWS", "shop": "alcohol"}}, {"type": "node", "id": 8931873119, "lat": -33.8037421, "lon": 150.9796715, "tags": {"addr:housenumber": "29-33", "addr:postcode": "2145", "addr:state": "NSW", "addr:street": "Darcy Road", "addr:suburb": "Westmead", "brand": "Liquorland", "brand:wikidata": "Q2283837", "brand:wikipedia": "en:Liquorland", "name": "Liquorland", "shop": "alcohol", "website": "https://www.liquorland.com.au/stores/nsw/westmead"}}, {"type": "node", "id": 8934393408, "lat": -33.8078813, "lon": 150.9879217, "tags": {"addr:housenumber": "24-26", "addr:street": "Railway Parade", "addr:suburb": "Westmead", "name": "Bottle-O", "phone": "+61296333477", "shop": "alcohol", "website": "https://www.thebottle-o.com.au/bottle-shops/nsw/westmead-tavernhttps://www.thebottle-o.com.au/bottle-shops/nsw/westmead-tavern"}}, {"type": "node", "id": 8945210300, "lat": -33.8270151, "lon": 151.2515514, "tags": {"name": "Balmoral Cellars", "shop": "alcohol"}}, {"type": "node", "id": 8946450505, "lat": -33.9362598, "lon": 151.1466172, "tags": {"name": "Arncliffe Bottler", "opening_hours": "Su 10:00-21:30; Mo-Sa 10:00-22:30", "shop": "alcohol"}}, {"type": "node", "id": 8956270413, "lat": -33.9116332, "lon": 151.2543691, "tags": {"addr:housenumber": "222-226", "addr:postcode": "2034", "addr:state": "NSW", "addr:street": "Clovelly Road", "addr:suburb": "Coogee", "brand:wikidata": "Q7932815", "brand:wikipedia": "en:Vintage Cellars", "drive_through": "no", "name": "Vintage Cellars", "shop": "alcohol"}}, {"type": "node", "id": 9024483515, "lat": -33.8072612, "lon": 151.1994898, "tags": {"brand": "Cellarbrations", "brand:wikidata": "Q109807592", "drive_through": "no", "name": "Cellarbrations", "shop": "alcohol"}}, {"type": "node", "id": 9035555294, "lat": -34.0441788, "lon": 151.1225652}, {"type": "node", "id": 9035564326, "lat": -34.0441723, "lon": 151.1225163}, {"type": "node", "id": 9035564327, "lat": -34.0445028, "lon": 151.1227694}, {"type": "node", "id": 9035564328, "lat": -34.0444614, "lon": 151.1224599}, {"type": "node", "id": 9060425275, "lat": -33.8375931, "lon": 151.2069834, "tags": {"brand": "BWS", "brand:wikidata": "Q4836848", "brand:wikipedia": "en:BWS (liquor retailer)", "name": "BWS", "shop": "alcohol"}}, {"type": "node", "id": 9141262609, "lat": -33.9142188, "lon": 151.2063594}, {"type": "node", "id": 9141291544, "lat": -33.9141531, "lon": 151.2063811}, {"type": "node", "id": 9141291545, "lat": -33.9141233, "lon": 151.2062496}, {"type": "node", "id": 9141291546, "lat": -33.914189, "lon": 151.2062279}, {"type": "node", "id": 9196979836, "lat": -33.917383, "lon": 151.0327008, "tags": {"addr:housenumber": "10", "addr:postcode": "2200", "addr:state": "NSW", "addr:street": "Marion Street", "addr:suburb": "Bankstown", "brand": "Cellarbrations", "brand:wikidata": "Q109807592", "name": "Cellarbrations", "opening_hours": "Mo-Th 10:00-19:30; Fr,Sa 10:00-20:00; Su 10:00-18:00", "phone": "+61297968921", "shop": "alcohol", "website": "https://www.cellarbrations.com.au/bottle-shops/nsw/bankstown-cellars"}}, {"type": "node", "id": 9215612217, "lat": -33.8741872, "lon": 151.0941738, "tags": {"name": "Strathfield Cellars", "shop": "alcohol"}}, {"type": "node", "id": 9218427006, "lat": -33.9070199, "lon": 151.2087675, "tags": {"name": "Victoria Park Cellars", "shop": "alcohol"}}, {"type": "node", "id": 9316932439, "lat": -33.9153617, "lon": 151.0411582}, {"type": "node", "id": 9316932440, "lat": -33.9153506, "lon": 151.0413726}, {"type": "node", "id": 9316932441, "lat": -33.9153005, "lon": 151.0413856}, {"type": "node", "id": 9316932442, "lat": -33.9153002, "lon": 151.0413921}, {"type": "node", "id": 9316932443, "lat": -33.9151745, "lon": 151.0414222}, {"type": "node", "id": 9316932444, "lat": -33.915172, "lon": 151.0414144}, {"type": "node", "id": 9316932445, "lat": -33.9149637, "lon": 151.0414795}, {"type": "node", "id": 9316932446, "lat": -33.9149609, "lon": 151.0414704}, {"type": "node", "id": 9316932447, "lat": -33.914912, "lon": 151.0414836}, {"type": "node", "id": 9316932448, "lat": -33.9148917, "lon": 151.0414876}, {"type": "node", "id": 9316932449, "lat": -33.9148744, "lon": 151.0413714}, {"type": "node", "id": 9316932450, "lat": -33.9148995, "lon": 151.0413651}, {"type": "node", "id": 9316932451, "lat": -33.9149156, "lon": 151.041228}, {"type": "node", "id": 9316932452, "lat": -33.9149575, "lon": 151.0412114}, {"type": "node", "id": 9316932453, "lat": -33.9149623, "lon": 151.0411359}, {"type": "node", "id": 9316932454, "lat": -33.9151033, "lon": 151.0411451}, {"type": "node", "id": 9316932455, "lat": -33.9151059, "lon": 151.0410991}, {"type": "node", "id": 9316932456, "lat": -33.9152315, "lon": 151.0411073}, {"type": "node", "id": 9316932457, "lat": -33.9152314, "lon": 151.0411514}, {"type": "node", "id": 9421669529, "lat": -33.9526753, "lon": 151.0330845, "tags": {"brand": "Liquorland", "brand:wikidata": "Q2283837", "brand:wikipedia": "en:Liquorland", "name": "Liquorland", "shop": "alcohol"}}, {"type": "node", "id": 9460454365, "lat": -33.856428, "lon": 151.1308414, "tags": {"name": "Vintage Cellars", "shop": "alcohol"}}, {"type": "node", "id": 9494269390, "lat": -33.9095919, "lon": 151.2047491, "tags": {"name": "Prince Wine Store", "opening_hours": "Mo-Sa 10:00-18:00", "phone": "+61296634665", "shop": "alcohol"}}, {"type": "node", "id": 9548607679, "lat": -33.8992307, "lon": 151.1733331}, {"type": "node", "id": 9548607680, "lat": -33.8992369, "lon": 151.1732762}, {"type": "node", "id": 9548607687, "lat": -33.8989507, "lon": 151.173225}, {"type": "node", "id": 9562721715, "lat": -34.0587826, "lon": 151.0813565, "tags": {"name": "Jacksons Liquor", "shop": "alcohol"}}, {"type": "node", "id": 9567276152, "lat": -33.9143196, "lon": 151.201191, "tags": {"name": "Barny's Don't Wines & Ales", "opening_hours": "Mo-We 10:00-20:30; Th 10:00-21:00; Fr, Sa 10:00-21:30; Su 10:00-20:00", "shop": "alcohol"}}, {"type": "node", "id": 9567314275, "lat": -33.9221278, "lon": 151.2007476, "tags": {"name": "Roseberry Bottle-O", "shop": "alcohol"}}, {"type": "node", "id": 9571940286, "lat": -33.8985086, "lon": 151.1760472}, {"type": "node", "id": 9571940287, "lat": -33.8983334, "lon": 151.1760249}, {"type": "node", "id": 9571940288, "lat": -33.8985045, "lon": 151.1760943}, {"type": "node", "id": 9574154872, "lat": -33.9344085, "lon": 151.1789628, "tags": {"check_date:opening_hours": "2022-11-17", "name": "Wine Selectors", "opening_hours:signed": "no", "payment:credit_cards": "yes", "payment:debit_cards": "yes", "shop": "alcohol", "wheelchair": "yes"}}, {"type": "node", "id": 9581820802, "lat": -33.9261663, "lon": 151.124117, "tags": {"shop": "alcohol"}}, {"type": "node", "id": 9673522366, "lat": -33.9038773, "lon": 151.1419216}, {"type": "node", "id": 9673522367, "lat": -33.903766, "lon": 151.1418573}, {"type": "node", "id": 9673522368, "lat": -33.9037437, "lon": 151.141876}, {"type": "node", "id": 9673522369, "lat": -33.9037237, "lon": 151.1419176}, {"type": "node", "id": 9673522370, "lat": -33.9037136, "lon": 151.1419592}, {"type": "node", "id": 9673522371, "lat": -33.9036981, "lon": 151.1419444}, {"type": "node", "id": 9673522372, "lat": -33.9036268, "lon": 151.1421416}, {"type": "node", "id": 9673522373, "lat": -33.9037671, "lon": 151.1422247}, {"type": "node", "id": 9776428740, "lat": -33.9081688, "lon": 151.1715302, "tags": {"name": "Liquor Emporium", "shop": "alcohol"}}, {"type": "node", "id": 9791898661, "lat": -33.8664912, "lon": 151.206451, "tags": {"name": "Vintage Cellars", "opening_hours": "Mo-Th 09:00-19:00; Fr 09:00-20:00; Sa, Su 10:00-19:00", "shop": "alcohol"}}, {"type": "node", "id": 9884061890, "lat": -33.8284329, "lon": 151.2292154, "tags": {"name": "Barrels", "shop": "alcohol"}}, {"type": "node", "id": 9884061892, "lat": -33.8285028, "lon": 151.2290807, "tags": {"shop": "alcohol"}}, {"type": "node", "id": 9899772018, "lat": -33.9686975, "lon": 151.0787224, "tags": {"brand": "BWS", "brand:wikidata": "Q4836848", "name": "BWS", "shop": "alcohol"}}, {"type": "node", "id": 9900955418, "lat": -33.8778705, "lon": 151.2213495, "tags": {"check_date": "2022-07-21", "level": "0", "name": "Camperdown Cellars", "shop": "alcohol"}}, {"type": "node", "id": 9903441467, "lat": -33.93202, "lon": 151.1785798, "tags": {"check_date:opening_hours": "2022-07-22", "level": "1", "name": "Wine Selectors", "opening_hours:signed": "no", "payment:credit_cards": "yes", "payment:debit_cards": "yes", "shop": "alcohol", "wheelchair": "yes"}}, {"type": "node", "id": 9934806992, "lat": -33.8891456, "lon": 151.2754956, "tags": {"brand": "BWS", "brand:wikidata": "Q4836848", "name": "BWS", "shop": "alcohol"}}, {"type": "node", "id": 9979213556, "lat": -34.0343385, "lon": 151.0731471, "tags": {"brand": "Dan Murphy's", "brand:wikidata": "Q5214075", "name": "Dan Murphy's", "shop": "alcohol"}}, {"type": "node", "id": 10086475755, "lat": -33.9148705, "lon": 151.0412452}, {"type": "node", "id": 10086475756, "lat": -33.9148484, "lon": 151.0414271}, {"type": "node", "id": 10086475757, "lat": -33.9148863, "lon": 151.0414544}, {"type": "node", "id": 10086477444, "lat": -33.9152314, "lon": 151.0411286}, {"type": "node", "id": 10091255276, "lat": -33.9099833, "lon": 151.1554316}, {"type": "node", "id": 10091255277, "lat": -33.9098161, "lon": 151.1555863}, {"type": "node", "id": 10091255279, "lat": -33.9100361, "lon": 151.1555507}, {"type": "node", "id": 10091255280, "lat": -33.9098084, "lon": 151.1557643}, {"type": "node", "id": 10091255281, "lat": -33.9097449, "lon": 151.1556523}, {"type": "node", "id": 10096957811, "lat": -33.862843, "lon": 151.2092005, "tags": {"name": "Red bottle", "shop": "alcohol"}}, {"type": "node", "id": 10110544613, "lat": -33.9122242, "lon": 151.1544834}, {"type": "node", "id": 10110544614, "lat": -33.9121041, "lon": 151.1542931}, {"type": "node", "id": 10110544615, "lat": -33.9120651, "lon": 151.1543332}, {"type": "node", "id": 10110563637, "lat": -33.9121854, "lon": 151.154527}, {"type": "node", "id": 10110563638, "lat": -33.9121147, "lon": 151.1544143}, {"type": "node", "id": 10181545224, "lat": -33.8963439, "lon": 151.213563, "tags": {"name": "Vino", "opening_hours": "Mo-Sa 10:00-21:00, Su 11:00-20:00", "shop": "alcohol"}}, {"type": "node", "id": 10205545063, "lat": -33.8746528, "lon": 151.2069519, "tags": {"level": "-1", "name": "Red Bottle Express", "shop": "alcohol"}}, {"type": "node", "id": 10224709402, "lat": -34.01365, "lon": 151.0163627, "tags": {"brand": "BWS", "brand:wikidata": "Q4836848", "name": "BWS", "shop": "alcohol"}}, {"type": "node", "id": 10294430465, "lat": -33.869254, "lon": 151.2197923, "tags": {"name": "Cellarbrations", "shop": "alcohol"}}, {"type": "node", "id": 10308096762, "lat": -33.869872, "lon": 151.1073134}, {"type": "node", "id": 10308096763, "lat": -33.8698837, "lon": 151.1074013}, {"type": "node", "id": 10308096764, "lat": -33.869806, "lon": 151.1074162}, {"type": "node", "id": 10308096765, "lat": -33.8698324, "lon": 151.1076147}, {"type": "node", "id": 10308096766, "lat": -33.8698155, "lon": 151.1076179}, {"type": "node", "id": 10308096767, "lat": -33.8698213, "lon": 151.1076613}, {"type": "node", "id": 10308096768, "lat": -33.8698407, "lon": 151.1076576}, {"type": "node", "id": 10308096769, "lat": -33.8698555, "lon": 151.1077687}, {"type": "node", "id": 10308096770, "lat": -33.869884, "lon": 151.1077632}, {"type": "node", "id": 10308096771, "lat": -33.8699041, "lon": 151.1079145}, {"type": "node", "id": 10308096772, "lat": -33.8701836, "lon": 151.1078605}, {"type": "node", "id": 10308096773, "lat": -33.8701048, "lon": 151.1072685}, {"type": "node", "id": 10555740029, "lat": -33.96523, "lon": 151.0886378, "tags": {"brand": "BWS", "brand:wikidata": "Q4836848", "name": "BWS", "shop": "alcohol"}}, {"type": "node", "id": 10607653558, "lat": -33.8838975, "lon": 151.208424, "tags": {"name": "Red Bottle", "opening_hours": "Mo-Sat 10:00-22:55;Su 10:00-21:55", "shop": "alcohol"}}, {"type": "node", "id": 10619340064, "lat": -33.962297, "lon": 151.0794436, "tags": {"addr:housenumber": "491A", "addr:street": "Forest Road", "branch": "Penshurst", "email": "penshurst@valorecellars.com.au", "name": "Valore Cellars", "phone": "+61 2 9580 2884", "shop": "alcohol", "website": "https://valorecellars.com.au"}}, {"type": "node", "id": 10648748656, "lat": -33.7943142, "lon": 151.189811, "tags": {"entrance": "main"}}, {"type": "node", "id": 10648748662, "lat": -33.7943038, "lon": 151.1898456}, {"type": "node", "id": 10648748663, "lat": -33.7944609, "lon": 151.1899136}, {"type": "node", "id": 10650429288, "lat": -33.7934593, "lon": 151.134071, "tags": {"brand": "Liquorland", "brand:wikidata": "Q2283837", "name": "Liquorland", "shop": "alcohol"}}, {"type": "node", "id": 10650874272, "lat": -33.8880367, "lon": 151.2133518, "tags": {"name": "Native Drops", "opening_hours": "Mo 03:00-08:00, Tu-Th 12:00-20:00, Fr-Sa 10:00-20:00, Su 10:00-18:00", "shop": "alcohol"}}, {"type": "node", "id": 10653170748, "lat": -33.8137832, "lon": 151.169058, "tags": {"level:ref": "LG", "shop": "alcohol"}}, {"type": "node", "id": 10679626430, "lat": -33.8859599, "lon": 151.2083542, "tags": {"name": "Porters Liquor", "opening_hours": "Mo 10:00-20:00, Tu-We 10:00-20:00, Th-Sa 10:00-20:45, Su 10:00-19:00", "shop": "alcohol"}}, {"type": "node", "id": 10685814983, "lat": -33.9441595, "lon": 151.1287419, "tags": {"name": "Porters Liquor", "shop": "alcohol"}}, {"type": "node", "id": 10801245154, "lat": -33.8844188, "lon": 151.21124, "tags": {"name": "El Loco Bottle Shop", "opening_hours": "Mo-Fri 11:00-23:00;Sa 12:00-23:00;Su 12:00-22:00", "shop": "alcohol"}}, {"type": "way", "id": 41694618, "nodes": [512959778, 7297624470, 7297624471, 512959791, 512959794, 7297624464, 7297624467, 7297624466, 7297624465, 7297624468, 7297624469, 512959796, 512959778], "tags": {"brand": "Dan Murphy's", "brand:wikidata": "Q5214075", "brand:wikipedia": "en:Dan Murphy's", "building": "yes", "drive_through": "no", "name": "Dan Murphy's", "shop": "alcohol"}}, {"type": "way", "id": 93414491, "nodes": [1083060658, 1083060659, 1083060660, 1083060661, 1083060662, 1083060663, 1083060664, 1083060665, 1083060658], "tags": {"brand": "Liquorland", "brand:wikidata": "Q2283837", "brand:wikipedia": "en:Liquorland", "building": "yes", "name": "Liquorland", "operator": "Coles Group", "operator:wikidata": "Q1339055", "operator:wikipedia": "en:Coles Group", "shop": "alcohol"}}, {"type": "way", "id": 185951835, "nodes": [1966400354, 1966400373, 1966400380, 1966400269, 1966400386, 1966400368, 1966400274, 1966400237, 1966400354], "tags": {"brand": "Dan Murphy's", "brand:wikidata": "Q5214075", "brand:wikipedia": "en:Dan Murphy's", "building": "retail", "name": "Dan Murphy's", "shop": "alcohol", "source": "Bing"}}, {"type": "way", "id": 234112769, "nodes": [2424128458, 2424128459, 2424128460, 2424128461, 2424128462, 2424128463, 2424128464, 2424128465, 2424128458], "tags": {"addr:city": "North Ryde", "addr:country": "AU", "addr:housenumber": "140", "addr:place": "Cellarbrations", "addr:postcode": "2113", "addr:state": "NSW", "addr:street": "Coxs Road", "brand": "Cellarbrations", "brand:wikidata": "Q109807592", "building": "yes", "name": "Cellarbrations", "opening_hours": "Tu-Th 10:00-20:30; Fr 10:00-21:00; Sa 09:00-21:00; Su-Mo 10:00-19:30", "phone": "+61 2 9870 8872", "shop": "alcohol"}}, {"type": "way", "id": 279932698, "nodes": [2841098103, 2841098104, 2841098105, 2841098106, 2841098107, 2841098108, 2841098109, 2841098110, 2841098111, 2841098112, 2841098103], "tags": {"brand": "Dan Murphy's", "brand:wikidata": "Q5214075", "building": "commercial", "name": "Dan Murphy's", "shop": "alcohol"}}, {"type": "way", "id": 291435041, "nodes": [2949066078, 2949066081, 2949066090, 2949066089, 2949066087, 2949066086, 2949066078], "tags": {"building": "retail", "building:levels": "2", "name": "Epping Cellars", "roof:levels": "0", "shop": "alcohol", "source": "LPI Imagery+ survey", "wheelchair": "limited"}}, {"type": "way", "id": 318055214, "nodes": [3244269992, 3244269994, 3244269993, 4548831863, 3244269991, 3244269992], "tags": {"addr:city": "Epping", "addr:housenumber": "54A", "addr:postcode": "2121", "addr:street": "Rawson Street", "building": "retail", "drive_through": "yes", "name": "Super Cellars", "operator": "Epping Hotel", "shop": "alcohol", "source": "bing + knowledge", "wheelchair": "limited"}}, {"type": "way", "id": 382842734, "nodes": [3860546029, 3860546034, 3860546031, 5414179598, 5414179590, 5414179591, 5414179593, 5414179592, 5414179596, 5414179595, 5414179572, 5414179594, 5414179573, 5414179597, 3860546036, 3860546030, 5414179574, 3860546029], "tags": {"addr:city": "Lilyfield", "addr:housenumber": "7", "addr:postcode": "2040", "addr:street": "Darley Road", "brand": "Dan Murphy's", "brand:wikidata": "Q5214075", "brand:wikipedia": "en:Dan Murphy's", "building": "yes", "name": "Dan Murphy's", "shop": "alcohol", "wheelchair": "yes"}}, {"type": "way", "id": 444590126, "nodes": [4420553972, 4420553957, 4420553953, 4420553982, 4420553983, 4420553984, 4447257478, 4420553972], "tags": {"brand": "BWS", "brand:wikidata": "Q4836848", "brand:wikipedia": "en:BWS (liquor retailer)", "indoor": "room", "level": "-1", "name": "BWS", "opening_hours": "Mo-We 09:00-20:00; Th 09:00-21:00; Fr,Sa 09:00-22:00; Su 11:00-19:55", "room": "shop", "shop": "alcohol", "wheelchair": "yes"}}, {"type": "way", "id": 444590237, "nodes": [4420553826, 4420553879, 4420553880, 4420553832, 4453004734, 4420553826], "tags": {"indoor": "room", "level": "-1", "name": "Joymart Liquor", "room": "shop", "shop": "alcohol"}}, {"type": "way", "id": 462009484, "nodes": [4574388352, 4574388353, 4574388354, 4574388355, 4574388356, 4574388357, 4574388352], "tags": {"addr:city": "Hurlstone Park", "addr:housenumber": "28", "addr:postcode": "2193", "addr:street": "Floss Street", "building": "yes", "drive_through": "no", "operator": "Liquor Emporium", "shop": "alcohol"}}, {"type": "way", "id": 544666782, "nodes": [5264882768, 5264882765, 5264882769, 5264882770, 5264882771, 5264882772, 5264882773, 5264882774, 5264882776, 5264882775, 5264882768], "tags": {"addr:city": "Canterbury", "addr:housenumber": "171-173", "addr:postcode": "2193", "addr:street": "Canterbury Road", "building": "yes", "name": "Canterbury SuperCellars", "shop": "alcohol"}}, {"type": "way", "id": 580309994, "nodes": [5555611280, 5555611284, 5555611283, 8610036249, 6444376680, 5555611280], "tags": {"branch": "Jannali", "brand": "BWS", "brand:wikidata": "Q4836848", "building": "yes", "name": "BWS", "operator": "BWS", "shop": "alcohol"}}, {"type": "way", "id": 584530130, "nodes": [5587505299, 5587505300, 5587505301, 5586192643, 5587505299], "tags": {"brand": "Liquorland", "brand:wikidata": "Q2283837", "brand:wikipedia": "en:Liquorland", "email": "customerservice@liquorland.com.au", "indoor": "area", "level": "0", "name": "Liquorland", "operator": "Coles Group", "operator:wikidata": "Q1339055", "operator:wikipedia": "en:Coles Group", "phone:AU": "1300 300 640", "shop": "alcohol"}}, {"type": "way", "id": 605984551, "nodes": [5746331056, 5746331055, 5746331039, 5746330448, 5746331056], "tags": {"brand": "BWS", "brand:wikidata": "Q4836848", "brand:wikipedia": "en:BWS (liquor retailer)", "name": "BWS", "shop": "alcohol", "wheelchair": "yes"}}, {"type": "way", "id": 605984576, "nodes": [5746331108, 5746331107, 5746331106, 5746331105, 5746331023, 5746331022, 5746331021, 5746331108], "tags": {"brand": "Liquorland", "brand:wikidata": "Q2283837", "brand:wikipedia": "en:Liquorland", "name": "Liquorland", "shop": "alcohol", "wheelchair": "yes"}}, {"type": "way", "id": 606947401, "nodes": [5753326668, 5753326669, 5753326672, 5753326670, 5753326671, 5753326668], "tags": {"addr:housenumber": "334-336", "addr:postcode": "2193", "addr:state": "NSW", "addr:street": "Canterbury Road", "addr:suburb": "Canterbury", "branch": "Canterbury", "brand": "BWS", "brand:wikidata": "Q4836848", "brand:wikipedia": "en:BWS (liquor retailer)", "building": "yes", "name": "BWS", "shop": "alcohol"}}, {"type": "way", "id": 617718919, "nodes": [9548607680, 9548607679, 5839127359, 9548607687, 9548607680], "tags": {"addr:housenumber": "152", "addr:postcode": "2042", "addr:state": "NSW", "addr:street": "Enmore Road", "addr:suburb": "Enmore", "building": "retail", "building:levels": "2", "drink:wine": "retail", "name": "Enmore Fine Wines", "shop": "alcohol", "wheelchair": "yes"}}, {"type": "way", "id": 685168515, "nodes": [6420145743, 6420145744, 6420145745, 6420145746, 6420145747, 6420145748, 6420145749, 6420145750, 6420145751, 6420145752, 6420145754, 6420145755, 6420145756, 6420145757, 6420145743], "tags": {"addr:housenumber": "686-688", "addr:postcode": "2032", "addr:state": "NSW", "addr:street": "Anzac Parade", "addr:suburb": "Kingsford", "building": "commercial", "drive_through": "no", "name": "Steve's Cool Booze", "opening_hours": "Mo-We 09:00-20:30, Th-Sa 09:00-21:00, Su 10:00-20:00", "operator": "Steve's Cool Booze - Liquor Stax", "payment:cards": "yes", "payment:cash": "yes", "phone": "+612 9349 1162", "shop": "alcohol", "website": "http://stevescoolbooze.com.au/"}}, {"type": "way", "id": 803714828, "nodes": [7518168987, 7518168986, 7518168985, 7518159284, 7518168987], "tags": {"building": "retail", "name": "Vintage Cellars", "shop": "alcohol"}}, {"type": "way", "id": 823985584, "nodes": [7693215296, 7693215297, 7693215298, 7693215299, 7693215296], "tags": {"brand": "Bottlemart", "brand:wikidata": "Q102863175", "building": "yes", "name": "Bottlemart", "shop": "alcohol"}}, {"type": "way", "id": 976381150, "nodes": [9035564328, 9035564326, 9035555294, 1280185146, 9035564327, 9035564328], "tags": {"brand": "Dan Murphy's", "brand:wikidata": "Q5214075", "building": "yes", "name": "Dan Murphy's", "shop": "alcohol"}}, {"type": "way", "id": 989027835, "nodes": [9141262609, 9141291544, 9141291545, 9141291546, 9141262609], "tags": {"brand": "BWS", "brand:wikidata": "Q4836848", "brand:wikipedia": "en:BWS (liquor retailer)", "building": "yes", "building:part": "yes", "name": "BWS", "operator": "Woolworths", "shop": "alcohol"}}, {"type": "way", "id": 1009783924, "nodes": [9316932439, 9316932440, 9316932441, 9316932442, 9316932443, 9316932444, 9316932445, 9316932446, 9316932447, 9316932448, 10086475757, 10086475756, 9316932449, 9316932450, 10086475755, 9316932451, 9316932452, 9316932453, 9316932454, 9316932455, 9316932456, 10086477444, 9316932457, 9316932439], "tags": {"brand": "Dan Murphy's", "brand:wikidata": "Q5214075", "building:part": "retail", "drive_through": "no", "level": "3", "name": "Dan Murphy's", "shop": "alcohol"}}, {"type": "way", "id": 1039467644, "nodes": [9571940287, 5365346912, 5365346913, 9571940288, 9571940286, 9571940287], "tags": {"addr:housenumber": "55", "addr:street": "Enmore Road", "building": "retail", "building:levels": "2", "name": "Cittavino", "shop": "alcohol"}}, {"type": "way", "id": 1052598445, "nodes": [9673522366, 9673522367, 9673522368, 9673522369, 9673522370, 9673522371, 9673522372, 9673522373, 9673522366], "tags": {"addr:housenumber": "414", "addr:postcode": "2203", "addr:state": "NSW", "addr:street": "New Canterbury Road", "addr:suburb": "Dulwich Hill", "building": "yes", "drive_through": "no", "name": "Liquor Stax", "shop": "alcohol"}}, {"type": "way", "id": 1102761246, "nodes": [10091255276, 10091255279, 10091255280, 10091255281, 10091255277, 10091255276], "tags": {"brand": "Liquorland", "brand:wikidata": "Q2283837", "building": "yes", "name": "Liquorland", "shop": "alcohol"}}, {"type": "way", "id": 1104860917, "nodes": [10110563637, 10110544613, 10110544614, 10110544615, 10110563638, 10110563637], "tags": {"building": "yes", "name": "Local Drinks Collective", "shop": "alcohol"}}, {"type": "way", "id": 1127426332, "nodes": [10308096762, 10308096763, 10308096764, 10308096765, 10308096766, 10308096767, 10308096768, 10308096769, 10308096770, 10308096771, 10308096772, 10308096773, 10308096762], "tags": {"brand": "Dan Murphy's", "brand:wikidata": "Q5214075", "building": "yes", "name": "Dan Murphy's", "shop": "alcohol"}}, {"type": "way", "id": 1143931364, "nodes": [10648748663, 10648748662, 10648748656, 5340160134, 5340160135, 5340160145, 10648748663], "tags": {"name": "Fleet Street", "shop": "alcohol"}}]}