{"version": 0.6, "generator": "Overpass API 0.7.60 f4c14d41", "osm3s": {"timestamp_osm_base": "2023-05-02T21:18:20Z", "copyright": "The data included in this document is from www.openstreetmap.org. The data is made available under ODbL."}, "elements": [{"type": "node", "id": 271971381, "lat": 19.4174918, "lon": -99.199831}, {"type": "node", "id": 271971425, "lat": 19.4170464, "lon": -99.1995341}, {"type": "node", "id": 271971426, "lat": 19.4172249, "lon": -99.1995568}, {"type": "node", "id": 271971427, "lat": 19.4174141, "lon": -99.1996989}, {"type": "node", "id": 271971428, "lat": 19.4173628, "lon": -99.1997625}, {"type": "node", "id": 276084173, "lat": 19.4244488, "lon": -99.1957809}, {"type": "node", "id": 293208350, "lat": 19.3453094, "lon": -99.1722996, "tags": {"addr:housenumber": "443", "addr:postcode": "04310", "addr:street": "Avenida Miguel \u00c1ngel de Quevedo", "amenity": "restaurant", "branch": "Coyoacan", "brand": "Toks", "brand:wikidata": "Q48835586", "cuisine": "mexican", "name": "Toks", "name:en": "Toks", "name:es": "Toks", "operator": "Comercial Mexicana", "phone": "+52 55 56591704", "toilets:wheelchair": "yes", "wheelchair": "yes"}}, {"type": "node", "id": 318080432, "lat": 19.3289211, "lon": -99.2134026}, {"type": "node", "id": 318084624, "lat": 19.3387504, "lon": -99.1928585, "tags": {"addr:housenumber": "46", "addr:postcode": "01090", "addr:street": "Altamirano", "amenity": "restaurant", "name": "Sanborns Loreto"}}, {"type": "node", "id": 319147480, "lat": 19.3470361, "lon": -99.1880177, "tags": {"amenity": "restaurant", "name": "Sanborns"}}, {"type": "node", "id": 319676704, "lat": 19.3297127, "lon": -99.2117733}, {"type": "node", "id": 319676705, "lat": 19.3297778, "lon": -99.2116591}, {"type": "node", "id": 319676706, "lat": 19.3299193, "lon": -99.2116399}, {"type": "node", "id": 319676707, "lat": 19.3300105, "lon": -99.2117277}, {"type": "node", "id": 319676708, "lat": 19.3299973, "lon": -99.2118689}, {"type": "node", "id": 319676709, "lat": 19.3299111, "lon": -99.2119337}, {"type": "node", "id": 319676710, "lat": 19.3297724, "lon": -99.211908}, {"type": "node", "id": 319676721, "lat": 19.3300974, "lon": -99.2117559}, {"type": "node", "id": 319676722, "lat": 19.3302174, "lon": -99.2117603}, {"type": "node", "id": 319676723, "lat": 19.330301, "lon": -99.2116763}, {"type": "node", "id": 319676724, "lat": 19.3302991, "lon": -99.2115634}, {"type": "node", "id": 319676725, "lat": 19.3302408, "lon": -99.2114956}, {"type": "node", "id": 319676726, "lat": 19.3301582, "lon": -99.2114734}, {"type": "node", "id": 319676727, "lat": 19.3300747, "lon": -99.211502}, {"type": "node", "id": 319676728, "lat": 19.3300253, "lon": -99.2115646}, {"type": "node", "id": 326552536, "lat": 19.3740688, "lon": -99.1792929, "tags": {"amenity": "restaurant", "brand": "Toks", "brand:wikidata": "Q48835586", "brand:wikipedia": "en:Toks", "cuisine": "mexican", "name": "Toks", "phone": "+52 55 55631216;+52 55 55631217"}}, {"type": "node", "id": 331418533, "lat": 19.3885172, "lon": -99.19095, "tags": {"amenity": "restaurant", "name": "La Estaci\u00f3n", "railway:historic": "station"}}, {"type": "node", "id": 331599320, "lat": 19.4276384, "lon": -99.2116606, "tags": {"addr:city": "Cd de M\u00e9xico", "addr:country": "MX", "addr:housenumber": "420", "addr:postcode": "11000", "addr:street": "Barrilaco", "amenity": "restaurant", "name": "Taquer\u00eda La Onda"}}, {"type": "node", "id": 333580106, "lat": 19.4111245, "lon": -99.1995109}, {"type": "node", "id": 335157385, "lat": 19.4244255, "lon": -99.1964178}, {"type": "node", "id": 335157386, "lat": 19.4240936, "lon": -99.1964693}, {"type": "node", "id": 335157387, "lat": 19.4240613, "lon": -99.1962033}, {"type": "node", "id": 335157388, "lat": 19.4239803, "lon": -99.1962204}, {"type": "node", "id": 335157389, "lat": 19.4239641, "lon": -99.1960831}, {"type": "node", "id": 335157391, "lat": 19.4240532, "lon": -99.1960831}, {"type": "node", "id": 335157392, "lat": 19.4240127, "lon": -99.1958599}, {"type": "node", "id": 343195352, "lat": 19.4173699, "lon": -99.2001246}, {"type": "node", "id": 343195353, "lat": 19.4169598, "lon": -99.199795}, {"type": "node", "id": 343303558, "lat": 19.4199186, "lon": -99.2006599}, {"type": "node", "id": 343303559, "lat": 19.4198358, "lon": -99.2006331}, {"type": "node", "id": 343303560, "lat": 19.4199011, "lon": -99.2005062}, {"type": "node", "id": 343303561, "lat": 19.4199755, "lon": -99.2005493}, {"type": "node", "id": 471092310, "lat": 19.4159735, "lon": -99.1696719, "tags": {"amenity": "restaurant", "name": "Barracuda Diner"}}, {"type": "node", "id": 471093109, "lat": 19.416362, "lon": -99.1706075, "tags": {"amenity": "restaurant", "name": "La Biela"}}, {"type": "node", "id": 473037874, "lat": 19.3958298, "lon": -99.1762066, "tags": {"amenity": "restaurant"}}, {"type": "node", "id": 473110035, "lat": 19.395757, "lon": -99.1719772, "tags": {"amenity": "restaurant", "brand": "Chili's", "brand:wikidata": "Q1072948", "cuisine": "tex-mex", "name": "Chili's", "official_name": "Chili's Grill & Bar"}}, {"type": "node", "id": 473110036, "lat": 19.3953223, "lon": -99.1722289, "tags": {"amenity": "restaurant", "name": "La Strega"}}, {"type": "node", "id": 473112379, "lat": 19.3969135, "lon": -99.1658606, "tags": {"amenity": "restaurant", "name": "Sanborns Aviamex"}}, {"type": "node", "id": 473196178, "lat": 19.3942701, "lon": -99.1784481, "tags": {"addr:housenumber": "85", "addr:street": "Nueva York", "amenity": "restaurant", "cuisine": "japanese", "delivery": "no", "name": "El Samurai", "phone": "55 5523 1469"}}, {"type": "node", "id": 473207925, "lat": 19.4343614, "lon": -99.0887508, "tags": {"amenity": "restaurant", "name": "Wings Puerto Aereo"}}, {"type": "node", "id": 473358264, "lat": 19.3955526, "lon": -99.1811659, "tags": {"amenity": "restaurant", "name": "Sanborn's"}}, {"type": "node", "id": 473513012, "lat": 19.392707, "lon": -99.1718061, "tags": {"addr:housenumber": "14", "addr:street": "Torres Adalid", "amenity": "restaurant", "cuisine": "japanese", "name": "Suntory", "phone": "+52 55 55369432"}}, {"type": "node", "id": 473513019, "lat": 19.3902748, "lon": -99.1721887, "tags": {"amenity": "restaurant", "name": "Japanese"}}, {"type": "node", "id": 473811615, "lat": 19.397131, "lon": -99.1641036, "tags": {"amenity": "restaurant", "brand": "Pizza Hut", "brand:wikidata": "Q191615", "cuisine": "pizza", "name": "Pizza Hut"}}, {"type": "node", "id": 473817575, "lat": 19.3908224, "lon": -99.1731207, "tags": {"addr:city": "Ciudad de M\u00e9xico", "addr:housenumber": "1891", "addr:street": "Avenida Insurgentes Sur", "amenity": "restaurant", "cuisine": "mexican", "description": "restaurante que ofrece servicio de lunes a viernes en un horario de 7:30 a 00:30, s\u00e1bado a domingo 8:00 a 23:00.", "diet:meat": "yes", "name": "La Mansion", "website": "https://lamansion.com.mx/nuestros-platillos/"}}, {"type": "node", "id": 473817596, "lat": 19.3875615, "lon": -99.1742262, "tags": {"addr:city": "Benito Ju\u00e1rez , CDMX", "addr:housenumber": "866", "addr:postcode": "03100", "addr:street": "Avenida Insurgentes Sur", "amenity": "restaurant", "branch": "Insurgentes Ameyalco", "brand": "Toks", "brand:wikidata": "Q48835586", "cuisine": "mexican", "name": "Toks", "website": "https://www.toks.com.mx/", "wheelchair": "limited", "wheelchair:description": "No hay cajones de estacionamiento , rampas para acceso , ba\u00f1os muy accesibles para sillas de ruedas."}}, {"type": "node", "id": 473817612, "lat": 19.3869085, "lon": -99.1742951, "tags": {"amenity": "restaurant", "name": "Sanborns"}}, {"type": "node", "id": 473817623, "lat": 19.3930539, "lon": -99.174937, "tags": {"amenity": "restaurant", "name": "Pajares"}}, {"type": "node", "id": 473817655, "lat": 19.3866468, "lon": -99.1750622, "tags": {"addr:city": "Ciudad de M\u00e9xico", "addr:housenumber": "905", "addr:postcode": "03810", "addr:street": "Avenida Insurgentes Sur", "amenity": "restaurant", "name": "Bah\u00eda Capital"}}, {"type": "node", "id": 473817670, "lat": 19.394006, "lon": -99.1754848, "tags": {"amenity": "restaurant", "name": "Le Gourmet"}}, {"type": "node", "id": 473817677, "lat": 19.3929697, "lon": -99.1757938, "tags": {"amenity": "restaurant", "name": "Rafaello's"}}, {"type": "node", "id": 473826888, "lat": 19.3888172, "lon": -99.1780817, "tags": {"amenity": "restaurant", "name": "Giancarlo's"}}, {"type": "node", "id": 473826892, "lat": 19.3887015, "lon": -99.1777088, "tags": {"amenity": "restaurant", "name": "China Inn"}}, {"type": "node", "id": 473826903, "lat": 19.3843056, "lon": -99.175222, "tags": {"addr:city": "Distrito Federal", "addr:street": "San Francisco", "amenity": "restaurant", "brand": "Vips", "brand:wikidata": "Q48783378", "cuisine": "mexican", "name": "Vips", "opening_hours": "07:00-22:00", "smoking": "outside"}}, {"type": "node", "id": 473857142, "lat": 19.4349648, "lon": -99.0884382, "tags": {"amenity": "restaurant"}}, {"type": "node", "id": 484177119, "lat": 19.4323068, "lon": -99.1643336, "tags": {"amenity": "restaurant"}}, {"type": "node", "id": 484179884, "lat": 19.4287021, "lon": -99.1620496, "tags": {"amenity": "restaurant"}}, {"type": "node", "id": 576882683, "lat": 19.295018, "lon": -99.1819497, "tags": {"amenity": "restaurant", "name": "El Haurache Veloz"}}, {"type": "node", "id": 666209767, "lat": 19.2948914, "lon": -99.1320741, "tags": {"amenity": "restaurant", "name": "Diablito Blue"}}, {"type": "node", "id": 666254397, "lat": 19.2966268, "lon": -99.1541829, "tags": {"addr:housenumber": "65", "addr:postcode": "14050", "addr:street": "Huipulco", "amenity": "restaurant", "brand": "Vips", "brand:wikidata": "Q48783378", "brand:wikipedia": "es:Vips", "name": "Vips"}}, {"type": "node", "id": 667288950, "lat": 19.2937788, "lon": -99.1239236, "tags": {"amenity": "restaurant", "name": "El Port\u00f3n"}}, {"type": "node", "id": 700174201, "lat": 19.4864097, "lon": -99.0941388, "tags": {"amenity": "restaurant", "brand": "Toks", "brand:wikidata": "Q48835586", "brand:wikipedia": "en:Toks", "cuisine": "mexican", "name": "Toks"}}, {"type": "node", "id": 700231559, "lat": 19.4784799, "lon": -99.0952666, "tags": {"amenity": "restaurant", "name": "El Porton"}}, {"type": "node", "id": 729787070, "lat": 19.2891111, "lon": -99.1667435, "tags": {"amenity": "restaurant"}}, {"type": "node", "id": 739035803, "lat": 19.338928, "lon": -99.1932447, "tags": {"addr:housenumber": "46", "addr:postcode": "01090", "addr:street": "Altamirano", "amenity": "restaurant", "name": "Taberna del Leon"}}, {"type": "node", "id": 739036012, "lat": 19.3136655, "lon": -99.1850155, "tags": {"amenity": "restaurant", "name": "Azul y Oro"}}, {"type": "node", "id": 773429269, "lat": 19.3440889, "lon": -99.1565835}, {"type": "node", "id": 773429272, "lat": 19.344245, "lon": -99.1567481}, {"type": "node", "id": 773429278, "lat": 19.3442054, "lon": -99.1564206}, {"type": "node", "id": 773429282, "lat": 19.3443938, "lon": -99.1565914}, {"type": "node", "id": 773429284, "lat": 19.3441156, "lon": -99.1565005}, {"type": "node", "id": 773429294, "lat": 19.3441178, "lon": -99.1565294}, {"type": "node", "id": 773429300, "lat": 19.3442301, "lon": -99.1564207}, {"type": "node", "id": 773429305, "lat": 19.3441371, "lon": -99.156473, "tags": {"entrance": "main"}}, {"type": "node", "id": 823757629, "lat": 19.3475275, "lon": -99.2318223, "tags": {"amenity": "restaurant", "name": "Sanborn's Las \u00c1guilas", "operator": "Sanborn's"}}, {"type": "node", "id": 823760525, "lat": 19.3705607, "lon": -99.1797066, "tags": {"amenity": "restaurant", "name": "Gino's Insurgentes"}}, {"type": "node", "id": 830603069, "lat": 19.3565075, "lon": -99.1549885, "tags": {"amenity": "restaurant", "cuisine": "coffee_shop", "name": "Drupa Caf\u00e9"}}, {"type": "node", "id": 837150046, "lat": 19.3453887, "lon": -99.1683757, "tags": {"addr:housenumber": "536", "addr:postcode": "04000", "addr:street": "Avenida Miguel \u00c1ngel de Quevedo", "amenity": "restaurant", "cuisine": "mexican", "name": "Potzolcalli", "phone": "+52 55 56585007;+52 55 55541235"}}, {"type": "node", "id": 837157069, "lat": 19.3753419, "lon": -99.1736325, "tags": {"addr:housenumber": "347", "addr:street": "Calle Moras", "amenity": "restaurant", "cuisine": "mexican", "name": "Fonda 99.99", "opening_hours": "Tu-Sa 13:00-21:00;Su 13:00-18:00"}}, {"type": "node", "id": 837157171, "lat": 19.3751815, "lon": -99.1788909, "tags": {"addr:housenumber": "1261", "addr:street": "Avenida Insurgentes Sur", "amenity": "restaurant", "name": "Konditori", "opening_hours": "Mo-Su 07:00-23:30", "phone": "+52 55 85000852"}}, {"type": "node", "id": 837167440, "lat": 19.3661798, "lon": -99.1791096, "tags": {"addr:housenumber": "59", "addr:postcode": "03940", "addr:street": "Av R\u00edo Mixcoac", "amenity": "restaurant", "cuisine": "mexican", "name": "El Fogoncito", "phone": "+52 55 56617603"}}, {"type": "node", "id": 841724118, "lat": 19.4216742, "lon": -99.1633741, "tags": {"addr:city": "Ciudad de M\u00e9xico", "addr:country": "MX", "addr:housenumber": "180", "addr:postcode": "06700", "addr:street": "Avenida Insurgentes Sur", "amenity": "restaurant", "brand": "Vips", "brand:wikidata": "Q48783378", "brand:wikipedia": "es:Vips", "cuisine": "mexican", "name": "Vips", "opening_hours": "Mo-Su 07:00-22:00"}}, {"type": "node", "id": 842889545, "lat": 19.3915426, "lon": -99.1746948, "tags": {"addr:housenumber": "38", "addr:postcode": "03810", "addr:street": "Calle Arkansas", "amenity": "restaurant", "cuisine": "japanese", "name": "Nagaoka", "opening_hours": "Tu-Sa 13:00-22:30; Su 13:00-19:30", "phone": "+52 55 55439530"}}, {"type": "node", "id": 844359663, "lat": 19.4078532, "lon": -99.1337111, "tags": {"addr:housenumber": "647", "addr:postcode": "06850", "addr:street": "Jos\u00e9 Antonio Torres", "amenity": "restaurant", "brand": "Vips", "brand:wikidata": "Q48783378", "brand:wikipedia": "es:Vips", "cuisine": "mexican", "name": "Vips", "opening_hours": "Su-Th 07:00-24:00; Fr-Sa 07:00-13:00", "phone": "+52 55 57403198"}}, {"type": "node", "id": 845526630, "lat": 19.3451242, "lon": -99.1695675, "tags": {"addr:housenumber": "505", "addr:postcode": "04310", "addr:street": "Avenida Miguel \u00c1ngel de Quevedo", "amenity": "restaurant", "name": "Saint Crepier"}}, {"type": "node", "id": 845526633, "lat": 19.3451559, "lon": -99.1698111, "tags": {"addr:housenumber": "499", "addr:postcode": "04310", "addr:street": "Avenida Miguel \u00c1ngel de Quevedo", "amenity": "restaurant", "cuisine": "sushi", "name": "Haru Maki", "opening_hours": "Mo-Sa 13:30-23:00; Su 13:00-20:00", "phone": "+52 55 55546454"}}, {"type": "node", "id": 845526635, "lat": 19.3451395, "lon": -99.1696538, "tags": {"addr:housenumber": "503", "addr:postcode": "04310", "addr:street": "Avenida Miguel \u00c1ngel de Quevedo", "amenity": "restaurant", "cuisine": "pizza", "name": "Happy's Pizza", "phone": "+52 55 55545122"}}, {"type": "node", "id": 845526637, "lat": 19.3451876, "lon": -99.170093, "tags": {"addr:street": "Avenida Miguel \u00c1ngel de Quevedo", "amenity": "restaurant", "cuisine": "mexican", "name": "Tamales Flor de Lis"}}, {"type": "node", "id": 846537212, "lat": 19.3459911, "lon": -99.1770334, "tags": {"amenity": "restaurant", "cuisine": "sushi", "name": "Sushi Itto"}}, {"type": "node", "id": 850383273, "lat": 19.4195529, "lon": -99.1609089, "tags": {"addr:city": "Ciudad de M\u00e9xico", "addr:housenumber": "194", "addr:postcode": "06700", "addr:street": "Colima", "amenity": "restaurant", "cuisine": "spanish", "description": "Centro Gallego de M\u00e9xico", "name": "O'Xacobeo", "opening_hours": "Mo-Su 13:00-20:00", "phone": "+52 55 5511 8356", "website": "https://www.facebook.com/oxacobeo.restaurante/"}}, {"type": "node", "id": 863095899, "lat": 19.3449471, "lon": -99.1578549, "tags": {"addr:housenumber": "292", "addr:street": "Avenida Pac\u00edfico", "amenity": "restaurant", "cuisine": "italian", "name": "La Posta", "opening_hours": "Mo-We 13:30-23:00;Th-Sa 13:30-24:00;Su 13:30-22:00"}}, {"type": "node", "id": 869884194, "lat": 19.4297673, "lon": -99.1600271, "tags": {"addr:city": "Ciudad de M\u00e9xico", "addr:housenumber": "14", "addr:postcode": "06600", "addr:street": "Insurgentes Sur", "amenity": "restaurant", "brand": "Vips", "brand:wikidata": "Q48783378", "cuisine": "mexican", "name": "Vips", "opening_hours": "24/7", "phone": "+52 55 55668506"}}, {"type": "node", "id": 870887924, "lat": 19.3889034, "lon": -99.1767765, "tags": {"amenity": "restaurant", "name": "Fisher's"}}, {"type": "node", "id": 870887944, "lat": 19.3930072, "lon": -99.1732204, "tags": {"amenity": "restaurant", "name": "Caf\u00e9 Palacio"}}, {"type": "node", "id": 870887952, "lat": 19.3911716, "lon": -99.1768701, "tags": {"amenity": "restaurant", "cuisine": "pizza"}}, {"type": "node", "id": 876600163, "lat": 19.3786986, "lon": -99.1480685, "tags": {"addr:city": "Ciudad de M\u00e9xico", "addr:housenumber": "1030", "addr:postcode": "03630", "addr:street": "Eje Central", "amenity": "restaurant", "brand": "Pizza Hut", "brand:wikidata": "Q191615", "cuisine": "pizza", "name": "Pizza Hut", "operator": "Pizza Hut", "phone": "+52 55 52433443;+52 55 52433020"}}, {"type": "node", "id": 876600197, "lat": 19.3757354, "lon": -99.140967, "tags": {"addr:city": "Ciudad de M\u00e9xico", "addr:housenumber": "1149", "addr:postcode": "03660", "addr:street": "Calzada de Tlalpan", "amenity": "restaurant", "name": "Wings", "operator": "Wings", "phone": "+52 55 52430328"}}, {"type": "node", "id": 892478903, "lat": 19.4084563, "lon": -99.1616211, "tags": {"amenity": "restaurant", "name": "Benedetis Pizza"}}, {"type": "node", "id": 901008779, "lat": 19.351273, "lon": -99.186465, "tags": {"amenity": "restaurant", "brand": "Vips", "brand:wikidata": "Q48783378", "cuisine": "mexican", "name": "Vips", "website": "https://vips.com.mx/"}}, {"type": "node", "id": 901010785, "lat": 19.3499518, "lon": -99.1864371, "tags": {"amenity": "restaurant", "brand": "Hooters", "brand:wikidata": "Q1025921", "cuisine": "burger", "name": "Hooters"}}, {"type": "node", "id": 901079877, "lat": 19.3885973, "lon": -99.1742263, "tags": {"amenity": "restaurant", "name": "Sushi Roll"}}, {"type": "node", "id": 906071250, "lat": 19.4094062, "lon": -99.1755542, "tags": {"addr:city": "Ciudad de M\u00e9xico", "addr:housenumber": "136", "addr:street": "Avenida Tamaulipas", "amenity": "restaurant", "name": "Frankfurt", "phone": "55-5256-0767"}}, {"type": "node", "id": 906320976, "lat": 19.4106504, "lon": -99.1678157, "tags": {"addr:housenumber": "241", "addr:street": "Amsterdam", "amenity": "restaurant", "name": "Specia", "phone": "55-5564-1367"}}, {"type": "node", "id": 928644550, "lat": 19.2891358, "lon": -99.166856, "tags": {"amenity": "restaurant", "name": "1900"}}, {"type": "node", "id": 930552669, "lat": 19.411345, "lon": -99.155151, "tags": {"amenity": "restaurant", "name": "Italiannis"}}, {"type": "node", "id": 949291144, "lat": 19.33004, "lon": -99.211556, "tags": {"amenity": "restaurant", "name": "Vips"}}, {"type": "node", "id": 949314591, "lat": 19.3944515, "lon": -99.1729552, "tags": {"addr:housenumber": "38", "addr:postcode": "03810", "addr:street": "Montecitos", "amenity": "restaurant", "brand": "IHOP", "brand:wikidata": "Q1185675", "cuisine": "breakfast;pancake", "name": "IHOP", "opening_hours": "Su-Th 07:00-23:00;Fr-Sa 07:00-00:00", "operator": "IHOP"}}, {"type": "node", "id": 949325067, "lat": 19.412327, "lon": -99.15485, "tags": {"amenity": "restaurant", "name": "Potzolcalli"}}, {"type": "node", "id": 976546537, "lat": 19.3772448, "lon": -99.1617218}, {"type": "node", "id": 994311271, "lat": 19.381883, "lon": -99.1796333, "tags": {"amenity": "restaurant", "cuisine": "mexican", "internet_access": "wlan", "name": "Taquer\u00eda El Huequito", "opening_hours": "Mo-Su 09:00-04:00", "phone": "5598-9027", "smoking": "separated", "stars": "5", "website": "http://www.elhuequito.com.mx/", "wheelchair": "yes"}}, {"type": "node", "id": 994311573, "lat": 19.3797601, "lon": -99.1867638, "tags": {"addr:city": "Benito Ju\u00e1rez , CDMX.", "addr:housenumber": "780", "addr:postcode": "03730", "addr:street": "Avenida Revoluci\u00f3n", "amenity": "restaurant", "branch": "Revoluci\u00f3n", "brand": "Toks", "brand:wikidata": "Q48835586", "cuisine": "mexican", "name": "Toks", "wheelchair": "yes", "wheelchair:description": "Restaurante totalmente accesible , rampas , ba\u00f1os con espacio para silla de ruedas."}}, {"type": "node", "id": 1001727844, "lat": 19.3727988, "lon": -99.175751}, {"type": "node", "id": 1001727845, "lat": 19.3727668, "lon": -99.1759674}, {"type": "node", "id": 1001727847, "lat": 19.3726767, "lon": -99.1757862}, {"type": "node", "id": 1001727848, "lat": 19.372848, "lon": -99.175928}, {"type": "node", "id": 1001727849, "lat": 19.3726553, "lon": -99.1758836}, {"type": "node", "id": 1001727850, "lat": 19.3728385, "lon": -99.1757747}, {"type": "node", "id": 1001727852, "lat": 19.3727318, "lon": -99.175963}, {"type": "node", "id": 1001727855, "lat": 19.3727075, "lon": -99.1757599}, {"type": "node", "id": 1001727856, "lat": 19.3726524, "lon": -99.1758451}, {"type": "node", "id": 1001727858, "lat": 19.3728696, "lon": -99.1758247}, {"type": "node", "id": 1001727859, "lat": 19.3726996, "lon": -99.1759476}, {"type": "node", "id": 1001727860, "lat": 19.3726578, "lon": -99.1758204}, {"type": "node", "id": 1001727861, "lat": 19.3727502, "lon": -99.1757458}, {"type": "node", "id": 1001727862, "lat": 19.3728173, "lon": -99.1759533}, {"type": "node", "id": 1001727864, "lat": 19.3728713, "lon": -99.1758816}, {"type": "node", "id": 1001727866, "lat": 19.3726731, "lon": -99.1759217}, {"type": "node", "id": 1005026474, "lat": 19.3308488, "lon": -99.2099182}, {"type": "node", "id": 1005026486, "lat": 19.3307853, "lon": -99.2100176}, {"type": "node", "id": 1005026514, "lat": 19.3309926, "lon": -99.2100367}, {"type": "node", "id": 1005026534, "lat": 19.330835, "lon": -99.2101037}, {"type": "node", "id": 1005026554, "lat": 19.3309379, "lon": -99.2099212}, {"type": "node", "id": 1005026614, "lat": 19.3309436, "lon": -99.2101047}, {"type": "node", "id": 1041569607, "lat": 19.3416329, "lon": -99.2486666, "tags": {"amenity": "restaurant", "name": "Vips Axomiatla"}}, {"type": "node", "id": 1093457247, "lat": 19.5064987, "lon": -99.1460935, "tags": {"amenity": "restaurant", "brand": "Vips", "brand:wikidata": "Q48783378", "brand:wikipedia": "es:Vips", "cuisine": "mexican", "name": "Vips"}}, {"type": "node", "id": 1107323596, "lat": 19.3671995, "lon": -99.279492, "tags": {"amenity": "restaurant", "name": "Restaurant Villa Dante"}}, {"type": "node", "id": 1112512349, "lat": 19.3571738, "lon": -99.1989476, "tags": {"amenity": "restaurant", "name": "Toks", "operator": "Toks"}}, {"type": "node", "id": 1112512412, "lat": 19.359697, "lon": -99.1978402, "tags": {"amenity": "restaurant", "cuisine": "mexican", "name": "El Tizoncito", "operator": "El Tizoncito"}}, {"type": "node", "id": 1112548700, "lat": 19.3633156, "lon": -99.1894275, "tags": {"amenity": "restaurant", "brand": "Toks", "brand:wikidata": "Q48835586", "cuisine": "mexican", "name": "Toks", "operator": "Toks"}}, {"type": "node", "id": 1119192051, "lat": 19.3441722, "lon": -99.1564574}, {"type": "node", "id": 1127523692, "lat": 19.3641845, "lon": -99.1608448, "tags": {"addr:city": "Benito Ju\u00e1rez CDMX", "addr:housenumber": "520", "addr:postcode": "03310", "addr:street": "Y\u00e1catas,Sta.Cruz Atoyac", "amenity": "restaurant", "branch": "Popocat\u00e9petl", "brand": "Toks", "brand:wikidata": "Q48835586", "cuisine": "mexican", "internet_access": "no", "name": "Toks", "operator": "Toks", "phone": "+52 55 56887653; +52 55 56887638", "smoking": "isolated", "website": "https://www.toks.com.mx/", "wheelchair": "limited", "wheelchair:description": "Estacionamiento accesible , no cuenta con rampas para acceso , acceso por el estacionamiento , ba\u00f1os muy espaciosos para silla de ruedas."}}, {"type": "node", "id": 1131791211, "lat": 19.3921348, "lon": -99.1708091, "tags": {"addr:housenumber": "201", "addr:street": "Torres Adalid", "amenity": "restaurant", "cuisine": "italian", "name": "La Tavola", "phone": "+52 55 55437360"}}, {"type": "node", "id": 1131791222, "lat": 19.3696654, "lon": -99.1806011, "tags": {"addr:housenumber": "1431", "addr:postcode": "03900", "addr:street": "Avenida Insurgentes Sur", "amenity": "restaurant", "cuisine": "mexican", "name": "Casa de Pepe", "phone": "+52 55 55638564;+52 55 55984518", "website": "http://www.potzollcalli.com.mx/"}}, {"type": "node", "id": 1131791251, "lat": 19.3893152, "lon": -99.1736888, "tags": {"amenity": "restaurant", "name": "Sushi Roll"}}, {"type": "node", "id": 1131791270, "lat": 19.3887302, "lon": -99.1738819, "tags": {"addr:housenumber": "836", "addr:postcode": "03100", "addr:street": "Insurgentes Sur", "amenity": "restaurant", "cuisine": "burger", "name": "Ruben's Hamburgers Insurgentes", "operator": "Ruben's Hamburgers", "phone": "+52 55 56825341; +52 55 56825343"}}, {"type": "node", "id": 1137180921, "lat": 19.4245357, "lon": -99.1963991}, {"type": "node", "id": 1152532795, "lat": 19.3779779, "lon": -99.1615348, "tags": {"addr:housenumber": "1238", "addr:postcode": "03100", "addr:street": "Jos\u00e9 Enrique Pestalozzi", "amenity": "restaurant", "cuisine": "japanese", "name": "Deigo", "opening_hours": "Tu-Sa 13:00-22:00;Su 13:00-19:00", "phone": "+52 55 56056317", "smoking": "isolated"}}, {"type": "node", "id": 1152532797, "lat": 19.3796051, "lon": -99.1619776, "tags": {"addr:housenumber": "1114", "addr:postcode": "03100", "addr:street": "Mat\u00edas Romero", "amenity": "restaurant", "name": "El Rinc\u00f3n del Parque", "opening_hours": "Mo-Sa 08:00-22:00; Su 8:30-20:00", "phone": "+52 55 56056831"}}, {"type": "node", "id": 1156051098, "lat": 19.3448754, "lon": -99.1638672, "tags": {"addr:housenumber": "660", "addr:street": "Miguel \u00c1ngel de Quevedo", "amenity": "restaurant", "cuisine": "pizza", "name": "Pizzas Plaza Coyoac\u00e1n", "operator": "Pizzas Plaza", "phone": "+52 55 55547057"}}, {"type": "node", "id": 1156051137, "lat": 19.3507565, "lon": -99.1625109, "tags": {"addr:city": "Ciudad de M\u00e9xico", "addr:postcode": "04100", "addr:street": "Calle Aguayo", "amenity": "restaurant", "cuisine": "tacos", "name": "El Tizoncito", "operator": "El Tizoncito", "phone": "+52 55 55547712"}}, {"type": "node", "id": 1156904395, "lat": 19.4282253, "lon": -99.2171471, "tags": {"addr:city": "Ciudad de M\u00e9xico", "addr:country": "MX", "addr:housenumber": "820 B", "addr:postcode": "11000", "addr:street": "Avenida Paseo de las Palmas", "amenity": "restaurant", "name": "Giornale"}}, {"type": "node", "id": 1179438788, "lat": 19.3948726, "lon": -99.1724681, "tags": {"addr:housenumber": "675", "addr:postcode": "03810", "addr:street": "Insurgentes Sur", "amenity": "restaurant", "name": "Garabatos Insurgentes", "operator": "Garabatos", "phone": "+52 55 55439448; +52 55 55439457"}}, {"type": "node", "id": 1179485715, "lat": 19.3752141, "lon": -99.1782345, "tags": {"amenity": "restaurant", "cuisine": "steak_house", "internet_access": "wlan", "name": "El Buen Bife", "reservation": "yes", "smoking": "separated", "wheelchair": "limited"}}, {"type": "node", "id": 1179485730, "lat": 19.3891063, "lon": -99.1737469, "tags": {"amenity": "restaurant", "brand": "Hooters", "brand:wikidata": "Q1025921", "cuisine": "burger", "name": "Hooters", "operator": "Hooters"}}, {"type": "node", "id": 1212751472, "lat": 19.4537883, "lon": -99.0854076, "tags": {"amenity": "restaurant", "name": "Area de comidas, Mercado San Juan de Arag\u00f3n sec. 2"}}, {"type": "node", "id": 1297378812, "lat": 19.3393626, "lon": -99.3108627, "tags": {"amenity": "restaurant", "name": "Fresas"}}, {"type": "node", "id": 1297378815, "lat": 19.3338603, "lon": -99.3100762, "tags": {"amenity": "restaurant"}}, {"type": "node", "id": 1297378817, "lat": 19.3121585, "lon": -99.3107736, "tags": {"amenity": "restaurant"}}, {"type": "node", "id": 1297378823, "lat": 19.3117434, "lon": -99.3115192, "tags": {"amenity": "restaurant"}}, {"type": "node", "id": 1403764308, "lat": 19.4703818, "lon": -99.1715378}, {"type": "node", "id": 1403764325, "lat": 19.4703768, "lon": -99.1713233}, {"type": "node", "id": 1403764328, "lat": 19.4700733, "lon": -99.1711731}, {"type": "node", "id": 1403764335, "lat": 19.4699924, "lon": -99.1713876}, {"type": "node", "id": 1406526015, "lat": 19.419868, "lon": -99.0951989, "tags": {"amenity": "restaurant", "brand": "Vips", "brand:wikidata": "Q48783378", "brand:wikipedia": "es:Vips", "cuisine": "mexican", "name": "Vips", "operator": "Walmart", "toilets:wheelchair": "yes", "wheelchair": "yes"}}, {"type": "node", "id": 1407738579, "lat": 19.3579591, "lon": -99.1843196, "tags": {"addr:housenumber": "1777", "addr:street": "Avenida Insurgentes Sur", "amenity": "restaurant", "cuisine": "italian", "name": "Gino's Guadalupe Inn", "operator": "Gino's Ristorante", "phone": "+52 55 56610777", "website": "https://www.ginos.com.mx/"}}, {"type": "node", "id": 1419644907, "lat": 19.3747625, "lon": -99.1625044}, {"type": "node", "id": 1419644908, "lat": 19.3748087, "lon": -99.1627454}, {"type": "node", "id": 1419644910, "lat": 19.374851, "lon": -99.1627362}, {"type": "node", "id": 1419644913, "lat": 19.3750064, "lon": -99.1624519}, {"type": "node", "id": 1419644914, "lat": 19.3750149, "lon": -99.1624981}, {"type": "node", "id": 1419644915, "lat": 19.3750526, "lon": -99.1626928}, {"type": "node", "id": 1420541213, "lat": 19.4032812, "lon": -99.1691022, "tags": {"amenity": "restaurant", "cuisine": "mexican", "name": "El Gallito"}}, {"type": "node", "id": 1420541215, "lat": 19.4051544, "lon": -99.1692072, "tags": {"amenity": "restaurant", "name": "Pane en Via"}}, {"type": "node", "id": 1430612048, "lat": 19.3474414, "lon": -99.163464, "tags": {"addr:housenumber": "106", "addr:postcode": "04000", "addr:street": "Calle Presidente Venustiano Carranza", "amenity": "restaurant", "cuisine": "pizza", "name": "S\u00e9ptimo"}}, {"type": "node", "id": 1435155699, "lat": 19.3449431, "lon": -99.1916174, "tags": {"addr:street": "Plaza de Sn. Jacinto", "amenity": "restaurant", "cuisine": "mexican", "internet_access": "wlan", "name": "Fonda San Angel"}}, {"type": "node", "id": 1435165134, "lat": 19.3448871, "lon": -99.1914153}, {"type": "node", "id": 1435165135, "lat": 19.3449005, "lon": -99.1912737}, {"type": "node", "id": 1435165136, "lat": 19.3450057, "lon": -99.1912849}, {"type": "node", "id": 1435165138, "lat": 19.3450567, "lon": -99.1914334}, {"type": "node", "id": 1435165141, "lat": 19.3450744, "lon": -99.1912476}, {"type": "node", "id": 1435503508, "lat": 19.3492481, "lon": -99.1979058}, {"type": "node", "id": 1435503512, "lat": 19.349295, "lon": -99.1983705}, {"type": "node", "id": 1435503513, "lat": 19.3493011, "lon": -99.198238}, {"type": "node", "id": 1435503514, "lat": 19.3493071, "lon": -99.1984461}, {"type": "node", "id": 1435503517, "lat": 19.3493558, "lon": -99.1980036}, {"type": "node", "id": 1435503519, "lat": 19.3493741, "lon": -99.1981104}, {"type": "node", "id": 1435503520, "lat": 19.3493785, "lon": -99.1982257}, {"type": "node", "id": 1435503522, "lat": 19.349399, "lon": -99.198354}, {"type": "node", "id": 1435503526, "lat": 19.3494449, "lon": -99.1982092}, {"type": "node", "id": 1435503528, "lat": 19.3494675, "lon": -99.1983507}, {"type": "node", "id": 1435503530, "lat": 19.3494712, "lon": -99.1983501}, {"type": "node", "id": 1435503531, "lat": 19.3494758, "lon": -99.1983948}, {"type": "node", "id": 1435503532, "lat": 19.3494773, "lon": -99.1983883}, {"type": "node", "id": 1435503533, "lat": 19.3494783, "lon": -99.1983944}, {"type": "node", "id": 1435503534, "lat": 19.3494796, "lon": -99.1984186}, {"type": "node", "id": 1435503544, "lat": 19.3495702, "lon": -99.1979668}, {"type": "node", "id": 1435503546, "lat": 19.3495886, "lon": -99.1980736}, {"type": "node", "id": 1435503583, "lat": 19.3496909, "lon": -99.1978352}, {"type": "node", "id": 1435503586, "lat": 19.3497429, "lon": -99.1981617}, {"type": "node", "id": 1435559829, "lat": 19.350685, "lon": -99.1871214}, {"type": "node", "id": 1435559830, "lat": 19.3506891, "lon": -99.1871856}, {"type": "node", "id": 1435559833, "lat": 19.3507776, "lon": -99.1871001}, {"type": "node", "id": 1435559834, "lat": 19.3507785, "lon": -99.1871149}, {"type": "node", "id": 1435559835, "lat": 19.350782, "lon": -99.1871791}, {"type": "node", "id": 1435559837, "lat": 19.3507837, "lon": -99.187211}, {"type": "node", "id": 1435559838, "lat": 19.3507956, "lon": -99.1872102}, {"type": "node", "id": 1435559839, "lat": 19.3508025, "lon": -99.1873079}, {"type": "node", "id": 1435559843, "lat": 19.3509008, "lon": -99.1872038}, {"type": "node", "id": 1435559845, "lat": 19.3509076, "lon": -99.1872995}, {"type": "node", "id": 1435559850, "lat": 19.3509806, "lon": -99.1870876}, {"type": "node", "id": 1435559851, "lat": 19.3509867, "lon": -99.1871985}, {"type": "node", "id": 1436114065, "lat": 19.3464677, "lon": -99.1811037}, {"type": "node", "id": 1436114067, "lat": 19.3465024, "lon": -99.1813209}, {"type": "node", "id": 1436114087, "lat": 19.3467921, "lon": -99.1810455}, {"type": "node", "id": 1436114090, "lat": 19.3468268, "lon": -99.1812627}, {"type": "node", "id": 1439029543, "lat": 19.3846404, "lon": -99.186225}, {"type": "node", "id": 1439029545, "lat": 19.3846462, "lon": -99.1861551}, {"type": "node", "id": 1439029549, "lat": 19.384665, "lon": -99.1862192}, {"type": "node", "id": 1439029550, "lat": 19.3846692, "lon": -99.1863361}, {"type": "node", "id": 1439029552, "lat": 19.384678, "lon": -99.1863632}, {"type": "node", "id": 1439029557, "lat": 19.3846962, "lon": -99.1863873}, {"type": "node", "id": 1439029560, "lat": 19.384725, "lon": -99.1864031}, {"type": "node", "id": 1439029561, "lat": 19.3847479, "lon": -99.1864055}, {"type": "node", "id": 1439029564, "lat": 19.3847902, "lon": -99.1863967}, {"type": "node", "id": 1439029567, "lat": 19.384822, "lon": -99.1863831}, {"type": "node", "id": 1439029571, "lat": 19.3848555, "lon": -99.1863579}, {"type": "node", "id": 1439029574, "lat": 19.3848666, "lon": -99.1860804}, {"type": "node", "id": 1439029575, "lat": 19.3848766, "lon": -99.1859964}, {"type": "node", "id": 1439029576, "lat": 19.3848807, "lon": -99.1863338}, {"type": "node", "id": 1439029577, "lat": 19.3849101, "lon": -99.1862938}, {"type": "node", "id": 1439029579, "lat": 19.3849272, "lon": -99.1862615}, {"type": "node", "id": 1439029582, "lat": 19.3849419, "lon": -99.186225}, {"type": "node", "id": 1439029583, "lat": 19.3849513, "lon": -99.1861692}, {"type": "node", "id": 1439029584, "lat": 19.384953, "lon": -99.1861316}, {"type": "node", "id": 1439029585, "lat": 19.3849589, "lon": -99.1859952}, {"type": "node", "id": 1473211555, "lat": 19.3352466, "lon": -99.1974822}, {"type": "node", "id": 1473211557, "lat": 19.3351012, "lon": -99.1975024}, {"type": "node", "id": 1473211559, "lat": 19.3350982, "lon": -99.1974102}, {"type": "node", "id": 1473211562, "lat": 19.3351754, "lon": -99.197392}, {"type": "node", "id": 1473211565, "lat": 19.3352326, "lon": -99.1972829}, {"type": "node", "id": 1473211580, "lat": 19.3351926, "lon": -99.1971798}, {"type": "node", "id": 1473211582, "lat": 19.3353041, "lon": -99.1970889}, {"type": "node", "id": 1473211585, "lat": 19.3356016, "lon": -99.1971101}, {"type": "node", "id": 1473211588, "lat": 19.335573, "lon": -99.1973496}, {"type": "node", "id": 1473211590, "lat": 19.3352419, "lon": -99.1974036}, {"type": "node", "id": 1479547061, "lat": 19.370767, "lon": -99.1856271, "tags": {"amenity": "restaurant", "cuisine": "mexican", "name": "El Charco de las Ranas", "operator": "El Charco de las Ranas", "website": "http://www.elcharcodelasranas.com/"}}, {"type": "node", "id": 1482031187, "lat": 19.3363609, "lon": -99.1835747, "tags": {"amenity": "restaurant", "cuisine": "mexican", "internet_access": "no", "name": "Caf\u00e9 Papalotl", "opening_hours": "Mo-Fr 8:00-19:00; Sa 9:00-17:00", "smoking": "no"}}, {"type": "node", "id": 1482031189, "lat": 19.3370578, "lon": -99.1834288, "tags": {"amenity": "restaurant", "capacity": "12", "cuisine": "italian", "name": "Trattoria Urbana"}}, {"type": "node", "id": 1482031211, "lat": 19.3369814, "lon": -99.1831902, "tags": {"addr:street": "Avenida Copilco", "amenity": "restaurant", "cuisine": "argentinian", "name": "Allende"}}, {"type": "node", "id": 1482098742, "lat": 19.3504246, "lon": -99.1617503, "tags": {"amenity": "restaurant", "cuisine": "mexican", "name": "El Morral"}}, {"type": "node", "id": 1482098748, "lat": 19.3495493, "lon": -99.16092, "tags": {"amenity": "restaurant", "cuisine": "chinese", "name": "Kam Ling"}}, {"type": "node", "id": 1494079863, "lat": 19.3566113, "lon": -99.1684555, "tags": {"addr:housenumber": "129", "addr:street": "Calle Madrid", "amenity": "restaurant", "cuisine": "arab", "name": "El Sheik", "phone": "+52 55 56593311"}}, {"type": "node", "id": 1494079875, "lat": 19.3562913, "lon": -99.1685637, "tags": {"addr:housenumber": "5", "addr:street": "Avenida M\u00e9xico", "amenity": "restaurant", "cuisine": "sushi", "name": "Sushi-itto Coyoac\u00e1n", "opening_hours": "Mo-Th 13:00-23:00;Fr-Sa 13:00-00:00;Su 13:00-22:00", "operator": "Sushi-itto", "phone": "+52 55 55545735; +52 55 55545739", "website": "https://www.sushi-itto.com.mx/"}}, {"type": "node", "id": 1503133808, "lat": 19.4250526, "lon": -99.1651995, "tags": {"amenity": "restaurant", "name": "Sanborn's"}}, {"type": "node", "id": 1507941861, "lat": 19.3888254, "lon": -99.0408655, "tags": {"amenity": "restaurant", "branch": "Zaragoza", "brand": "Toks", "brand:wikidata": "Q48835586", "cuisine": "mexican", "name": "Toks"}}, {"type": "node", "id": 1589092794, "lat": 19.292306, "lon": -99.1202092, "tags": {"amenity": "restaurant"}}, {"type": "node", "id": 1589093309, "lat": 19.3364155, "lon": -99.1368081, "tags": {"amenity": "restaurant", "name": "Julius Pizza / Telcoda NG"}}, {"type": "node", "id": 1594868463, "lat": 19.3736926, "lon": -99.1606679, "tags": {"amenity": "restaurant", "name": "Gelee"}}, {"type": "node", "id": 1596037130, "lat": 19.3997047, "lon": -99.1248161, "tags": {"addr:housename": "Ciudad de Mexico", "addr:housenumber": "Iztacalco", "addr:postcode": "08210", "addr:street": "Plan de Ayala 327", "alt_name": "La troje", "amenity": "restaurant", "cuisine": "spanish", "int_name": "La troje", "name": "Pozoleria \"La Troje\"", "old_name": "La troje"}}, {"type": "node", "id": 1661587687, "lat": 19.4169971, "lon": -99.1999129}, {"type": "node", "id": 1661587689, "lat": 19.4170369, "lon": -99.1998395}, {"type": "node", "id": 1661587702, "lat": 19.4172099, "lon": -99.2000692}, {"type": "node", "id": 1661587703, "lat": 19.4172394, "lon": -99.2000012}, {"type": "node", "id": 1661587981, "lat": 19.4198251, "lon": -99.2006689}, {"type": "node", "id": 1661587982, "lat": 19.4198418, "lon": -99.2006365}, {"type": "node", "id": 1661587984, "lat": 19.4198593, "lon": -99.2006887}, {"type": "node", "id": 1661587985, "lat": 19.4198843, "lon": -99.2006401}, {"type": "node", "id": 1661669673, "lat": 19.411023, "lon": -99.199671}, {"type": "node", "id": 1661669702, "lat": 19.4110833, "lon": -99.1995379}, {"type": "node", "id": 1661669712, "lat": 19.4110987, "lon": -99.1995509}, {"type": "node", "id": 1661669733, "lat": 19.4111517, "lon": -99.19956}, {"type": "node", "id": 1661669737, "lat": 19.4111644, "lon": -99.1995388}, {"type": "node", "id": 1661669738, "lat": 19.4111644, "lon": -99.1995701}, {"type": "node", "id": 1661669739, "lat": 19.4111716, "lon": -99.1995629}, {"type": "node", "id": 1661669743, "lat": 19.4112192, "lon": -99.1995513}, {"type": "node", "id": 1661669765, "lat": 19.4113647, "lon": -99.1996576}, {"type": "node", "id": 1665099265, "lat": 19.4439672, "lon": -99.1537273}, {"type": "node", "id": 1665099266, "lat": 19.4440495, "lon": -99.1539405}, {"type": "node", "id": 1665099278, "lat": 19.4443074, "lon": -99.1535797}, {"type": "node", "id": 1665099280, "lat": 19.4443897, "lon": -99.1537929}, {"type": "node", "id": 1677095917, "lat": 19.4720994, "lon": -99.1215725, "tags": {"amenity": "restaurant", "brand": "Vips", "brand:wikidata": "Q48783378", "brand:wikipedia": "es:Vips", "cuisine": "mexican", "name": "Vips"}}, {"type": "node", "id": 1677179467, "lat": 19.4719217, "lon": -99.1234322, "tags": {"amenity": "restaurant", "name": "Bisquets Obreg\u00f3n", "survey:date": "2023-01-16"}}, {"type": "node", "id": 1677180269, "lat": 19.472049, "lon": -99.1237432, "tags": {"amenity": "restaurant", "cuisine": "pizza", "name": "Pizzas Tomy", "survey:date": "2022-12-28"}}, {"type": "node", "id": 1677224567, "lat": 19.4326846, "lon": -99.137356, "tags": {"amenity": "restaurant", "cuisine": "mexican", "name": "La Casa del Pavo"}}, {"type": "node", "id": 1677843862, "lat": 19.4733266, "lon": -99.1274527, "tags": {"amenity": "restaurant", "cuisine": "sushi"}}, {"type": "node", "id": 1677845348, "lat": 19.4768972, "lon": -99.1199326, "tags": {"amenity": "restaurant"}}, {"type": "node", "id": 1677850932, "lat": 19.4672321, "lon": -99.1213005, "tags": {"amenity": "restaurant", "name": "Apolo"}}, {"type": "node", "id": 1677853587, "lat": 19.469517, "lon": -99.116152, "tags": {"amenity": "restaurant", "cuisine": "mexican", "name": "El Port\u00f3n"}}, {"type": "node", "id": 1677853593, "lat": 19.4696308, "lon": -99.1165811, "tags": {"amenity": "restaurant", "brand": "Chili's", "brand:wikidata": "Q1072948", "brand:wikipedia": "en:Chili's", "cuisine": "tex-mex", "name": "Chili's", "official_name": "Chili's Grill & Bar"}}, {"type": "node", "id": 1684963266, "lat": 19.4140824, "lon": -99.1625995, "tags": {"addr:housenumber": "84", "addr:postcode": "06700", "addr:street": "Avenida Yucat\u00e1n", "amenity": "restaurant", "cuisine": "mexican", "name": "El Parnita", "source": "survey", "website": "https://www.elparnita.com/"}}, {"type": "node", "id": 1695367990, "lat": 19.3464043, "lon": -99.1893478, "tags": {"addr:housenumber": "57", "addr:street": "De La Paz", "amenity": "restaurant", "cuisine": "french", "email": "contactocluny@yahoo.com.mx", "name": "Cluny", "opening_hours": "Mo-Sa 12:30-00:00; Su 12:30-23:00", "phone": "+52 55 55507350; +52 55 55507359; +52 55 56163582", "website": "https://www.cluny.com.mx/"}}, {"type": "node", "id": 1719561164, "lat": 19.3165294, "lon": -99.1258647, "tags": {"amenity": "restaurant", "name": "El Tizoncito"}}, {"type": "node", "id": 1789515963, "lat": 19.5104479, "lon": -99.1260505}, {"type": "node", "id": 1789515987, "lat": 19.5103862, "lon": -99.126112}, {"type": "node", "id": 1789516002, "lat": 19.5103433, "lon": -99.1259325}, {"type": "node", "id": 1789516005, "lat": 19.5102816, "lon": -99.125994}, {"type": "node", "id": 1796489468, "lat": 19.3594134, "lon": -99.2701885, "tags": {"amenity": "restaurant", "cuisine": "italian", "name": "Piola"}}, {"type": "node", "id": 1796489472, "lat": 19.3596026, "lon": -99.2699042, "tags": {"addr:housename": "Torre Amsterdam", "addr:housenumber": "482", "addr:street": "Santa Fe", "amenity": "restaurant", "cuisine": "steak_house", "name": "Prime House"}}, {"type": "node", "id": 1844635666, "lat": 19.3656261, "lon": -99.1757417, "tags": {"amenity": "restaurant", "name": "tacos el g\u00fcero"}}, {"type": "node", "id": 1854466653, "lat": 19.4329504, "lon": -99.1601573, "tags": {"amenity": "restaurant", "brand": "Vips", "brand:wikidata": "Q48783378", "cuisine": "mexican", "name": "Vips", "source": "Bing"}}, {"type": "node", "id": 1862015274, "lat": 19.4197188, "lon": -99.157678, "tags": {"amenity": "restaurant", "cuisine": "sandwich", "name": "Belmondo"}}, {"type": "node", "id": 1862015282, "lat": 19.4186954, "lon": -99.1564652, "tags": {"amenity": "restaurant", "cuisine": "japanese", "name": "MOG"}}, {"type": "node", "id": 1862506615, "lat": 19.2651633, "lon": -99.1145699, "tags": {"amenity": "restaurant", "name": "Sanborns", "name:es": "Sanborns xochimilco"}}, {"type": "node", "id": 1916637278, "lat": 19.3244038, "lon": -99.1794255}, {"type": "node", "id": 1916637281, "lat": 19.3244291, "lon": -99.179208}, {"type": "node", "id": 1916637284, "lat": 19.3246546, "lon": -99.1794583}, {"type": "node", "id": 1916637285, "lat": 19.3246799, "lon": -99.1792409}, {"type": "node", "id": 1940962633, "lat": 19.3555968, "lon": -99.1625813, "tags": {"addr:housenumber": "161", "addr:postcode": "04100", "addr:street": "Calle Ignacio Allende", "amenity": "restaurant", "cuisine": "mexican", "name": "Meson De Los Leones"}}, {"type": "node", "id": 1983085612, "lat": 19.3837834, "lon": -99.0767106}, {"type": "node", "id": 1983085627, "lat": 19.3837402, "lon": -99.0771623}, {"type": "node", "id": 1993092690, "lat": 19.425008, "lon": -99.169735, "tags": {"addr:city": "Ciudad de M\u00e9xico", "addr:housenumber": "14", "addr:street": "Calle Praga", "amenity": "restaurant", "name": "Casa Bell"}}, {"type": "node", "id": 2003804927, "lat": 19.4276601, "lon": -99.170927, "tags": {"amenity": "restaurant", "brand": "Hooters", "brand:wikidata": "Q1025921", "brand:wikipedia": "en:Hooters", "cuisine": "burger", "name": "Hooters"}}, {"type": "node", "id": 2096752774, "lat": 19.4100264, "lon": -99.1835532, "tags": {"amenity": "restaurant"}}, {"type": "node", "id": 2111403163, "lat": 19.4101479, "lon": -99.1703758, "tags": {"amenity": "restaurant", "diet:vegetarian": "only", "name": "Falafelito", "name:es": "Falafelito chai bar"}}, {"type": "node", "id": 2111449531, "lat": 19.410544, "lon": -99.1729781, "tags": {"addr:city": "Ciudad de M\u00e9xico", "addr:country": "MX", "addr:housenumber": "115", "addr:street": "Nuevo Le\u00f3n", "amenity": "restaurant", "name": "Cafebrer\u00eda El P\u00e9ndulo", "phone": "+52 55 5286 9493", "shop": "books", "website": "www.pendulo.com"}}, {"type": "node", "id": 2111459559, "lat": 19.4116381, "lon": -99.1759218, "tags": {"amenity": "restaurant", "cuisine": "thai", "name": "Od\u00fcn"}}, {"type": "node", "id": 2111476471, "lat": 19.4125013, "lon": -99.173537, "tags": {"amenity": "restaurant", "cuisine": "coffee_shop", "name": "Marcelino Pan&Vino"}}, {"type": "node", "id": 2111493586, "lat": 19.411688, "lon": -99.1749546, "tags": {"amenity": "restaurant", "name": "La Buena Tierra"}}, {"type": "node", "id": 2111493591, "lat": 19.411688, "lon": -99.1740104, "tags": {"addr:housenumber": "81", "addr:street": "Michoac\u00e1n", "amenity": "restaurant", "name": "Sep's"}}, {"type": "node", "id": 2111502336, "lat": 19.4113384, "lon": -99.1754832, "tags": {"amenity": "restaurant", "name": "Asaderos Grill"}}, {"type": "node", "id": 2111508344, "lat": 19.4101803, "lon": -99.1699683, "tags": {"amenity": "restaurant", "name": "El Ocho"}}, {"type": "node", "id": 2111545773, "lat": 19.4112048, "lon": -99.1722911, "tags": {"amenity": "restaurant", "name": "Karma Bagels"}}, {"type": "node", "id": 2111547551, "lat": 19.4113832, "lon": -99.173242, "tags": {"amenity": "restaurant", "cuisine": "sushi", "name": "Moshi Moshi"}}, {"type": "node", "id": 2111547552, "lat": 19.4116437, "lon": -99.172495, "tags": {"amenity": "restaurant", "name": "Restaurante Bar Nuevo Le\u00f3n"}}, {"type": "node", "id": 2111550143, "lat": 19.4116721, "lon": -99.1757874, "tags": {"amenity": "restaurant", "cuisine": "french", "name": "Creperie de la Paix"}}, {"type": "node", "id": 2111551443, "lat": 19.4118739, "lon": -99.1751409, "tags": {"amenity": "restaurant", "cuisine": "argentinian", "name": "Quebracho"}}, {"type": "node", "id": 2111552604, "lat": 19.41271, "lon": -99.1744087, "tags": {"amenity": "restaurant", "name": "Buffalucas"}}, {"type": "node", "id": 2111552791, "lat": 19.4128517, "lon": -99.1746689, "tags": {"addr:city": "Ciudad de M\u00e9xico", "addr:country": "MX", "addr:housenumber": "42", "addr:postcode": "06140", "addr:street": "Calle Fernando Montes de Oca", "amenity": "restaurant", "cuisine": "mediterranean", "name": "Restaurante Ki-K"}}, {"type": "node", "id": 2111552883, "lat": 19.4130237, "lon": -99.1750337, "tags": {"amenity": "restaurant", "cuisine": "italian", "name": "La Vineria"}}, {"type": "node", "id": 2111634858, "lat": 19.4117553, "lon": -99.1755187, "tags": {"amenity": "restaurant", "name": "Caf\u00e9 la Gloria"}}, {"type": "node", "id": 2111634859, "lat": 19.4116205, "lon": -99.1766259, "tags": {"amenity": "restaurant", "cuisine": "italian", "name": "Grapelli"}}, {"type": "node", "id": 2112441681, "lat": 19.4106204, "lon": -99.167636, "tags": {"amenity": "restaurant"}}, {"type": "node", "id": 2112441692, "lat": 19.4116126, "lon": -99.1769332, "tags": {"amenity": "restaurant", "cuisine": "italian", "name": "Trattoria La Tanna"}}, {"type": "node", "id": 2112441693, "lat": 19.4116898, "lon": -99.1748169, "tags": {"amenity": "restaurant", "cuisine": "seafood", "name": "La Morena"}}, {"type": "node", "id": 2112441694, "lat": 19.4116873, "lon": -99.1747043, "tags": {"amenity": "restaurant", "name": "Garufa"}}, {"type": "node", "id": 2112441700, "lat": 19.4120522, "lon": -99.172645, "tags": {"amenity": "restaurant"}}, {"type": "node", "id": 2112441708, "lat": 19.4114122, "lon": -99.1721783, "tags": {"amenity": "restaurant", "name": "Bonito (Barrag\u00e1n design)"}}, {"type": "node", "id": 2112441723, "lat": 19.4116911, "lon": -99.174491, "tags": {"amenity": "restaurant", "cuisine": "mexican", "name": "Xel Ha"}}, {"type": "node", "id": 2112441747, "lat": 19.41096, "lon": -99.1687625, "tags": {"amenity": "restaurant"}}, {"type": "node", "id": 2112441749, "lat": 19.4105324, "lon": -99.1661353, "tags": {"amenity": "restaurant", "name": "Mi Cantina"}}, {"type": "node", "id": 2112441753, "lat": 19.4109473, "lon": -99.1687263, "tags": {"amenity": "restaurant"}}, {"type": "node", "id": 2112441761, "lat": 19.4108897, "lon": -99.1685556, "tags": {"amenity": "restaurant"}}, {"type": "node", "id": 2112441763, "lat": 19.4108183, "lon": -99.1682877, "tags": {"amenity": "restaurant"}}, {"type": "node", "id": 2112441764, "lat": 19.4107597, "lon": -99.1681624, "tags": {"amenity": "restaurant", "cuisine": "italian", "name": "Restaurante Nonna"}}, {"type": "node", "id": 2112441767, "lat": 19.4116847, "lon": -99.1735958, "tags": {"amenity": "restaurant", "cuisine": "argentinian;italian", "name": "La Barra"}}, {"type": "node", "id": 2112490850, "lat": 19.4170009, "lon": -99.1592668, "tags": {"amenity": "restaurant"}}, {"type": "node", "id": 2112495448, "lat": 19.4179925, "lon": -99.1598247, "tags": {"amenity": "restaurant", "name": "El Diez"}}, {"type": "node", "id": 2112496848, "lat": 19.4180785, "lon": -99.1595404, "tags": {"amenity": "restaurant", "name": "Sobrino's"}}, {"type": "node", "id": 2112498943, "lat": 19.4179445, "lon": -99.1595028, "tags": {"amenity": "restaurant", "cuisine": "ice_cream", "name": "La Bella Italia"}}, {"type": "node", "id": 2125798616, "lat": 19.4620875, "lon": -99.1271536, "tags": {"addr:housenumber": "2", "addr:postcode": "06250", "addr:street": "Calzada de Los Misterios", "amenity": "restaurant", "cuisine": "international", "name": "Sanborns Peralvillo", "source": "Survey"}}, {"type": "node", "id": 2133330362, "lat": 19.4127221, "lon": -99.167036, "tags": {"amenity": "restaurant", "cuisine": "spanish", "name": "100 Montaditos"}}, {"type": "node", "id": 2133330368, "lat": 19.4182064, "lon": -99.1588821, "tags": {"addr:city": "Ciudad de M\u00e9xico", "addr:country": "MX", "addr:housenumber": "86", "addr:street": "\u00c1lvaro Obreg\u00f3n", "amenity": "restaurant", "name": "Cafebrer\u00eda El P\u00e9ndulo", "phone": "+52 55 5574 7034", "shop": "books", "website": "www.pendulo.com"}}, {"type": "node", "id": 2133330370, "lat": 19.417235, "lon": -99.1639407, "tags": {"amenity": "restaurant", "cuisine": "sandwich", "name": "Delirio"}}, {"type": "node", "id": 2133330371, "lat": 19.4243685, "lon": -99.153979, "tags": {"amenity": "restaurant", "brand": "Vips", "brand:wikidata": "Q48783378", "brand:wikipedia": "es:Vips", "cuisine": "mexican", "name": "Vips"}}, {"type": "node", "id": 2133330374, "lat": 19.4057399, "lon": -99.1771748, "tags": {"addr:city": "CDMX", "addr:housenumber": "125", "addr:postcode": "06100", "addr:street": "Avenida Benjam\u00edn Franklin", "amenity": "restaurant", "cuisine": "tacos", "name": "Taco Game"}}, {"type": "node", "id": 2133330375, "lat": 19.4155756, "lon": -99.1695627, "tags": {"amenity": "restaurant", "cuisine": "pizza", "name": "Pizza Amore"}}, {"type": "node", "id": 2133330376, "lat": 19.4250439, "lon": -99.1549017, "tags": {"amenity": "restaurant", "cuisine": "mexican", "name": "Alma de Quetzal"}}, {"type": "node", "id": 2133330381, "lat": 19.4189906, "lon": -99.1600784, "tags": {"amenity": "restaurant", "cuisine": "pizza", "name": "Lucille"}}, {"type": "node", "id": 2133330383, "lat": 19.4246366, "lon": -99.1539737, "tags": {"amenity": "restaurant", "cuisine": "mexican", "name": "El Port\u00f3n"}}, {"type": "node", "id": 2134515152, "lat": 19.4713528, "lon": -99.0988637, "tags": {"amenity": "restaurant", "cuisine": "international", "name": "Especias", "smoking": "isolated"}}, {"type": "node", "id": 2136215676, "lat": 19.3829056, "lon": -99.0783496}, {"type": "node", "id": 2136215683, "lat": 19.3830609, "lon": -99.0786515}, {"type": "node", "id": 2136217934, "lat": 19.3855148, "lon": -99.0832733}, {"type": "node", "id": 2136228007, "lat": 19.3497021, "lon": -99.0715621}, {"type": "node", "id": 2136228008, "lat": 19.3501285, "lon": -99.0725098}, {"type": "node", "id": 2138638732, "lat": 19.4652286, "lon": -99.1806655, "tags": {"amenity": "restaurant", "cuisine": "mexican", "name": "El Mes\u00f3n del Abuelo"}}, {"type": "node", "id": 2138638741, "lat": 19.4652664, "lon": -99.1811997, "tags": {"amenity": "restaurant", "cuisine": "italian", "name": "Marcopolo", "smoking": "no"}}, {"type": "node", "id": 2138638744, "lat": 19.4651019, "lon": -99.1816344, "tags": {"amenity": "restaurant", "cuisine": "mexican", "internet_access": "no", "name": "Salamandra"}}, {"type": "node", "id": 2141582684, "lat": 19.330304, "lon": -99.183499}, {"type": "node", "id": 2141870620, "lat": 19.3486663, "lon": -99.1629788, "tags": {"amenity": "restaurant", "name": "La Fondue"}}, {"type": "node", "id": 2167600164, "lat": 19.3679415, "lon": -99.2598109, "tags": {"amenity": "restaurant", "brand": "Vapiano", "brand:wikidata": "Q506252", "cuisine": "italian", "email": "mexico2@vapiano.mx", "fixme": "exact location", "name": "Vapiano", "website": "www.vapiano.mx"}}, {"type": "node", "id": 2167600165, "lat": 19.441191, "lon": -99.2034783, "tags": {"amenity": "restaurant", "brand": "Vapiano", "brand:wikidata": "Q506252", "brand:wikipedia": "en:Vapiano", "cuisine": "italian", "email": "mexico1@vapiano.mx", "name": "Vapiano", "website": "www.vapiano.mx"}}, {"type": "node", "id": 2167600166, "lat": 19.4465725, "lon": -99.1359004, "tags": {"amenity": "restaurant", "brand": "Vapiano", "brand:wikidata": "Q506252", "brand:wikipedia": "en:Vapiano", "cuisine": "italian", "email": "mexico3@vapiano.mx", "fixme": "exact location", "name": "Vapiano", "website": "https://www.vapiano.mx/"}}, {"type": "node", "id": 2189155555, "lat": 19.323008, "lon": -99.1345445, "tags": {"addr:housename": "Spiritello", "addr:housenumber": "3", "addr:postcode": "04810", "addr:street": "Castor", "amenity": "restaurant", "cuisine": "italian", "int_name": "Spiritello", "name": "Spiritello restaurante Italiano", "website": "http://www.spiritello.com.mx"}}, {"type": "node", "id": 2224599978, "lat": 19.417355, "lon": -99.1596352, "tags": {"amenity": "restaurant", "name": "Frutos Prohibidos"}}, {"type": "node", "id": 2260344119, "lat": 19.4355121, "lon": -99.1924985, "tags": {"addr:city": "Ciudad de M\u00e9xico", "addr:country": "MX", "addr:housenumber": "704", "addr:postcode": "11550", "addr:street": "Homero", "amenity": "restaurant", "cuisine": "mexican", "name": "Villa Mar\u00eda", "source": "local_knowledge", "website": "http://www.villamaria.com.mx"}}, {"type": "node", "id": 2261617247, "lat": 19.2868371, "lon": -99.1397512}, {"type": "node", "id": 2261617270, "lat": 19.2869244, "lon": -99.1399003}, {"type": "node", "id": 2261617278, "lat": 19.28676, "lon": -99.1400482}, {"type": "node", "id": 2261617287, "lat": 19.2866922, "lon": -99.1400084}, {"type": "node", "id": 2261617302, "lat": 19.28666, "lon": -99.1399596}, {"type": "node", "id": 2261617323, "lat": 19.2868985, "lon": -99.139979}, {"type": "node", "id": 2261617336, "lat": 19.2866271, "lon": -99.1399641}, {"type": "node", "id": 2261617340, "lat": 19.28685, "lon": -99.1400246}, {"type": "node", "id": 2261617343, "lat": 19.2865907, "lon": -99.1399521}, {"type": "node", "id": 2261617383, "lat": 19.2865343, "lon": -99.1398164}, {"type": "node", "id": 2261617398, "lat": 19.2867043, "lon": -99.1397371}, {"type": "node", "id": 2262480317, "lat": 19.2976282, "lon": -99.15255}, {"type": "node", "id": 2262480330, "lat": 19.2975649, "lon": -99.1526519}, {"type": "node", "id": 2262480378, "lat": 19.2974915, "lon": -99.1527512}, {"type": "node", "id": 2262480435, "lat": 19.2975978, "lon": -99.1526734}, {"type": "node", "id": 2262480451, "lat": 19.2975472, "lon": -99.1524856}, {"type": "node", "id": 2262480454, "lat": 19.2974054, "lon": -99.1526841}, {"type": "node", "id": 2262804065, "lat": 19.4122802, "lon": -99.1734712, "tags": {"addr:housename": "Carb\u00f3nVino - Keparrilla", "addr:housenumber": "61", "addr:postcode": "06100", "addr:street": "Avenida Tamaulipas", "amenity": "restaurant", "cuisine": "spanish", "name": "Carb\u00f3nVino - Keparrilla", "source": "Foursquare"}}, {"type": "node", "id": 2262804821, "lat": 19.4124825, "lon": -99.1732945, "tags": {"addr:city": "Ciudad de M\u00e9xico", "addr:housename": "Tamaulipas 55", "addr:housenumber": "55", "addr:postcode": "06100", "addr:street": "Avenida Tamaulipas", "amenity": "restaurant", "cuisine": "seafood", "name": "El Merito de Mar", "source": "Foursquare"}}, {"type": "node", "id": 2263360159, "lat": 19.4126855, "lon": -99.1726828, "tags": {"addr:city": "Ciudad de M\u00e9xico", "addr:housename": "50 Friends", "addr:housenumber": "36", "addr:postcode": "06100", "addr:street": "Avenida Tamaulipas", "amenity": "restaurant", "cuisine": "pizza", "designation": "Wine & Pizza House", "name": "50 Friends"}}, {"type": "node", "id": 2263372983, "lat": 19.4118052, "lon": -99.1725219, "tags": {"addr:city": "Ciudad de M\u00e9xico", "addr:country": "MX", "addr:housename": "Pablo el Erizo", "addr:housenumber": "6", "addr:postcode": "06100", "addr:street": "Calle Fernando Montes de Oca", "amenity": "restaurant", "cuisine": "mexican", "designation": "Nayarit Bistro", "name": "Pablo el Erizo", "source": "Foursquare"}}, {"type": "node", "id": 2263378368, "lat": 19.4105151, "lon": -99.1756977, "tags": {"addr:city": "Ciudad de M\u00e9xico", "addr:housename": "Hotel Mar\u00eda Condesa", "addr:housenumber": "32", "addr:postcode": "06100", "addr:street": "Calle Atlixco", "amenity": "restaurant", "cuisine": "international", "designation": "Mexican Bistro", "name": "Terr\u00e9"}}, {"type": "node", "id": 2270027260, "lat": 19.4310659, "lon": -99.1411393, "tags": {"addr:city": "Ciudad de M\u00e9xico", "addr:housenumber": "46", "addr:postcode": "06010", "addr:street": "Eje Central L\u00e1zaro C\u00e1rdenas", "alt_name": "Restaurante Casa Rosal\u00eda", "amenity": "restaurant", "cuisine": "spanish", "name": "Casa Rosal\u00eda", "old_name": "Casa Rosal\u00eda", "website": "http://www.casarosalia.com.mx"}}, {"type": "node", "id": 2278966290, "lat": 19.4144325, "lon": -99.1573995, "tags": {"addr:housenumber": "62", "addr:postcode": "06700", "addr:street": "Calle San Luis Potos\u00ed", "amenity": "restaurant", "cuisine": "mexican", "name": "Torteria Los Gueros"}}, {"type": "node", "id": 2278973473, "lat": 19.4148746, "lon": -99.153171, "tags": {"addr:housenumber": "210", "addr:postcode": "06720", "addr:street": "Doctor Balmis", "amenity": "restaurant", "cuisine": "mexican", "name": "Cantina El Sella"}}, {"type": "node", "id": 2298877518, "lat": 19.4063846, "lon": -99.1566188, "tags": {"amenity": "restaurant", "cuisine": "regional", "name": "Cocina econ\u00f3mica \"El zarape\""}}, {"type": "node", "id": 2298877519, "lat": 19.4063015, "lon": -99.1566242, "tags": {"amenity": "restaurant", "name": "Taquer\u00eda \"El Sismo\""}}, {"type": "node", "id": 2298877520, "lat": 19.4062618, "lon": -99.1566164, "tags": {"amenity": "restaurant", "cuisine": "regional", "name": "\"Los sabores de M\u00e9xico\""}}, {"type": "node", "id": 2298877521, "lat": 19.4072159, "lon": -99.1568864, "tags": {"addr:city": "Distrito Federal", "addr:housename": "Mariscos Margarito", "addr:housenumber": "4", "addr:postcode": "06760", "addr:street": "Toluca", "amenity": "restaurant", "cuisine": "regional", "name": "Mariscos \"Margarito\""}}, {"type": "node", "id": 2378579933, "lat": 19.4943425, "lon": -99.1134987, "tags": {"amenity": "restaurant"}}, {"type": "node", "id": 2378579934, "lat": 19.4945221, "lon": -99.1135201, "tags": {"amenity": "restaurant"}}, {"type": "node", "id": 2385662639, "lat": 19.3523831, "lon": -99.165229, "tags": {"addr:housenumber": "25", "addr:postcode": "04000", "addr:street": "Avenida M\u00e9xico", "amenity": "restaurant", "diet:vegetarian": "only", "name": "La casa del pan", "website": "https://www.casadelpan.com/"}}, {"type": "node", "id": 2386850539, "lat": 19.3493284, "lon": -99.1644196, "tags": {"addr:city": "Ciudad de M\u00e9xico", "addr:housename": "Cafeter\u00eda Moheli", "addr:housenumber": "1", "addr:street": "Avenida Francisco Sosa", "amenity": "restaurant", "cuisine": "international", "name": "Cafeter\u00eda Moheli"}}, {"type": "node", "id": 2386876043, "lat": 19.3595272, "lon": -99.270034, "tags": {"amenity": "restaurant", "cuisine": "sushi", "name": "Moshi Moshi"}}, {"type": "node", "id": 2389871125, "lat": 19.4273279, "lon": -99.1380783, "tags": {"addr:housenumber": "24", "addr:street": "San Jer\u00f3nimo", "amenity": "restaurant", "cuisine": "mexican", "designation": "Cocina mexicana contempor\u00e1nea", "name": "Restaurante Escuela Z\u00e9firo", "old_name": "Celda de la Marquesa de Selva Nevada", "website": "www.zefiro.com.mx"}}, {"type": "node", "id": 2409265679, "lat": 19.4369357, "lon": -99.2070158, "tags": {"amenity": "restaurant", "brand": "Chili's", "brand:wikidata": "Q1072948", "brand:wikipedia": "en:Chili's", "cuisine": "tex-mex", "name": "Chili's", "official_name": "Chili's Grill & Bar"}}, {"type": "node", "id": 2409265680, "lat": 19.4375617, "lon": -99.2068996, "tags": {"amenity": "restaurant", "name": "Sanborns"}}, {"type": "node", "id": 2410438844, "lat": 19.4316433, "lon": -99.188922, "tags": {"amenity": "restaurant", "cuisine": "argentinian", "name": "El Rincon Argentino", "website": "www.rinconargentino.com.mx"}}, {"type": "node", "id": 2410438845, "lat": 19.4333532, "lon": -99.1849684, "tags": {"addr:city": "Ciudad de M\u00e9xico", "addr:country": "MX", "addr:housenumber": "253", "addr:postcode": "11570", "addr:street": "Taine", "amenity": "restaurant", "brand": "Pizza Hut", "brand:wikidata": "Q191615", "cuisine": "pizza", "name": "Pizza Hut"}}, {"type": "node", "id": 2418219454, "lat": 19.4342234, "lon": -99.1352742, "tags": {"addr:city": "Ciudad de M\u00e9xico", "addr:housenumber": "52", "addr:street": "5 de Mayo", "amenity": "restaurant", "name": "El Popular", "opening_hours": "24/7", "source": "Survey", "wifi": "no"}}, {"type": "node", "id": 2418219459, "lat": 19.4347486, "lon": -99.1394688, "tags": {"amenity": "restaurant", "cuisine": "regional", "name": "La Pagoda", "opening_hours": "24/7", "source": "Survey", "wifi": "no"}}, {"type": "node", "id": 2482978379, "lat": 19.3501653, "lon": -99.1460652, "tags": {"amenity": "restaurant", "cuisine": "Rosticer\u00eda", "name": "Pollo Feliz"}}, {"type": "node", "id": 2482978907, "lat": 19.3460194, "lon": -99.1485718, "tags": {"amenity": "restaurant", "cuisine": "mexican", "name": "Aqu\u00ed est\u00e1 Texcoco"}}, {"type": "node", "id": 2555098865, "lat": 19.3451233, "lon": -99.1576874, "tags": {"addr:city": "Mexico", "addr:housenumber": "10", "addr:street": "Calle Asia", "amenity": "restaurant", "cuisine": "argentinian", "name": "El Buen Bife"}}, {"type": "node", "id": 2555098882, "lat": 19.3419661, "lon": -99.18137, "tags": {"amenity": "restaurant", "cuisine": "burger", "name": "El Gnomo"}}, {"type": "node", "id": 2560853227, "lat": 19.3357629, "lon": -99.1773798, "tags": {"amenity": "restaurant", "cuisine": "mexican", "name": "Los 3 poblanos", "website": "http://www.lostrespoblanos.com.mx"}}, {"type": "node", "id": 2563111189, "lat": 19.3496794, "lon": -99.1712102, "tags": {"addr:city": "M\u00e9xico D.F.", "addr:housenumber": "6", "addr:postcode": "04010", "addr:street": "Jard\u00edn Santa Catarina", "amenity": "restaurant", "cuisine": "mexican", "name": "Mes\u00f3n Antigua Santa Catarina", "opening_hours": "9:00-23:00", "phone": "(+52-55)5659-3003", "wheelchair": "limited"}}, {"type": "node", "id": 2563111193, "lat": 19.3495504, "lon": -99.171233, "tags": {"amenity": "restaurant", "cuisine": "mexican", "name": "Las Lupitas", "payment:credit_cards": "yes", "payment:debit_cards": "yes"}}, {"type": "node", "id": 2563111221, "lat": 19.3488506, "lon": -99.1636109, "tags": {"amenity": "restaurant", "cuisine": "italian", "name": "Ave Mar\u00eda"}}, {"type": "node", "id": 2563111223, "lat": 19.3488715, "lon": -99.1636866, "tags": {"addr:city": "Ciudad de M\u00e9xico", "addr:housenumber": "12", "addr:postcode": "04000", "addr:street": "Plaza Jard\u00edn Centenario", "amenity": "restaurant", "cuisine": "mexican", "email": "coyoacan@losdanzantes.com", "name": "Los Danzantes", "opening_hours": "Mo-Fr 13:30-00:00, Sa-Su 09:00-02:00", "phone": "+52 55 5554 1213, +52 55 5554 2896"}}, {"type": "node", "id": 2563111225, "lat": 19.348892, "lon": -99.163758, "tags": {"amenity": "restaurant", "cuisine": "uruguayan", "name": "Entrevero"}}, {"type": "node", "id": 2563111227, "lat": 19.3489773, "lon": -99.16421, "tags": {"amenity": "restaurant", "cuisine": "mexican", "name": "La Esquina de los Milagros"}}, {"type": "node", "id": 2577252374, "lat": 19.4065249, "lon": -99.1727917, "tags": {"amenity": "restaurant", "name": "El Farolito"}}, {"type": "node", "id": 2577252377, "lat": 19.4063453, "lon": -99.1725155, "tags": {"amenity": "restaurant", "cuisine": "mexican", "name": "El Califa"}}, {"type": "node", "id": 2588078478, "lat": 19.4328477, "lon": -99.1850784, "tags": {"amenity": "restaurant", "cuisine": "fish", "name": "Fishers", "shop": "seafood"}}, {"type": "node", "id": 2588695518, "lat": 19.4381334, "lon": -99.2007707, "tags": {"addr:city": "Miguel Hidalgo", "addr:housenumber": "353", "addr:postcode": "11560", "addr:street": "Avenida Moliere", "amenity": "restaurant", "name": "Sanborns", "source": "http://www.sanborns.com.mx/Paginas/directorio_n_DF.aspx"}}, {"type": "node", "id": 2596191615, "lat": 19.4277282, "lon": -99.1290975, "tags": {"addr:housenumber": "171", "addr:street": "Mesones", "amenity": "restaurant", "cuisine": "lebanese", "name": "Al Andalus"}}, {"type": "node", "id": 2653396193, "lat": 19.2925485, "lon": -99.1780365, "tags": {"amenity": "restaurant", "brand": "Pizza Hut", "brand:wikidata": "Q191615", "cuisine": "pizza", "name": "Pizza Hut"}}, {"type": "node", "id": 2653650509, "lat": 19.2843652, "lon": -99.181296}, {"type": "node", "id": 2653650510, "lat": 19.2845055, "lon": -99.1812217}, {"type": "node", "id": 2653650511, "lat": 19.2845456, "lon": -99.1813065}, {"type": "node", "id": 2653650512, "lat": 19.2845007, "lon": -99.1813303}, {"type": "node", "id": 2653650513, "lat": 19.2844881, "lon": -99.1813036}, {"type": "node", "id": 2653650514, "lat": 19.2844485, "lon": -99.1813245}, {"type": "node", "id": 2653650515, "lat": 19.2844651, "lon": -99.1813598}, {"type": "node", "id": 2653650516, "lat": 19.2844092, "lon": -99.1813893}, {"type": "node", "id": 2653650517, "lat": 19.284567, "lon": -99.1813358}, {"type": "node", "id": 2653650518, "lat": 19.2846421, "lon": -99.1812978}, {"type": "node", "id": 2653650519, "lat": 19.2846869, "lon": -99.181397}, {"type": "node", "id": 2653650520, "lat": 19.2846118, "lon": -99.181435}, {"type": "node", "id": 2653650521, "lat": 19.2845915, "lon": -99.1813901}, {"type": "node", "id": 2653650522, "lat": 19.2845317, "lon": -99.1814226}, {"type": "node", "id": 2653650523, "lat": 19.2844998, "lon": -99.1813565}, {"type": "node", "id": 2653650524, "lat": 19.2845382, "lon": -99.1813356}, {"type": "node", "id": 2653650525, "lat": 19.2845491, "lon": -99.1813582}, {"type": "node", "id": 2653650526, "lat": 19.2845716, "lon": -99.181346}, {"type": "node", "id": 2653650527, "lat": 19.2843652, "lon": -99.1813986}, {"type": "node", "id": 2653650528, "lat": 19.2843342, "lon": -99.1813212}, {"type": "node", "id": 2653650529, "lat": 19.2841949, "lon": -99.1813898}, {"type": "node", "id": 2653650530, "lat": 19.2843119, "lon": -99.1814693}, {"type": "node", "id": 2653650531, "lat": 19.2843714, "lon": -99.1814278}, {"type": "node", "id": 2653650532, "lat": 19.2844884, "lon": -99.181365}, {"type": "node", "id": 2653650533, "lat": 19.2845151, "lon": -99.181421}, {"type": "node", "id": 2653650534, "lat": 19.2843982, "lon": -99.1814837}, {"type": "node", "id": 2653650535, "lat": 19.284607, "lon": -99.1813057}, {"type": "node", "id": 2653650536, "lat": 19.2847481, "lon": -99.1812325}, {"type": "node", "id": 2653650537, "lat": 19.2846975, "lon": -99.181123}, {"type": "node", "id": 2653650538, "lat": 19.2845564, "lon": -99.1811963}, {"type": "node", "id": 2653712937, "lat": 19.3234091, "lon": -99.1783783}, {"type": "node", "id": 2653712938, "lat": 19.3234317, "lon": -99.1782062}, {"type": "node", "id": 2653712940, "lat": 19.3232973, "lon": -99.178186}, {"type": "node", "id": 2653712941, "lat": 19.3232757, "lon": -99.1783591}, {"type": "node", "id": 2665893956, "lat": 19.3393717, "lon": -99.2326848}, {"type": "node", "id": 2665893957, "lat": 19.33944, "lon": -99.2327245}, {"type": "node", "id": 2665893958, "lat": 19.3394951, "lon": -99.232596}, {"type": "node", "id": 2665893959, "lat": 19.339418, "lon": -99.2325657}, {"type": "node", "id": 2682372531, "lat": 19.3689693, "lon": -99.0744009, "tags": {"amenity": "restaurant", "cuisine": "pizza"}}, {"type": "node", "id": 2776583522, "lat": 19.3250308, "lon": -99.1822557}, {"type": "node", "id": 2776583523, "lat": 19.3250511, "lon": -99.1821114}, {"type": "node", "id": 2776583524, "lat": 19.3248426, "lon": -99.1820784}, {"type": "node", "id": 2776583525, "lat": 19.3248339, "lon": -99.1821398}, {"type": "node", "id": 2776583526, "lat": 19.3248647, "lon": -99.1821447}, {"type": "node", "id": 2776583527, "lat": 19.324853, "lon": -99.1822275}, {"type": "node", "id": 2791756639, "lat": 19.3861369, "lon": -99.0589546, "tags": {"amenity": "restaurant", "cuisine": "mexicano", "name": "Cocina Dos"}}, {"type": "node", "id": 2813801385, "lat": 19.2840329, "lon": -99.1861588, "tags": {"amenity": "restaurant", "cuisine": "regional", "name": "Antojitos Los Amigos"}}, {"type": "node", "id": 2813801386, "lat": 19.2843886, "lon": -99.18638, "tags": {"amenity": "restaurant", "name": "Comedor Comunitario", "operator": "SEDESOL"}}, {"type": "node", "id": 2813801396, "lat": 19.288545, "lon": -99.1798762, "tags": {"amenity": "restaurant", "cuisine": "pizza", "name": "Vicoo's Pizza"}}, {"type": "node", "id": 2817233803, "lat": 19.2915648, "lon": -99.174314, "tags": {"amenity": "restaurant", "name": "El Asadero Argentino"}}, {"type": "node", "id": 2819624491, "lat": 19.4159086, "lon": -99.1648832, "tags": {"addr:city": "DF", "addr:housenumber": "Guanajuato", "addr:postcode": "06700", "addr:street": "239 Col, Roma Norte", "amenity": "restaurant", "cuisine": "Asador_Argentino", "name": "Chetito", "opening_hours": "Tu-Sa 13:30 22:00; Su 13:30 18:00"}}, {"type": "node", "id": 2876168868, "lat": 19.3191937, "lon": -99.1250344, "tags": {"amenity": "restaurant", "name": "Club Naval del Sur"}}, {"type": "node", "id": 2880943218, "lat": 19.3009509, "lon": -99.1133442, "tags": {"amenity": "restaurant", "brand": "Pizza Hut", "brand:wikidata": "Q191615", "brand:wikipedia": "en:Pizza Hut", "cuisine": "pizza", "name": "Pizza Hut"}}, {"type": "node", "id": 2880946718, "lat": 19.3157997, "lon": -99.1245451, "tags": {"amenity": "restaurant", "cuisine": "chicken", "name": "Pollos Rio"}}, {"type": "node", "id": 2902870149, "lat": 19.3224823, "lon": -99.1333434, "tags": {"addr:city": "Coyoacan ,CDMX", "addr:housenumber": "2600,Colonia Ex Hacienda de San Antonio Coapa", "addr:postcode": "04830", "addr:street": "Avenida Canal de Miramontes", "amenity": "restaurant", "cuisine": "international", "name": "Toks Miramontes", "website": "https://www.toks.com.mx/", "wheelchair": "yes", "wheelchair:description": "Restaurante con estacionamiento,cuenta con rampas para acceso,ba\u00f1os accesibles para sillas de ruedas."}}, {"type": "node", "id": 2906227956, "lat": 19.447908, "lon": -99.2069068, "tags": {"amenity": "restaurant", "branch": "Legaria", "brand": "Toks", "brand:wikidata": "Q48835586", "cuisine": "mexican", "name": "Toks", "operator": "Toks"}}, {"type": "node", "id": 2906227957, "lat": 19.4533313, "lon": -99.1981812, "tags": {"amenity": "restaurant", "brand": "Vips", "brand:wikidata": "Q48783378", "brand:wikipedia": "es:Vips", "cuisine": "mexican", "name": "Vips"}}, {"type": "node", "id": 2938065048, "lat": 19.4780353, "lon": -99.1847096, "tags": {"amenity": "restaurant", "name": "Potzolcalli"}}, {"type": "node", "id": 2938142579, "lat": 19.4795704, "lon": -99.1863677, "tags": {"amenity": "restaurant", "name": "Meson Taurino"}}, {"type": "node", "id": 2938268614, "lat": 19.479599, "lon": -99.1876881, "tags": {"amenity": "restaurant", "name": "Curchis Chicken"}}, {"type": "node", "id": 2939774374, "lat": 19.4708525, "lon": -99.1908636, "tags": {"amenity": "restaurant", "name": "VIPS Refineria", "toilets:wheelchair": "yes", "wheelchair": "yes"}}, {"type": "node", "id": 2939774375, "lat": 19.4714249, "lon": -99.1930312, "tags": {"amenity": "restaurant", "name": "El Port\u00f3n Azcapotzalco", "toilets:wheelchair": "yes", "wheelchair": "yes"}}, {"type": "node", "id": 2939774376, "lat": 19.4680498, "lon": -99.1768217, "tags": {"amenity": "restaurant", "brand": "Vips", "brand:wikidata": "Q48783378", "brand:wikipedia": "es:Vips", "cuisine": "mexican", "name": "Vips"}}, {"type": "node", "id": 2939774377, "lat": 19.4691249, "lon": -99.1765841, "tags": {"amenity": "restaurant", "name": "Los Bisquests Obregon"}}, {"type": "node", "id": 2939797651, "lat": 19.470657, "lon": -99.167886, "tags": {"amenity": "restaurant", "cuisine": "pizza", "name": "Benedetti\u00b4s Pizza"}}, {"type": "node", "id": 2945112004, "lat": 19.435988, "lon": -99.1465082, "tags": {"amenity": "restaurant", "name": "Tortas Robles"}}, {"type": "node", "id": 2945133199, "lat": 19.4220039, "lon": -99.1385395, "tags": {"addr:housenumber": "7", "addr:postcode": "06800", "addr:street": "Calle Zapotecos", "amenity": "restaurant", "contact:facebook": "RinconZapatistaDF", "name": "El Rinc\u00f3n Zapatista", "phone": "5555883641"}}, {"type": "node", "id": 2952898734, "lat": 19.3897686, "lon": -99.0350385, "tags": {"addr:postcode": "09100", "amenity": "restaurant", "name": "Pollo Feliz"}}, {"type": "node", "id": 2966933418, "lat": 19.409231, "lon": -99.1782139}, {"type": "node", "id": 2974627983, "lat": 19.3942327, "lon": -99.1798009, "tags": {"amenity": "restaurant", "name": "Julius Pizza"}}, {"type": "node", "id": 2974641626, "lat": 19.3927451, "lon": -99.1794844, "tags": {"amenity": "restaurant", "name": "La RE Pizza"}}, {"type": "node", "id": 2995130538, "lat": 19.4299105, "lon": -99.1655898, "tags": {"addr:city": "Ciudad de M\u00e9xico", "addr:housenumber": "86", "addr:postcode": "06500", "addr:street": "Calle R\u00edo Lerma", "amenity": "restaurant", "cuisine": "mexican;steak_house", "name": "Asados Don Abel", "phone": "+525593485162", "website": "https://asadosdonabelcamarones.com"}}, {"type": "node", "id": 2995201729, "lat": 19.3516126, "lon": -99.1515845, "tags": {"addr:city": "Ciudad de M\u00e9xico", "addr:housenumber": "2639", "addr:postcode": "04100", "addr:street": "Avenida Divisi\u00f3n del Norte", "amenity": "restaurant", "cuisine": "Tacos", "name": "Rey del Taco", "outdoor_seating": "yes"}}, {"type": "node", "id": 2995227021, "lat": 19.4259729, "lon": -99.1709652, "tags": {"addr:city": "Ciudad de M\u00e9xico", "addr:housenumber": "397", "addr:postcode": "06500", "addr:street": "Paseo de la Reforma", "amenity": "restaurant", "cuisine": "spanish", "name": "Valencia Express"}}, {"type": "node", "id": 2995227022, "lat": 19.4272359, "lon": -99.1712571, "tags": {"addr:city": "Ciudad de M\u00e9xico", "addr:country": "MX", "addr:housenumber": "71", "addr:postcode": "06500", "addr:street": "R\u00edo Nilo", "amenity": "restaurant", "cuisine": "japanese", "name": "Musume"}}, {"type": "node", "id": 2995227023, "lat": 19.4284272, "lon": -99.1718987, "tags": {"addr:city": "Ciudad de M\u00e9xico", "addr:country": "MX", "addr:housenumber": "170", "addr:postcode": "06500", "addr:street": "R\u00edo P\u00e1nuco", "amenity": "restaurant", "cuisine": "japanese", "name": "Daikoku"}}, {"type": "node", "id": 2995246408, "lat": 19.4296327, "lon": -99.1656224, "tags": {"addr:city": "Ciudad de M\u00e9xico", "addr:country": "MX", "addr:housenumber": "88", "addr:postcode": "06500", "addr:street": "R\u00edo Sena", "amenity": "restaurant", "cuisine": "french", "name": "Les Moustaches"}}, {"type": "node", "id": 2995254651, "lat": 19.4290837, "lon": -99.1731306, "tags": {"addr:city": "Ciudad de M\u00e9xico", "addr:housenumber": "14", "addr:street": "Melchor Ocampo", "amenity": "restaurant", "cuisine": "spanish", "name": "Las Tinajas"}}, {"type": "node", "id": 2995254652, "lat": 19.4310996, "lon": -99.1401223, "tags": {"addr:city": "Ciudad de M\u00e9xico", "addr:housenumber": "16 y 18", "addr:postcode": "06000", "addr:street": "Rep\u00fablica de Uruguay", "amenity": "restaurant", "cuisine": "spanish", "name": "Centro Castellano", "opening_hours": "Mo-Su 13:00-23:00", "phone": "55186080", "website": "http://www.grupocastellano.com.mx"}}, {"type": "node", "id": 2995254913, "lat": 19.4178456, "lon": -99.1608319, "tags": {"addr:housenumber": "128", "addr:street": "Alvaro Obregon", "amenity": "restaurant", "cuisine": "spanish", "name": "Jam\u00f3n Jam\u00f3n"}}, {"type": "node", "id": 3033693419, "lat": 19.4158438, "lon": -99.1276014, "tags": {"addr:city": "Distrito Federal", "addr:housenumber": "136", "addr:postcode": "01364", "addr:street": "Calz. de la Viga", "amenity": "restaurant", "brand": "Vips", "brand:wikidata": "Q48783378", "brand:wikipedia": "es:Vips", "capacity": "100", "cuisine": "mexican", "name": "Vips", "smoking": "outside", "website": "https://www.vips.com.mx/"}}, {"type": "node", "id": 3035414620, "lat": 19.3482591, "lon": -99.1632916, "tags": {"addr:street": "Calle Felipe Carillo Puerto", "amenity": "restaurant", "cuisine": "mexican", "name": "La Casa de los Tacos", "opening_hours": "Mo-Tu 10:00-21:00;We-Th 10:00-22:00;Fr-Sa 10:00-00:00;Su 10:00-22:00", "website": "https://www.facebook.com/casadelostacos/"}}, {"type": "node", "id": 3048170266, "lat": 19.3709392, "lon": -99.1796601, "tags": {"amenity": "restaurant", "cuisine": "argentina", "name": "Cambalache"}}, {"type": "node", "id": 3048172051, "lat": 19.3727657, "lon": -99.1799515, "tags": {"amenity": "restaurant", "cuisine": "regional", "name": "Los Fondues"}}, {"type": "node", "id": 3095255463, "lat": 19.3234256, "lon": -99.1782514, "tags": {"entrance": "yes"}}, {"type": "node", "id": 3110253368, "lat": 19.4704581, "lon": -99.1686003, "tags": {"amenity": "restaurant", "brand": "Pizza Hut", "brand:wikidata": "Q191615", "brand:wikipedia": "en:Pizza Hut", "cuisine": "pizza", "name": "Pizza Hut"}}, {"type": "node", "id": 3142647643, "lat": 19.4544732, "lon": -99.1310897, "tags": {"amenity": "restaurant", "cuisine": "international", "name": "Sanborns"}}, {"type": "node", "id": 3164062593, "lat": 19.2890855, "lon": -99.1666832, "tags": {"amenity": "restaurant", "name": "La Saz\u00f3n de Tlalpan"}}, {"type": "node", "id": 3164062594, "lat": 19.289146, "lon": -99.1663806, "tags": {"amenity": "restaurant", "name": "Tamayo"}}, {"type": "node", "id": 3168002487, "lat": 19.324405, "lon": -99.1794149}, {"type": "node", "id": 3168002490, "lat": 19.3244217, "lon": -99.1792714}, {"type": "node", "id": 3168002498, "lat": 19.324425, "lon": -99.1792433}, {"type": "node", "id": 3174030863, "lat": 19.445993, "lon": -99.15297, "tags": {"amenity": "restaurant", "name": "El Port\u00f3n"}}, {"type": "node", "id": 3182002312, "lat": 19.3350489, "lon": -99.179585, "tags": {"amenity": "restaurant", "cuisine": "mexican", "name": "La Gloria"}}, {"type": "node", "id": 3182002314, "lat": 19.3349899, "lon": -99.179425, "tags": {"amenity": "restaurant", "name": "Pizza Copilco"}}, {"type": "node", "id": 3182002318, "lat": 19.3346458, "lon": -99.1784133, "tags": {"amenity": "restaurant", "cuisine": "pizza", "name": "Pizzer\u00eda Copilco"}}, {"type": "node", "id": 3191438064, "lat": 19.3245236, "lon": -99.1794412, "tags": {"entrance": "yes"}}, {"type": "node", "id": 3214734509, "lat": 19.2721035, "lon": -99.129456}, {"type": "node", "id": 3214734510, "lat": 19.2720882, "lon": -99.1293645}, {"type": "node", "id": 3214734511, "lat": 19.2720069, "lon": -99.129374}, {"type": "node", "id": 3214734512, "lat": 19.2720255, "lon": -99.1294669}, {"type": "node", "id": 3219623998, "lat": 19.289266, "lon": -99.1637687, "tags": {"amenity": "restaurant", "cuisine": "international"}}, {"type": "node", "id": 3220844396, "lat": 19.3058824, "lon": -99.1252352, "tags": {"amenity": "restaurant", "name": "Rancho Tollocan"}}, {"type": "node", "id": 3239804865, "lat": 19.4039762, "lon": -99.1716795, "tags": {"amenity": "restaurant", "drive_in": "yes", "internet_access:fee": "yes", "name": "La Montejo", "note": "Restaurante Bar", "outdoor_seating": "no", "smoking": "yes"}}, {"type": "node", "id": 3242095331, "lat": 19.2817018, "lon": -99.1712546}, {"type": "node", "id": 3242095332, "lat": 19.2811486, "lon": -99.1714866}, {"type": "node", "id": 3242097272, "lat": 19.28106, "lon": -99.1712787}, {"type": "node", "id": 3242097273, "lat": 19.2816929, "lon": -99.1711124}, {"type": "node", "id": 3242097274, "lat": 19.2811953, "lon": -99.1712432}, {"type": "node", "id": 3242097275, "lat": 19.2812346, "lon": -99.1713444}, {"type": "node", "id": 3242097276, "lat": 19.281265, "lon": -99.1713337}, {"type": "node", "id": 3242097277, "lat": 19.2813033, "lon": -99.1714217}, {"type": "node", "id": 3242097395, "lat": 19.2814503, "lon": -99.1711762}, {"type": "node", "id": 3242097396, "lat": 19.281514, "lon": -99.1713333}, {"type": "node", "id": 3245600797, "lat": 19.2879589, "lon": -99.1022368}, {"type": "node", "id": 3245600798, "lat": 19.2879513, "lon": -99.1021214}, {"type": "node", "id": 3245600799, "lat": 19.2880222, "lon": -99.1021161}, {"type": "node", "id": 3245600800, "lat": 19.2880146, "lon": -99.1019712}, {"type": "node", "id": 3245600801, "lat": 19.2869589, "lon": -99.1020732}, {"type": "node", "id": 3245600802, "lat": 19.2869792, "lon": -99.1023333}, {"type": "node", "id": 3266194706, "lat": 19.3713147, "lon": -99.1789218, "tags": {"amenity": "restaurant", "name": "Bisquets de Obreg\u00f3n"}}, {"type": "node", "id": 3286298061, "lat": 19.4332482, "lon": -99.1493551, "tags": {"amenity": "restaurant", "name": "El 123"}}, {"type": "node", "id": 3318139597, "lat": 19.4486015, "lon": -99.1451649, "tags": {"amenity": "restaurant", "name": "Tamales \"Teresita\""}}, {"type": "node", "id": 3331117481, "lat": 19.2482853, "lon": -99.1635792, "tags": {"amenity": "restaurant", "name": "Fonda"}}, {"type": "node", "id": 3340319231, "lat": 19.2519422, "lon": -99.170895, "tags": {"amenity": "restaurant", "name": "Taqueria los amigos"}}, {"type": "node", "id": 3340742679, "lat": 19.2824254, "lon": -99.1650489, "tags": {"addr:street": "Calzada de Tlalpan", "amenity": "restaurant", "name": "Los Torritos"}}, {"type": "node", "id": 3340742681, "lat": 19.2837724, "lon": -99.1642899}, {"type": "node", "id": 3340742682, "lat": 19.2836768, "lon": -99.1643381}, {"type": "node", "id": 3340742683, "lat": 19.2836641, "lon": -99.16431}, {"type": "node", "id": 3340742684, "lat": 19.2836875, "lon": -99.1642986}, {"type": "node", "id": 3340742685, "lat": 19.283654, "lon": -99.1642282}, {"type": "node", "id": 3340742686, "lat": 19.2837293, "lon": -99.1641906}, {"type": "node", "id": 3340745911, "lat": 19.2917695, "lon": -99.1663276}, {"type": "node", "id": 3340745912, "lat": 19.291686, "lon": -99.1660777}, {"type": "node", "id": 3340745913, "lat": 19.2915246, "lon": -99.1661341}, {"type": "node", "id": 3340745914, "lat": 19.2912483, "lon": -99.1662202}, {"type": "node", "id": 3340745915, "lat": 19.2913241, "lon": -99.1664937}, {"type": "node", "id": 3383901547, "lat": 19.4319755, "lon": -99.1292174, "tags": {"amenity": "restaurant"}}, {"type": "node", "id": 3395855731, "lat": 19.4179158, "lon": -99.1053868, "tags": {"amenity": "restaurant", "branch": "Fray Servando", "brand": "Vips", "brand:wikidata": "Q48783378", "cuisine": "mexican", "name": "Vips"}}, {"type": "node", "id": 3426929564, "lat": 19.3663603, "lon": -99.1439094, "tags": {"amenity": "restaurant", "capacity": "60", "cuisine": "mexican", "name": "Antojeria la Guille II", "opening_hours": "08:00-15:00", "smoking": "no", "takeaway": "yes"}}, {"type": "node", "id": 3429548470, "lat": 19.3813562, "lon": -99.1574834, "tags": {"addr:city": "Distrito Federal", "addr:housenumber": "538", "addr:street": "Avenida Universidad", "amenity": "restaurant", "cuisine": "Russian_food", "delivery": "no", "name": "Kolobok", "opening_hours": "Mo-Su 11:00-20:00", "phone": "+52 55 56044091", "smoking": "no", "takeaway": "yes", "website": "https://www.kolobok.com.mx/"}}, {"type": "node", "id": 3436444666, "lat": 19.293568, "lon": -99.2072837}, {"type": "node", "id": 3436444667, "lat": 19.2935693, "lon": -99.2071911}, {"type": "node", "id": 3436444668, "lat": 19.2935939, "lon": -99.2071926}, {"type": "node", "id": 3436444669, "lat": 19.2935994, "lon": -99.2072678}, {"type": "node", "id": 3436444670, "lat": 19.2936253, "lon": -99.207126}, {"type": "node", "id": 3436444671, "lat": 19.2936376, "lon": -99.2071419}, {"type": "node", "id": 3436444672, "lat": 19.293639, "lon": -99.2071087}, {"type": "node", "id": 3436444673, "lat": 19.2936526, "lon": -99.2073228}, {"type": "node", "id": 3436444674, "lat": 19.2936554, "lon": -99.2073011}, {"type": "node", "id": 3436444675, "lat": 19.2936786, "lon": -99.2071087}, {"type": "node", "id": 3436444676, "lat": 19.2936813, "lon": -99.2073069}, {"type": "node", "id": 3436444677, "lat": 19.2936963, "lon": -99.2070899}, {"type": "node", "id": 3436444678, "lat": 19.29371, "lon": -99.207275}, {"type": "node", "id": 3436444679, "lat": 19.29374, "lon": -99.2072302}, {"type": "node", "id": 3436444680, "lat": 19.2937441, "lon": -99.2071984}, {"type": "node", "id": 3436444681, "lat": 19.2937468, "lon": -99.2071579}, {"type": "node", "id": 3436444682, "lat": 19.2937605, "lon": -99.2071202}, {"type": "node", "id": 3440077002, "lat": 19.3739666, "lon": -99.163264, "tags": {"amenity": "restaurant", "brand": "Chili's", "brand:wikidata": "Q1072948", "brand:wikipedia": "en:Chili's", "cuisine": "tex-mex", "name": "Chili's", "official_name": "Chili's Grill & Bar"}}, {"type": "node", "id": 3443016811, "lat": 19.3325424, "lon": -99.1527154, "tags": {"amenity": "restaurant", "name": "El Churro Feliz"}}, {"type": "node", "id": 3443316654, "lat": 19.3746633, "lon": -99.1621614, "tags": {"addr:housenumber": "734", "addr:street": "Avenida Universidad", "amenity": "restaurant", "brand": "Hooters", "brand:wikidata": "Q1025921", "brand:wikipedia": "en:Hooters", "cuisine": "burger", "name": "Hooters", "takeaway": "yes"}}, {"type": "node", "id": 3443350332, "lat": 19.3772367, "lon": -99.1609619, "tags": {"amenity": "restaurant", "name": "La Cervecer\u00eda de Barrio", "phone": "+52 55 5604 7323", "website": "http://www.lacerveceria.com.mx"}}, {"type": "node", "id": 3443393077, "lat": 19.3777118, "lon": -99.160578, "tags": {"addr:housenumber": "635", "addr:street": "Avenida Universidad", "amenity": "restaurant", "cuisine": "mexican", "name": "COB\u00c1 FONDA YUCATECA", "phone": "+52 55 6395 9961"}}, {"type": "node", "id": 3443434895, "lat": 19.3768118, "lon": -99.1607978, "tags": {"amenity": "restaurant", "cuisine": "mexican", "name": "EL CALIFA", "website": "https://www.elcalifa.com.mx/"}}, {"type": "node", "id": 3443549664, "lat": 19.3808812, "lon": -99.1581801, "tags": {"addr:city": "Ciudad de M\u00e9xico", "addr:housenumber": "575", "addr:postcode": "03020", "addr:street": "Avenida Universidad", "amenity": "restaurant", "cuisine": "mexican", "name": "El Af\u00e1n", "phone": "55 5575 6460", "website": "http://www.elafan.com.mx/"}}, {"type": "node", "id": 3443606075, "lat": 19.380877, "lon": -99.1584131, "tags": {"addr:city": "Ciudad de M\u00e9xico", "addr:housenumber": "1403", "addr:postcode": "03100", "addr:street": "Angel Urraza", "amenity": "restaurant", "cuisine": "seafood", "name": "Marina Bistro", "phone": "+52 55 55754014"}}, {"type": "node", "id": 3443606076, "lat": 19.3829971, "lon": -99.1569351, "tags": {"addr:city": "Ciudad de M\u00e9xico", "addr:housenumber": "493", "addr:street": "Avenida Universidad", "amenity": "restaurant", "cuisine": "arab", "name": "Pitas Saleh", "phone": "55 6363 7425", "takeaway": "yes", "website": "http://www.pitassaleh.com.mx/"}}, {"type": "node", "id": 3443606077, "lat": 19.3831608, "lon": -99.15687, "tags": {"addr:city": "Ciudad de M\u00e9xico", "addr:housenumber": "485", "addr:street": "Avenida Universidad", "amenity": "restaurant", "delivery": "no", "name": "Bistro Cheny", "phone": "55 5523 9908", "smoking": "outside", "takeaway": "yes"}}, {"type": "node", "id": 3443606078, "lat": 19.3857204, "lon": -99.1554386, "tags": {"addr:city": "Ciudad de M\u00e9xico", "addr:housenumber": "399", "addr:postcode": "03020", "addr:street": "Avenida Universidad", "amenity": "restaurant", "cuisine": "grill", "name": "El Viejo Camilo", "outdoor_seating": "yes", "phone": "55 5669 3124", "smoking": "isolated", "website": "http://elviejocamilo.com.mx/"}}, {"type": "node", "id": 3443642056, "lat": 19.3872676, "lon": -99.1544955, "tags": {"addr:city": "Ciudad de M\u00e9xico", "addr:housenumber": "363", "addr:street": "Avenida Universidad", "amenity": "restaurant", "cuisine": "spanish_food", "delivery": "no", "name": "Barnabeu Tapas", "phone": "55 5536 9943", "smoking": "outside", "takeaway": "yes", "website": "http://www.barnabeu.com/"}}, {"type": "node", "id": 3443642057, "lat": 19.38705, "lon": -99.1541817, "tags": {"addr:city": "Ciudad de M\u00e9xico", "addr:housenumber": "358", "addr:postcode": "03020", "addr:street": "Avenida Universidad", "amenity": "restaurant", "cuisine": "argentinian;barbecue;seafood", "name": "El Sencillito", "phone": "55 5523 8195", "website": "https://www.giorgios.com.mx/sencillito.php"}}, {"type": "node", "id": 3443642058, "lat": 19.3868172, "lon": -99.1542621, "tags": {"addr:city": "Ciudad de M\u00e9xico", "addr:housenumber": "360", "addr:street": "Avenida Universidad", "amenity": "restaurant", "cuisine": "pizza", "name": "Giorgio's Pizzas", "phone": "55 5543 1162", "website": "https://www.giorgios.com.mx/giorgios.php"}}, {"type": "node", "id": 3443642059, "lat": 19.3821207, "lon": -99.1569764, "tags": {"addr:city": "Ciudad de M\u00e9xico", "addr:housenumber": "1025", "addr:street": "Cuauht\u00e9moc", "amenity": "restaurant", "cuisine": "italian", "name": "Chester's", "phone": "55 5688 2400", "takeaway": "yes"}}, {"type": "node", "id": 3443941003, "lat": 19.3778979, "lon": -99.1755226, "tags": {"addr:housenumber": "59", "addr:street": "Fresas", "amenity": "restaurant", "cuisine": "japanese", "delivery": "no", "name": "Ramen -ya", "phone": "55 5559 1495", "smoking": "no"}}, {"type": "node", "id": 3443941004, "lat": 19.3765138, "lon": -99.177822, "tags": {"addr:housenumber": "272", "addr:street": "Millet", "amenity": "restaurant", "cuisine": "sushi", "delivery": "yes", "name": "Sushi Roll", "phone": "55 5575 7780", "website": "https://www.sushiroll.mx/"}}, {"type": "node", "id": 3443941009, "lat": 19.3931664, "lon": -99.1520683, "tags": {"addr:city": "Ciudad de M\u00e9xico", "addr:housenumber": "360", "addr:street": "Cumbres de Maltrada", "amenity": "restaurant", "cuisine": "Texas_BBQ", "name": "Pinche Gringo BBQ", "opening_hours": "We-Fr 13:00-18:30", "phone": "55 6389 1129", "website": "https://www.pgbbq.mx/"}}, {"type": "node", "id": 3443948812, "lat": 19.3760914, "lon": -99.1860051, "tags": {"addr:housenumber": "36B", "addr:street": "Calle Empresa", "amenity": "restaurant", "cuisine": "mexican", "delivery": "yes", "name": "Trok's torta", "phone": "55 5563 7897", "takeaway": "yes"}}, {"type": "node", "id": 3443958499, "lat": 19.3657407, "lon": -99.1666995, "tags": {"amenity": "restaurant", "brand": "California Pizza Kitchen", "brand:wikidata": "Q15109854", "cuisine": "pizza", "name": "California Pizza Kitchen", "short_name": "CPK"}}, {"type": "node", "id": 3443958502, "lat": 19.365734, "lon": -99.1675684, "tags": {"amenity": "restaurant", "brand": "Olive Garden", "brand:wikidata": "Q3045312", "cuisine": "italian", "name": "Olive Garden"}}, {"type": "node", "id": 3444102490, "lat": 19.3724753, "lon": -99.1751028, "tags": {"addr:housenumber": "1609", "addr:street": "Calle Patricio Sanz", "amenity": "restaurant", "cuisine": "Chile_food", "name": "Un Rincon de Chile", "phone": "55 5524 4039"}}, {"type": "node", "id": 3444123713, "lat": 19.3755716, "lon": -99.1740716, "tags": {"addr:housenumber": "1440", "addr:street": "Patricio Sanz", "amenity": "restaurant", "cuisine": "mexican", "name": "Humbertos", "phone": "55 5559 8760", "website": "http://www.restaurantehumbertos.com/"}}, {"type": "node", "id": 3444188000, "lat": 19.3807403, "lon": -99.1846878, "tags": {"addr:housenumber": "671", "addr:street": "Avenida Patriotismo", "amenity": "restaurant", "name": "La Casa del Abuelo"}}, {"type": "node", "id": 3445306344, "lat": 19.4134484, "lon": -99.1635388, "tags": {"addr:housenumber": "173", "addr:street": "San Luis Potosi", "amenity": "restaurant", "cuisine": "ramen", "name": "Mikasa Ramen"}}, {"type": "node", "id": 3445321675, "lat": 19.3957874, "lon": -99.1698465, "tags": {"addr:housenumber": "200", "addr:street": "Pedro Romero de Terreros", "amenity": "restaurant", "cuisine": "japanese", "name": "Restaurante Shoya", "opening_hours": "Mo-Fr 11:00-18:00", "phone": "55 5669 5211", "website": "http://mikasamex.web.fc2.com/hp_shoya.html"}}, {"type": "node", "id": 3445448193, "lat": 19.3875381, "lon": -99.1574158, "tags": {"addr:city": "Ciudad de M\u00e9xico", "addr:housenumber": "1407", "addr:street": "Calle Concepci\u00f3n Beistegui", "amenity": "restaurant", "cuisine": "mexican;yucateca", "name": "Restaurante Hanal K'U", "phone": "55 55232383", "website": "http://www.hanalku.com/"}}, {"type": "node", "id": 3446425086, "lat": 19.3942982, "lon": -99.1726235, "tags": {"amenity": "restaurant", "brand": "California Pizza Kitchen", "brand:wikidata": "Q15109854", "cuisine": "pizza", "name": "California Pizza Kitchen", "short_name": "CPK"}}, {"type": "node", "id": 3454207106, "lat": 19.435389, "lon": -99.173445, "tags": {"addr:housenumber": "34", "addr:street": "Bah\u00eda Palmas", "amenity": "restaurant", "name": "Pane En V\u00eda", "phone": "55 5260 0120", "website": "https://www.paneenvia.com/"}}, {"type": "node", "id": 3454250664, "lat": 19.3672489, "lon": -99.1711532, "tags": {"amenity": "restaurant", "cuisine": "barbecue", "name": "Don Capit\u00e1n Del Valle", "phone": "55 5524 5901", "website": "http://doncapitan.fishers.com.mx/"}}, {"type": "node", "id": 3454250665, "lat": 19.3672354, "lon": -99.1710333, "tags": {"amenity": "restaurant", "cuisine": "sushi", "name": "Sushi Roll"}}, {"type": "node", "id": 3454255731, "lat": 19.367364, "lon": -99.1664371, "tags": {"amenity": "restaurant", "name": "Italinnis Universidad"}}, {"type": "node", "id": 3454364869, "lat": 19.4141237, "lon": -99.1645912, "tags": {"amenity": "restaurant", "name": "Mercado Roma", "wikidata": "Q17462409", "wikipedia": "en:Mercado Roma"}}, {"type": "node", "id": 3459925467, "lat": 19.3639661, "lon": -99.1615375, "tags": {"addr:city": "Ciudad de M\u00e9xico", "addr:housenumber": "422", "addr:street": "Avenida Popocat\u00e9petl", "amenity": "restaurant", "cuisine": "sushi", "delivery": "yes", "name": "Sushi Roll", "opening_hours": "12:30-22:00", "phone": "52-55-56047968", "smoking": "no"}}, {"type": "node", "id": 3481023279, "lat": 19.3343107, "lon": -99.1781061, "tags": {"amenity": "restaurant", "name": "El Ciruelo"}}, {"type": "node", "id": 3481023281, "lat": 19.3350154, "lon": -99.177716, "tags": {"amenity": "restaurant", "cuisine": "regional", "diet:vegetarian": "only", "name": "Flor de Lis"}}, {"type": "node", "id": 3481023284, "lat": 19.3346252, "lon": -99.1781048, "tags": {"amenity": "restaurant", "cuisine": "regional", "diet:vegetarian": "only", "name": "Monte Kailas"}}, {"type": "node", "id": 3481023286, "lat": 19.334834, "lon": -99.1780165, "tags": {"amenity": "restaurant", "name": "Panepis"}}, {"type": "node", "id": 3481023287, "lat": 19.3357608, "lon": -99.1772736, "tags": {"amenity": "restaurant", "cuisine": "pizza", "name": "Pizza Copilco"}}, {"type": "node", "id": 3481023288, "lat": 19.3346663, "lon": -99.1780806, "tags": {"amenity": "restaurant", "cuisine": "pizza", "name": "Pizza Pazza"}}, {"type": "node", "id": 3481023289, "lat": 19.3341403, "lon": -99.1776335, "tags": {"amenity": "restaurant", "cuisine": "mexican", "name": "Tortas Locas Copilco"}}, {"type": "node", "id": 3484583392, "lat": 19.3762032, "lon": -99.1576416, "tags": {"amenity": "restaurant", "cuisine": "mexican", "name": "El Tepehuani Conquistando", "phone": "55 4754 0398", "website": "https://www.facebook.com/ElTepehuani"}}, {"type": "node", "id": 3484587993, "lat": 19.3786595, "lon": -99.1582072, "tags": {"amenity": "restaurant"}}, {"type": "node", "id": 3484588001, "lat": 19.3788705, "lon": -99.1585507, "tags": {"amenity": "restaurant"}}, {"type": "node", "id": 3490018563, "lat": 19.279816, "lon": -99.1685764, "tags": {"amenity": "restaurant", "capacity": "8 a 10 personas paradas", "delivery": "no", "name": "Taquer\u00eda", "note": "Taquer\u00eda bajo el puente peatonal. Excelentes tacos de cabeza, suadero, tripa y longaniza. Precios populares.", "takeaway": "yes"}}, {"type": "node", "id": 3492948614, "lat": 19.3416433, "lon": -99.1892455, "tags": {"amenity": "restaurant", "name": "Rioja", "operator": "spanish"}}, {"type": "node", "id": 3492948645, "lat": 19.2923684, "lon": -99.1780998}, {"type": "node", "id": 3492948646, "lat": 19.2923717, "lon": -99.1781519}, {"type": "node", "id": 3492948653, "lat": 19.2924626, "lon": -99.1780932}, {"type": "node", "id": 3492948654, "lat": 19.2924659, "lon": -99.1781452}, {"type": "node", "id": 3492952563, "lat": 19.3410621, "lon": -99.1901568}, {"type": "node", "id": 3492952565, "lat": 19.3411558, "lon": -99.1904757}, {"type": "node", "id": 3492952566, "lat": 19.3411724, "lon": -99.1905323}, {"type": "node", "id": 3492952569, "lat": 19.3413527, "lon": -99.1900447}, {"type": "node", "id": 3492952570, "lat": 19.3413644, "lon": -99.1900768}, {"type": "node", "id": 3492952573, "lat": 19.3414744, "lon": -99.1904479}, {"type": "node", "id": 3493034126, "lat": 19.2901858, "lon": -99.1792043, "tags": {"addr:street": "Calle Ayuntamiento", "amenity": "restaurant", "cuisine": "buffet", "name": "Casa Gula", "outdoor_seating": "yes"}}, {"type": "node", "id": 3493034136, "lat": 19.2911245, "lon": -99.1786109, "tags": {"amenity": "restaurant", "name": "La Casa del Abuelo"}}, {"type": "node", "id": 3493034138, "lat": 19.2903286, "lon": -99.1788075, "tags": {"amenity": "restaurant", "cuisine": "regional", "name": "Las Cazuelitas"}}, {"type": "node", "id": 3493034146, "lat": 19.2908446, "lon": -99.1787732, "tags": {"amenity": "restaurant", "cuisine": "regional", "name": "Taquer\u00eda Mr. Taco I"}}, {"type": "node", "id": 3493638755, "lat": 19.409637, "lon": -99.1790359, "tags": {"amenity": "restaurant", "cuisine": "regional", "name": "Las Delicias"}}, {"type": "node", "id": 3493638756, "lat": 19.409604, "lon": -99.1789892, "tags": {"amenity": "restaurant", "cuisine": "regional", "name": "Los Cerezos"}},