{"version": 0.6, "generator": "Overpass API 0.7.60 f4c14d41", "osm3s": {"timestamp_osm_base": "2023-05-02T21:21:23Z", "copyright": "The data included in this document is from www.openstreetmap.org. The data is made available under ODbL."}, "elements": [{"type": "node", "id": 20970693, "lat": -33.7097658, "lon": 150.3761521, "tags": {"historic": "monument", "name": "War Memorial", "source:position": "NSW LPI Imagery"}}, {"type": "node", "id": 275607226, "lat": -33.6973349, "lon": 150.534975, "tags": {"historic": "monument", "name": "Sir Henry Parkes Grave"}}, {"type": "node", "id": 3276115549, "lat": -33.7179466, "lon": 150.4951144, "tags": {"historic": "monument", "name": "Caleys Repulse"}}, {"type": "node", "id": 5070920418, "lat": -33.6640954, "lon": 150.6037419, "tags": {"historic": "monument", "name": "The Grotto"}}, {"type": "node", "id": 7012545344, "lat": -33.7055626, "lon": 150.3675094, "tags": {"historic": "monument", "inscription": "The re-marking of the first survey over the Blue Mountains by George William Evans - December 1813 - January 1814. This monument is placed as close to the location of Evans' surveyed line as can be calculated from his original field book.", "name": "Footsteps In Time"}}]}