{"version": 0.6, "generator": "Overpass API 0.7.60 f4c14d41", "osm3s": {"timestamp_osm_base": "2023-05-02T21:20:24Z", "copyright": "The data included in this document is from www.openstreetmap.org. The data is made available under ODbL."}, "elements": [{"type": "node", "id": 1268480179, "lat": 22.2788384, "lon": 114.1837974, "tags": {"addr:floor": "2", "addr:housenumber": "2", "addr:street": "Pak Sha Road", "name": "Red Corner Wine Shop", "opening_hours": "Mo-Su 10:00-20:00", "phone": "28817991", "shop": "alcohol"}}, {"type": "node", "id": 4858269616, "lat": 22.278181, "lon": 114.179618, "tags": {"addr:city": "Wan Chai", "addr:country": "HK", "addr:housenumber": "12", "addr:street": "\u5929\u6a02\u91cc Tin Lok Lane", "level": "0", "name": "\u5104\u5347 Lillion Wine", "name:en": "Lillion Wine", "name:zh": "\u5104\u5347", "opening_hours": "Mo-Su,PH 13:00-21:00", "phone": "+852 21099928", "shop": "alcohol", "website": "http://www.lillionwine.com"}}, {"type": "node", "id": 4860665380, "lat": 22.2673962, "lon": 114.1872016, "tags": {"addr:street": "\u6210\u548c\u9053 Sing Woo Road", "name": "Watson's Wine", "shop": "alcohol", "source": "Kaart Ground Survey 2017"}}, {"type": "node", "id": 6419143857, "lat": 22.2865156, "lon": 114.1481821, "tags": {"addr:housenumber": "16", "addr:street": "\u7687\u540e\u5927\u9053\u897f Queen's Road West", "name": "\u540d\u57ce\u9152\u696d Chateau Wine & Spirits", "name:en": "Chateau Wine & Spirits", "name:zh": "\u540d\u57ce\u9152\u696d", "shop": "alcohol"}}, {"type": "node", "id": 6897594145, "lat": 22.2804069, "lon": 114.2306095, "tags": {"name": "\u540d\u57ce\u9152\u696d Chateau Wine & Spirits", "name:en": "Chateau Wine & Spirits Group", "name:zh": "\u540d\u57ce\u9152\u696d\u96c6\u5718", "shop": "alcohol"}}, {"type": "node", "id": 9201492817, "lat": 22.2814333, "lon": 114.1560743, "tags": {"name:en": "Cigar Importer", "shop": "alcohol"}}, {"type": "node", "id": 10855411085, "lat": 22.2835287, "lon": 114.1917967, "tags": {"name": "HK Liquor Store", "name:en": "HK Liquor Store", "shop": "alcohol"}}]}