{"version": 0.6, "generator": "Overpass API 0.7.60 f4c14d41", "osm3s": {"timestamp_osm_base": "2023-05-02T21:22:25Z", "copyright": "The data included in this document is from www.openstreetmap.org. The data is made available under ODbL."}, "elements": [{"type": "node", "id": 294929768, "lat": -34.0625007, "lon": 150.8168914}, {"type": "node", "id": 454120831, "lat": -33.8064521, "lon": 150.9723487, "tags": {"addr:housenumber": "81", "addr:street": "Wentworth Avenue Cnr Of Wentworth Avenue And Railway Street", "amenity": "police", "fax": "02 9688 8430", "name": "Wentworth Police Station", "operator": "New South Wales Police Force", "operator:wikidata": "Q7011763", "operator:wikipedia": "en:New South Wales Police Force", "phone": "+61-2-9688-8499", "source": "police.nsw.gov.au", "website": "https://www.police.nsw.gov.au/about_us/regions_commands_districts/north_west_metro_region/parramatta/wentworthville_police_station"}}, {"type": "node", "id": 696565472, "lat": -34.0626414, "lon": 150.817207}, {"type": "node", "id": 702369649, "lat": -34.0537497, "lon": 150.694797}, {"type": "node", "id": 702369665, "lat": -34.0536644, "lon": 150.6950206}, {"type": "node", "id": 702369681, "lat": -34.0535518, "lon": 150.6947545}, {"type": "node", "id": 702369706, "lat": -34.0537111, "lon": 150.6948929}, {"type": "node", "id": 702369792, "lat": -34.0536746, "lon": 150.6948177}, {"type": "node", "id": 702369797, "lat": -34.0536244, "lon": 150.6947883}, {"type": "node", "id": 702369820, "lat": -34.0534313, "lon": 150.694884}, {"type": "node", "id": 702369834, "lat": -34.0536148, "lon": 150.694679}, {"type": "node", "id": 702369859, "lat": -34.0537149, "lon": 150.6948951}, {"type": "node", "id": 702369874, "lat": -34.0535973, "lon": 150.6946873}, {"type": "node", "id": 702369916, "lat": -34.0535497, "lon": 150.6947597}, {"type": "node", "id": 702369983, "lat": -34.0536581, "lon": 150.6947044}, {"type": "node", "id": 702370023, "lat": -34.0536957, "lon": 150.6947654}, {"type": "node", "id": 702370027, "lat": -34.0536088, "lon": 150.6946941}, {"type": "node", "id": 702370068, "lat": -34.0534964, "lon": 150.6947221}, {"type": "node", "id": 702370084, "lat": -34.0535646, "lon": 150.6947685}, {"type": "node", "id": 829717453, "lat": -33.8957645, "lon": 150.935122, "tags": {"addr:housenumber": "243-249", "addr:street": "Cabramatta Road", "amenity": "police", "fax": "02 9725 8911", "name": "Cabramatta Police Station", "operator": "New South Wales Police Force", "operator:wikidata": "Q7011763", "operator:wikipedia": "en:New South Wales Police Force", "phone": "+61-2-9725-8999", "source": "police.nsw.gov.au", "website": "https://www.police.nsw.gov.au/about_us/regions_commands_districts/south_west_metro_region/fairfield_city/cabramatta_police_station"}}, {"type": "node", "id": 829728853, "lat": -33.8700597, "lon": 150.9562575, "tags": {"addr:housenumber": "40-42", "addr:street": "Smart Street", "amenity": "police", "fax": "02 9728 8311", "name": "Fairfield Police Station", "operator": "NSW Police Force", "operator:wikidata": "Q7011763", "operator:wikipedia": "en:New South Wales Police Force", "phone": "+61-2-9728-8399", "source": "police.nsw.gov.au", "website": "https://www.police.nsw.gov.au/about_us/regions_commands_districts/south_west_metro_region/fairfield_city/fairfield_police_station"}}, {"type": "node", "id": 829746676, "lat": -33.9065575, "lon": 150.8660603, "tags": {"addr:housenumber": "195", "addr:street": "Wilson Road", "amenity": "police", "fax": "02 9607 1711", "name": "Green Valley Police Station", "operator": "NSW Police Force", "operator:wikidata": "Q7011763", "operator:wikipedia": "en:New South Wales Police Force", "phone": "+61-2-9607-1799", "source": "police.nsw.gov.au", "website": "https://www.police.nsw.gov.au/about_us/regions_commands_districts/south_west_metro_region/liverpool_city/green_valley_police_station"}}, {"type": "node", "id": 829749248, "lat": -33.921174, "lon": 150.9254753, "tags": {"addr:housenumber": "148", "addr:street": "George Street", "amenity": "police", "fax": "02 9765 9411", "name": "Liverpool Police Station", "operator": "New South Wales Police Force", "operator:wikidata": "Q7011763", "operator:wikipedia": "en:New South Wales Police Force", "phone": "+61-2-9821-8444", "source": "police.nsw.gov.au", "website": "https://www.police.nsw.gov.au/about_us/regions_commands_districts/south_west_metro_region/liverpool_city/liverpool_police_station"}}, {"type": "node", "id": 829753496, "lat": -33.9857205, "lon": 150.890549, "tags": {"addr:housenumber": "10", "addr:street": "Brooks Street", "amenity": "police", "fax": "02 9605 0419", "name": "Macquarie Fields Police Station", "operator": "New South Wales Police Force", "operator:wikidata": "Q7011763", "operator:wikipedia": "en:New South Wales Police Force", "phone": "+61-2-9605-0499", "source": "police.nsw.gov.au", "website": "https://www.police.nsw.gov.au/about_us/regions_commands_districts/south_west_metro_region/campbelltown_city/macquarie_fields_police_station"}}, {"type": "node", "id": 1936214187, "lat": -34.0627199, "lon": 150.8170775}, {"type": "node", "id": 1936214197, "lat": -34.0626725, "lon": 150.8174906}, {"type": "node", "id": 1936214202, "lat": -34.0626002, "lon": 150.8171706}, {"type": "node", "id": 1936214205, "lat": -34.0622847, "lon": 150.8172682}, {"type": "node", "id": 1936214206, "lat": -34.0626084, "lon": 150.8172724}, {"type": "node", "id": 1936214216, "lat": -34.0624549, "lon": 150.8174184}, {"type": "node", "id": 1936214219, "lat": -34.0625446, "lon": 150.8173776}, {"type": "node", "id": 1936214220, "lat": -34.06268, "lon": 150.8170389}, {"type": "node", "id": 1936214222, "lat": -34.062566, "lon": 150.817235}, {"type": "node", "id": 2079493288, "lat": -33.7688105, "lon": 150.9055348, "tags": {"addr:housenumber": "9-11", "addr:street": "Kildare Road", "amenity": "police", "fax": "02 9671 9118", "name": "Blacktown Police Station", "operator": "NSW Police Force", "operator:wikidata": "Q7011763", "operator:wikipedia": "en:New South Wales Police Force", "phone": "+61-2-9671-9199", "source": "local_knowledge", "website": "https://www.police.nsw.gov.au/about_us/regions_commands_districts/north_west_metro_region/blacktown/blacktown_police_station"}}, {"type": "node", "id": 4299159955, "lat": -34.0628521, "lon": 150.8171942}, {"type": "node", "id": 4305456866, "lat": -34.0424771, "lon": 150.7316191}, {"type": "node", "id": 4305456867, "lat": -34.0425562, "lon": 150.7313813}, {"type": "node", "id": 4305456868, "lat": -34.0424838, "lon": 150.7311841}, {"type": "node", "id": 4305456869, "lat": -34.0421877, "lon": 150.731042}, {"type": "node", "id": 4305456870, "lat": -34.0420641, "lon": 150.7314364}, {"type": "node", "id": 4777966674, "lat": -33.9981108, "lon": 150.8652371}, {"type": "node", "id": 4777966675, "lat": -33.9981565, "lon": 150.8651957}, {"type": "node", "id": 4777966676, "lat": -33.998182, "lon": 150.8652366}, {"type": "node", "id": 4777966677, "lat": -33.9981363, "lon": 150.865278}, {"type": "node", "id": 5423530745, "lat": -33.8618836, "lon": 150.9008527}, {"type": "node", "id": 5423530746, "lat": -33.861827, "lon": 150.900914}, {"type": "node", "id": 5423530747, "lat": -33.8618437, "lon": 150.9009363}, {"type": "node", "id": 5423530748, "lat": -33.8617516, "lon": 150.901036}, {"type": "node", "id": 5423530749, "lat": -33.8618154, "lon": 150.9011215}, {"type": "node", "id": 5423530750, "lat": -33.861903, "lon": 150.9010266}, {"type": "node", "id": 5423530751, "lat": -33.8619853, "lon": 150.9011369}, {"type": "node", "id": 5423530752, "lat": -33.8618859, "lon": 150.9012446}, {"type": "node", "id": 5423530753, "lat": -33.8619774, "lon": 150.9013671}, {"type": "node", "id": 5423530754, "lat": -33.8620481, "lon": 150.9012905}, {"type": "node", "id": 5423530755, "lat": -33.8620634, "lon": 150.901311}, {"type": "node", "id": 5423530756, "lat": -33.8621577, "lon": 150.9012089}, {"type": "node", "id": 5423530757, "lat": -33.862138, "lon": 150.9011825}, {"type": "node", "id": 5423530758, "lat": -33.862202, "lon": 150.9011132}, {"type": "node", "id": 5423530759, "lat": -33.862123, "lon": 150.9010075}, {"type": "node", "id": 5423530760, "lat": -33.8621535, "lon": 150.9009745}, {"type": "node", "id": 5423530761, "lat": -33.8620759, "lon": 150.9008705}, {"type": "node", "id": 5423530762, "lat": -33.8620409, "lon": 150.9009084}, {"type": "node", "id": 5423530763, "lat": -33.8619654, "lon": 150.9008072}, {"type": "node", "id": 5423530764, "lat": -33.8619014, "lon": 150.9008765}, {"type": "node", "id": 8359030300, "lat": -33.7701668, "lon": 150.7754091}, {"type": "node", "id": 8359030301, "lat": -33.7702036, "lon": 150.7756693}, {"type": "node", "id": 8359030302, "lat": -33.7696852, "lon": 150.7757632}, {"type": "node", "id": 8359030303, "lat": -33.7696539, "lon": 150.7755057}, {"type": "way", "id": 55951426, "nodes": [702369649, 702370023, 702369792, 702369797, 702369983, 702369834, 702370027, 702369874, 702370084, 702369916, 702369681, 702370068, 702369820, 702369665, 702369859, 702369706, 702369649], "tags": {"addr:street": "John Street", "amenity": "police", "building": "yes", "name": "Camden Police Station", "operator": "New South Wales Police Force", "operator:wikidata": "Q7011763", "operator:wikipedia": "en:New South Wales Police Force", "phone": "+61-2-4655-0599", "source": "nearmap;survey;police.nsw.gov.au"}}, {"type": "way", "id": 183242184, "nodes": [1936214202, 696565472, 1936214187, 4299159955, 1936214197, 1936214219, 1936214206, 1936214222, 1936214216, 1936214205, 294929768, 1936214220, 1936214202], "tags": {"addr:housenumber": "65", "addr:street": "Queen Street", "amenity": "police", "building": "public", "fax": "02 4620 1242", "name": "Campbelltown Police Station", "operator": "NSW Police Force", "operator:wikidata": "Q7011763", "operator:wikipedia": "en:New South Wales Police Force", "phone": "+61-2-4620-1199", "source": "police.nsw.gov.au", "website": "https://www.police.nsw.gov.au/about_us/regions_commands_districts/south_west_metro_region/campbelltown_city/campbelltown_police_station"}}, {"type": "way", "id": 431338773, "nodes": [4305456866, 4305456867, 4305456868, 4305456869, 4305456870, 4305456866], "tags": {"addr:housenumber": "278", "addr:street": "Camden Valley Way", "amenity": "police", "building": "yes", "fax": "02 4632 4411", "name": "Narellan Police Station", "operator": "New South Wales Police Force", "operator:wikidata": "Q7011763", "operator:wikipedia": "en:New South Wales Police Force", "phone": "02 4632 4499", "website": "https://www.police.nsw.gov.au/about_us/regions_commands_districts/south_west_metro_region/camden/camden_police_station"}}, {"type": "way", "id": 485040012, "nodes": [4777966674, 4777966675, 4777966676, 4777966677, 4777966674], "tags": {"amenity": "police", "building": "yes", "name": "Ingleburn Police Station", "opening_hours": "\"Major Events\"", "operator": "New South Wales Police Force", "operator:wikidata": "Q7011763", "operator:wikipedia": "en:New South Wales Police Force"}}, {"type": "way", "id": 562598690, "nodes": [5423530745, 5423530746, 5423530747, 5423530748, 5423530749, 5423530750, 5423530751, 5423530752, 5423530753, 5423530754, 5423530755, 5423530756, 5423530757, 5423530758, 5423530759, 5423530760, 5423530761, 5423530762, 5423530763, 5423530764, 5423530745], "tags": {"addr:city": "Wetherill Park", "addr:housenumber": "332", "addr:postcode": "2164", "addr:province": "NSW", "addr:street": "Prarie Vale Road", "amenity": "police", "building": "yes", "fax": "02 8788 5111", "name": "Wetherill Park Police Station", "operator": "New South Wales Police Force", "operator:wikidata": "Q7011763", "operator:wikipedia": "en:New South Wales Police Force", "phone": "02 8788 5199", "website": "https://www.police.nsw.gov.au/about_us/regions_commands_districts/south_west_metro_region/fairfield_city/wetherill_park_police_station"}}, {"type": "way", "id": 899664521, "nodes": [8359030300, 8359030301, 8359030302, 8359030303, 8359030300], "tags": {"addr:housenumber": "38 42", "addr:street": "King Street", "amenity": "police", "building": "yes", "fax": "02 9677 7411", "name": "St Marys Police Station", "operator": "New South Wales Police Force", "operator:wikidata": "Q7011763", "operator:wikipedia": "en:New South Wales Police Force", "phone": "02 9677 7499", "website": "https://www.police.nsw.gov.au/about_us/regions_commands_districts/north_west_metro_region/nepean/st_marys_police_station"}}]}