{"version": 0.6, "generator": "Overpass API 0.7.60 f4c14d41", "osm3s": {"timestamp_osm_base": "2023-05-02T21:15:23Z", "copyright": "The data included in this document is from www.openstreetmap.org. The data is made available under ODbL."}, "elements": [{"type": "node", "id": 831019461, "lat": -33.7544729, "lon": 150.7023971, "tags": {"amenity": "bank", "name": "Police Credit Union", "phone": "+61-2-4720-5000"}}, {"type": "node", "id": 2573959532, "lat": -33.5980068, "lon": 150.7530065, "tags": {"amenity": "bank", "atm": "yes", "brand": "Commonwealth Bank", "brand:wikidata": "Q285328", "brand:wikipedia": "en:Commonwealth Bank", "name": "Commonwealth Bank", "operator": "Commonwealth Bank"}}, {"type": "node", "id": 4254745802, "lat": -33.7332351, "lon": 150.9630985, "tags": {"addr:postcode": "2153", "amenity": "bank", "brand": "Westpac", "brand:wikidata": "Q2031726", "brand:wikipedia": "en:Westpac", "name": "Westpac", "website": "https://www.westpac.com.au/"}}, {"type": "node", "id": 4254794392, "lat": -33.7331562, "lon": 150.963215, "tags": {"addr:postcode": "2153", "amenity": "bank", "brand": "Commonwealth Bank", "brand:wikidata": "Q285328", "brand:wikipedia": "en:Commonwealth Bank", "name": "Commonwealth Bank", "website": "https://www.commbank.com.au/"}}, {"type": "node", "id": 6366626207, "lat": -33.6060795, "lon": 150.8213411, "tags": {"amenity": "bank", "atm": "yes", "brand": "NAB", "brand:wikidata": "Q1430985", "brand:wikipedia": "en:National Australia Bank", "name": "NAB", "operator": "NAB"}}, {"type": "node", "id": 7176946482, "lat": -33.7522229, "lon": 150.693791, "tags": {"amenity": "bank", "brand": "NAB", "brand:wikidata": "Q1430985", "brand:wikipedia": "en:National Australia Bank", "name": "NAB"}}, {"type": "node", "id": 7178065726, "lat": -33.7529636, "lon": 150.6938702, "tags": {"amenity": "bank", "brand": "ANZ", "brand:wikidata": "Q714641", "brand:wikipedia": "en:Australia and New Zealand Banking Group", "name": "ANZ", "official_name": "Australia and New Zealand Banking Group Limited"}}, {"type": "node", "id": 7185292381, "lat": -33.7539486, "lon": 150.698361, "tags": {"amenity": "bank", "brand": "Commonwealth Bank", "brand:wikidata": "Q285328", "brand:wikipedia": "en:Commonwealth Bank", "name": "Commonwealth Bank"}}, {"type": "node", "id": 7305079629, "lat": -33.5808655, "lon": 150.7194978, "tags": {"amenity": "bank", "brand": "Bendigo Bank", "brand:wikidata": "Q4887077", "brand:wikipedia": "en:Bendigo and Adelaide Bank", "name": "Bendigo Bank"}}, {"type": "node", "id": 8380905185, "lat": -33.7489774, "lon": 150.8793561, "tags": {"amenity": "bank", "brand": "Commonwealth Bank", "brand:wikidata": "Q285328", "brand:wikipedia": "en:Commonwealth Bank", "name": "Commonwealth Bank"}}, {"type": "node", "id": 8692522595, "lat": -33.7516062, "lon": 150.6934822, "tags": {"amenity": "bank", "brand": "Commonwealth Bank", "brand:wikidata": "Q285328", "brand:wikipedia": "en:Commonwealth Bank", "name": "Commonwealth Bank"}}, {"type": "node", "id": 9318680824, "lat": -33.7571933, "lon": 150.6924417, "tags": {"amenity": "bank", "name": "Community First Credit Union"}}, {"type": "node", "id": 9354608720, "lat": -33.7520984, "lon": 150.6941875, "tags": {"amenity": "bank", "brand": "St.George", "brand:wikidata": "Q1606050", "brand:wikipedia": "en:St.George Bank", "name": "St.George"}}, {"type": "node", "id": 9354608727, "lat": -33.7525576, "lon": 150.693721, "tags": {"amenity": "bank", "name": "IMB"}}, {"type": "node", "id": 9354608729, "lat": -33.7521673, "lon": 150.6940815, "tags": {"amenity": "bank", "name": "Sydney Mutual Bank"}}, {"type": "node", "id": 9354608731, "lat": -33.7522718, "lon": 150.6940391, "tags": {"amenity": "bank", "brand": "Suncorp", "brand:wikidata": "Q24189567", "brand:wikipedia": "en:Suncorp Bank", "name": "Suncorp"}}, {"type": "node", "id": 9364661962, "lat": -33.7656173, "lon": 150.7739972, "tags": {"amenity": "bank", "brand": "Westpac", "brand:wikidata": "Q2031726", "brand:wikipedia": "en:Westpac", "name": "Westpac"}}, {"type": "node", "id": 9365266942, "lat": -33.7645959, "lon": 150.7745872, "tags": {"amenity": "bank", "brand": "ANZ", "brand:wikidata": "Q714641", "brand:wikipedia": "en:Australia and New Zealand Banking Group", "name": "ANZ", "official_name": "Australia and New Zealand Banking Group Limited"}}, {"type": "node", "id": 9365266948, "lat": -33.7653804, "lon": 150.7744637, "tags": {"amenity": "bank", "brand": "St.George", "brand:wikidata": "Q1606050", "brand:wikipedia": "en:St.George Bank", "name": "St.George"}}, {"type": "node", "id": 9365266951, "lat": -33.7656674, "lon": 150.7744152, "tags": {"amenity": "bank", "brand": "Commonwealth Bank", "brand:wikidata": "Q285328", "brand:wikipedia": "en:Commonwealth Bank", "name": "Commonwealth Bank"}}, {"type": "node", "id": 9492200623, "lat": -33.7456479, "lon": 150.836209, "tags": {"amenity": "bank", "brand": "Commonwealth Bank", "brand:wikidata": "Q285328", "brand:wikipedia": "en:Commonwealth Bank", "name": "Commonwealth Bank"}}, {"type": "node", "id": 9610250983, "lat": -33.7516542, "lon": 150.695128, "tags": {"amenity": "bank", "brand": "Westpac", "brand:wikidata": "Q2031726", "brand:wikipedia": "en:Westpac", "level": "0", "name": "Westpac"}}, {"type": "node", "id": 10251609265, "lat": -33.6910666, "lon": 150.9260732, "tags": {"amenity": "bank", "brand": "Commonwealth Bank", "brand:wikidata": "Q285328", "name": "Commonwealth Bank"}}, {"type": "node", "id": 10251749421, "lat": -33.6906905, "lon": 150.926232, "tags": {"amenity": "bank", "brand": "Westpac", "brand:wikidata": "Q2031726", "name": "Westpac"}}, {"type": "node", "id": 10251749422, "lat": -33.6907778, "lon": 150.9262829, "tags": {"amenity": "bank", "brand": "NAB", "brand:wikidata": "Q1430985", "name": "NAB"}}, {"type": "node", "id": 10251749424, "lat": -33.690963, "lon": 150.9263655, "tags": {"amenity": "bank", "brand": "ANZ", "brand:wikidata": "Q714641", "name": "ANZ", "official_name": "Australia and New Zealand Banking Group Limited"}}, {"type": "node", "id": 10251749425, "lat": -33.6912924, "lon": 150.9265166, "tags": {"amenity": "bank", "brand": "St.George", "brand:wikidata": "Q1606050", "name": "St.George"}}, {"type": "node", "id": 10588120658, "lat": -33.5980931, "lon": 150.7541155, "tags": {"amenity": "bank", "brand": "ANZ", "brand:wikidata": "Q714641", "name": "ANZ", "official_name": "Australia and New Zealand Banking Group Limited"}}, {"type": "node", "id": 10592541996, "lat": -33.6075485, "lon": 150.8191174, "tags": {"amenity": "bank", "brand": "Westpac", "brand:wikidata": "Q2031726", "name": "Westpac"}}]}