{"version": 0.6, "generator": "Overpass API 0.7.60 f4c14d41", "osm3s": {"timestamp_osm_base": "2023-05-02T21:16:21Z", "copyright": "The data included in this document is from www.openstreetmap.org. The data is made available under ODbL."}, "elements": [{"type": "node", "id": 278086087, "lat": 41.0260114, "lon": 29.0166111, "tags": {"amenity": "fast_food", "brand": "McDonald's", "brand:en": "McDonald's", "brand:ru": "\u041c\u0430\u043a\u0414\u043e\u043d\u0430\u043b\u0434\u0441", "brand:uk": "\u041c\u0430\u043a\u0414\u043e\u043d\u0430\u043b\u044c\u0434\u0437", "brand:wikidata": "Q38076", "brand:wikipedia": "en:McDonald's", "cuisine": "burger", "name": "McDonald's", "name:ar": "\u0645\u0637\u0639\u0645 \u0645\u0627\u0643\u062f\u0648\u0646\u0627\u0644\u0632", "name:en": "McDonald's", "name:ja": "\u30de\u30af\u30c9\u30ca\u30eb\u30c9", "name:ru": "\u041c\u0430\u043a\u0414\u043e\u043d\u0430\u043b\u0434\u0441", "name:uk": "\u041c\u0430\u043a\u0414\u043e\u043d\u0430\u043b\u044c\u0434\u0437", "operator": "McDonald's", "phone": "+90 212 444 6262", "takeaway": "yes"}}, {"type": "node", "id": 566635090, "lat": 41.0047902, "lon": 28.9791698, "tags": {"amenity": "fast_food", "cuisine": "kebab", "name": "Hayat Cafe"}}, {"type": "node", "id": 654197449, "lat": 41.0275368, "lon": 28.9802602, "tags": {"addr:full": "Bo\u011fazkesen Cad. No: 11, Tophane", "amenity": "fast_food", "name": "D\u00fcr\u00fcmc\u00fc Ismail Usta", "name:ar": "\u062f\u0631\u0645\u062c\u0648 \u0627\u0633\u0645\u0627\u0639\u064a\u0644 \u0623\u0648\u0633\u062a\u0627"}}, {"type": "node", "id": 654377692, "lat": 41.0299782, "lon": 28.9795176, "tags": {"amenity": "fast_food", "name": "B\u00f6rekci", "name:ar": "\u0628\u0648\u0631\u064a\u0643\u062c\u064a"}}, {"type": "node", "id": 654379431, "lat": 41.0293702, "lon": 28.9796765, "tags": {"amenity": "fast_food", "name": "B\u00f6rekci", "name:ar": "\u0628\u0648\u0631\u064a\u0643\u062c\u064a"}}, {"type": "node", "id": 656087307, "lat": 41.0315833, "lon": 28.9821627, "tags": {"amenity": "fast_food", "name": "B\u00f6rekci", "name:ar": "\u0628\u0648\u0631\u064a\u0643\u062c\u064a", "wheelchair": "no"}}, {"type": "node", "id": 656274076, "lat": 41.0341142, "lon": 28.9767629, "tags": {"amenity": "fast_food", "name": "B\u00f6rek\u00e7i", "name:ar": "\u0628\u0648\u0631\u064a\u0643\u062a\u0634\u064a"}}, {"type": "node", "id": 803406864, "lat": 41.034356, "lon": 28.9821147, "tags": {"amenity": "fast_food", "name": "Yemek - 24 saat a\u00e7\u0131k", "name:ar": "\u064a\u0645\u064a\u0643 - 24 \u0633\u0627\u0639\u0627\u062a \u0627\u062a\u0634\u064a\u0643"}}, {"type": "node", "id": 811076127, "lat": 41.0346349, "lon": 28.976516, "tags": {"amenity": "fast_food", "name": "B\u00f6rekci", "name:ar": "\u0628\u0648\u0631\u064a\u0643\u062c\u064a"}}, {"type": "node", "id": 1000022724, "lat": 41.0103592, "lon": 28.9788951, "tags": {"addr:city": "Istanbul", "addr:country": "TR", "addr:housenumber": "22", "addr:street": "Alemdar Caddesi", "addr:suburb": "Sultanahmet", "air_conditioning": "yes", "amenity": "fast_food", "diet:vegetarian": "no", "indoor_seating": "yes", "name": "Ayasofia D\u00f6nercisi", "note": "very good G\u00f6zleme served", "outdoor_seating": "no"}}, {"type": "node", "id": 1179382061, "lat": 40.9923255, "lon": 29.0233865}, {"type": "node", "id": 1179382069, "lat": 40.9922928, "lon": 29.02346}, {"type": "node", "id": 1179382084, "lat": 40.9922594, "lon": 29.0233351}, {"type": "node", "id": 1179382103, "lat": 40.9922268, "lon": 29.0234086}, {"type": "node", "id": 1769499554, "lat": 41.0041002, "lon": 29.0443078, "tags": {"addr:city": "\u0130stanbul", "addr:country": "TR", "addr:street": "Ac\u0131badem Caddesi", "amenity": "fast_food", "name": "Kom\u015fu F\u0131r\u0131n"}}, {"type": "node", "id": 1772575295, "lat": 41.0253719, "lon": 28.975004, "tags": {"amenity": "fast_food", "name": "galata pilavcisi", "wheelchair": "designated"}}, {"type": "node", "id": 1902991719, "lat": 40.9719277, "lon": 29.0594035, "tags": {"addr:housenumber": "229", "addr:street": "Ba\u011fdat Caddesi", "amenity": "fast_food", "cuisine": "burger", "name": "Kristal B\u00fcfe Caddebostan", "source": "GPS", "website": "http://kristalbufe.com.tr/"}}, {"type": "node", "id": 1914160120, "lat": 41.006557, "lon": 28.978369, "tags": {"amenity": "fast_food", "check_date": "2022-11-12", "cuisine": "kebab", "name": "Dervi\u015f Cafe"}}, {"type": "node", "id": 1914323287, "lat": 40.989147, "lon": 29.0226195, "tags": {"address": "M\u00fch\u00fcrdar Cad. Misbah Muayye\u015f Sk. No: 6/4", "amenity": "fast_food", "name": "Ci\u011ferci Hulusi", "phone": "0216 336 11 23"}}, {"type": "node", "id": 2172036622, "lat": 41.0359785, "lon": 28.9850541, "tags": {"amenity": "fast_food", "brand": "Burger King", "brand:wikidata": "Q177054", "brand:wikipedia": "en:Burger King", "cuisine": "burger", "name": "Burger King", "takeaway": "yes", "wheelchair": "no"}}, {"type": "node", "id": 2239983727, "lat": 40.9927725, "lon": 29.1277292, "tags": {"amenity": "fast_food", "brand": "McDonald's", "brand:wikidata": "Q38076", "brand:wikipedia": "en:McDonald's", "cuisine": "burger", "name": "McDonald's", "takeaway": "yes", "wheelchair": "limited"}}, {"type": "node", "id": 2340473571, "lat": 41.0112261, "lon": 29.1793492, "tags": {"amenity": "fast_food", "brand": "McDonald's", "brand:wikidata": "Q38076", "brand:wikipedia": "en:McDonald's", "cuisine": "burger", "name": "McDonald's", "takeaway": "yes"}}, {"type": "node", "id": 2385652990, "lat": 40.8102209, "lon": 29.369088, "tags": {"amenity": "fast_food", "brand": "McDonald's", "brand:wikidata": "Q38076", "brand:wikipedia": "en:McDonald's", "cuisine": "burger", "name": "McDonald's", "takeaway": "yes"}}, {"type": "node", "id": 2433367010, "lat": 40.9875674, "lon": 29.0269901, "tags": {"amenity": "fast_food", "name": "Pilav D\u00fcnyas\u0131"}}, {"type": "node", "id": 2433367018, "lat": 40.98741, "lon": 29.0276167, "tags": {"amenity": "fast_food", "name": "Tek B\u00fcfe 7"}}, {"type": "node", "id": 2434578174, "lat": 40.9638186, "lon": 29.0643544}, {"type": "node", "id": 2434578178, "lat": 40.9639195, "lon": 29.0641535}, {"type": "node", "id": 2434578185, "lat": 40.9640869, "lon": 29.0645906}, {"type": "node", "id": 2434578189, "lat": 40.9641877, "lon": 29.0643898}, {"type": "node", "id": 2435301465, "lat": 40.9833113, "lon": 29.0404266, "tags": {"amenity": "fast_food", "name": "Kasap D\u00f6ner"}}, {"type": "node", "id": 2435301575, "lat": 40.9835688, "lon": 29.040103, "tags": {"amenity": "fast_food", "name": "\u015eampiyon Kokore\u00e7"}}, {"type": "node", "id": 2435483550, "lat": 40.9899741, "lon": 29.0246531, "tags": {"amenity": "fast_food", "name": "Borsam Ta\u015ff\u0131r\u0131n", "name:en": "Borsam Ta\u015ff\u0131r\u0131n Carsi"}}, {"type": "node", "id": 2435483560, "lat": 40.9905919, "lon": 29.0248543, "tags": {"amenity": "fast_food", "name": "Hac\u0131o\u011flu"}}, {"type": "node", "id": 2435483563, "lat": 40.9896999, "lon": 29.0245378, "tags": {"amenity": "fast_food", "name": "Halil Lahmacun"}}, {"type": "node", "id": 2437539127, "lat": 40.9631606, "lon": 29.0638775}, {"type": "node", "id": 2437539129, "lat": 40.9631853, "lon": 29.0639314}, {"type": "node", "id": 2437539131, "lat": 40.9631941, "lon": 29.0638506}, {"type": "node", "id": 2437539133, "lat": 40.9632188, "lon": 29.0639045}, {"type": "node", "id": 2437539358, "lat": 40.9856322, "lon": 29.0371253, "tags": {"amenity": "fast_food", "name": "\u00c7i\u011f K\u00f6fteci Gakgo\u015f Usta"}}, {"type": "node", "id": 2445138825, "lat": 40.9911884, "lon": 29.023873, "tags": {"amenity": "fast_food", "name": "Bambi"}}, {"type": "node", "id": 2445278863, "lat": 40.9893782, "lon": 29.0238722, "tags": {"amenity": "fast_food", "name": "Bombac\u0131 M\u00fclayim"}}, {"type": "node", "id": 2446048558, "lat": 40.9879195, "lon": 29.0315988, "tags": {"amenity": "fast_food", "name": "\u00c7i\u011f K\u00f6fteci Sait Usta"}}, {"type": "node", "id": 2446513057, "lat": 40.9896543, "lon": 29.0268724, "tags": {"amenity": "fast_food", "name": "Borsam Ta\u015ff\u0131r\u0131n", "name:en": "Borsam Ta\u015ff\u0131r\u0131n Bahariye"}}, {"type": "node", "id": 2447719710, "lat": 40.9533182, "lon": 29.0950714, "tags": {"amenity": "fast_food", "branch": "Bostanc\u0131 \u0130skele", "brand": "Burger King", "brand:wikidata": "Q177054", "brand:wikipedia": "en:Burger King", "cuisine": "burger", "name": "Burger King", "takeaway": "yes"}}, {"type": "node", "id": 2448741532, "lat": 40.9557392, "lon": 29.0995579, "tags": {"amenity": "fast_food", "brand": "Burger King", "brand:wikidata": "Q177054", "brand:wikipedia": "en:Burger King", "cuisine": "burger", "name": "Burger King", "takeaway": "yes"}}, {"type": "node", "id": 2448741533, "lat": 40.955541, "lon": 29.0998846, "tags": {"alt_name": "Kentucky Fried Chicken", "amenity": "fast_food", "brand": "KFC", "brand:wikidata": "Q524757", "brand:wikipedia": "en:KFC", "cuisine": "chicken", "name": "KFC", "takeaway": "yes"}}, {"type": "node", "id": 2448741536, "lat": 40.9556775, "lon": 29.0996456, "tags": {"amenity": "fast_food", "brand": "Popeyes", "brand:wikidata": "Q1330910", "brand:wikipedia": "en:Popeyes", "cuisine": "chicken", "name": "Popeyes", "official_name": "Popeyes Louisiana Kitchen", "takeaway": "yes"}}, {"type": "node", "id": 2449446058, "lat": 40.9929536, "lon": 29.025064, "tags": {"amenity": "fast_food", "name": "Etiler Marmaris"}}, {"type": "node", "id": 2449446063, "lat": 40.9923932, "lon": 29.0250004, "tags": {"amenity": "fast_food", "name": "Marmaris B\u00fcfe"}}, {"type": "node", "id": 2449446064, "lat": 40.9949269, "lon": 29.0249316, "tags": {"amenity": "fast_food", "name": "Me\u015fhur Kokore\u00e7\u00e7i Adem Usta", "shop": "travel_agency"}}, {"type": "node", "id": 2450075003, "lat": 40.9880769, "lon": 29.0337387, "tags": {"amenity": "fast_food", "brand": "Domino's", "brand:wikidata": "Q839466", "brand:wikipedia": "en:Domino's Pizza", "cuisine": "pizza", "name": "Domino's", "takeaway": "yes"}}, {"type": "node", "id": 2450942861, "lat": 40.9892234, "lon": 29.0238873}, {"type": "node", "id": 2450942863, "lat": 40.9893044, "lon": 29.0239477}, {"type": "node", "id": 2450942865, "lat": 40.9892729, "lon": 29.0237705}, {"type": "node", "id": 2453479299, "lat": 40.9909156, "lon": 29.0275652, "tags": {"amenity": "fast_food", "name": "Bambi"}}, {"type": "node", "id": 2453594559, "lat": 40.9906953, "lon": 29.0298256, "tags": {"amenity": "fast_food", "brand": "Burger King", "brand:wikidata": "Q177054", "brand:wikipedia": "en:Burger King", "cuisine": "burger", "name": "Burger King", "takeaway": "yes"}}, {"type": "node", "id": 2469162819, "lat": 40.9531933, "lon": 29.0951743, "tags": {"amenity": "fast_food", "name": "Marmaris B\u00fcfe"}}, {"type": "node", "id": 2469162852, "lat": 40.9532661, "lon": 29.0957609, "tags": {"amenity": "fast_food", "name": "\u00c7\u0131naralt\u0131 Kokore\u00e7"}}, {"type": "node", "id": 2469162854, "lat": 40.9531056, "lon": 29.0950953, "tags": {"amenity": "fast_food", "name": "\u015eampiyon Kokore\u00e7"}}, {"type": "node", "id": 2501477688, "lat": 40.9874676, "lon": 29.0253142, "tags": {"amenity": "fast_food", "cuisine": "\u00e7i\u011fk\u00f6fte", "name": "Sems\u00fcr \u00c7i\u011fk\u00f6fte"}}, {"type": "node", "id": 2514268418, "lat": 40.9972839, "lon": 29.1407343, "tags": {"amenity": "fast_food", "brand": "Burger King", "brand:wikidata": "Q177054", "brand:wikipedia": "en:Burger King", "cuisine": "burger", "name": "Burger King", "takeaway": "yes"}}, {"type": "node", "id": 2514268421, "lat": 40.9973362, "lon": 29.1401927, "tags": {"amenity": "fast_food", "brand": "McDonald's", "brand:wikidata": "Q38076", "brand:wikipedia": "en:McDonald's", "cuisine": "burger", "name": "McDonald's", "takeaway": "yes"}}, {"type": "node", "id": 2588433606, "lat": 40.9956301, "lon": 29.1066259, "tags": {"addr:housename": "Uphill Court Ticaret Merkezi", "addr:postcode": "34746", "addr:street": "Ihlamur Sokak", "amenity": "fast_food", "brand": "Burger King", "brand:wikidata": "Q177054", "brand:wikipedia": "en:Burger King", "capacity": "40", "cuisine": "burger", "name": "Burger King", "takeaway": "yes"}}, {"type": "node", "id": 2621952254, "lat": 40.9874226, "lon": 29.0275414, "tags": {"amenity": "fast_food", "name": "Hat D\u00f6ner"}}, {"type": "node", "id": 2647741014, "lat": 40.9763265, "lon": 29.1516833, "tags": {"amenity": "fast_food", "brand": "McDonald's", "brand:wikidata": "Q38076", "brand:wikipedia": "en:McDonald's", "cuisine": "burger", "name": "McDonald's", "takeaway": "yes"}}, {"type": "node", "id": 2647741019, "lat": 40.9753929, "lon": 29.153101, "tags": {"amenity": "fast_food", "name": "Pilav D\u00fcnyas\u0131"}}, {"type": "node", "id": 2656310455, "lat": 41.0031719, "lon": 29.0439629, "tags": {"addr:city": "\u0130stanbul", "addr:housenumber": "128", "addr:street": "Ac\u0131badem Caddesi", "amenity": "fast_food", "brand": "McDonald's", "brand:wikidata": "Q38076", "brand:wikipedia": "en:McDonald's", "cuisine": "burger", "name": "McDonald's", "takeaway": "yes"}}, {"type": "node", "id": 2850946724, "lat": 40.9583318, "lon": 29.1887956, "tags": {"amenity": "fast_food", "name": "Kantin"}}, {"type": "node", "id": 2850946725, "lat": 40.959067, "lon": 29.1911009, "tags": {"amenity": "fast_food", "name": "Kantin"}}, {"type": "node", "id": 2850946726, "lat": 40.9584418, "lon": 29.1902995, "tags": {"amenity": "fast_food", "name": "Hukuk Fak\u00fcltesi Kantini"}}, {"type": "node", "id": 2850946727, "lat": 40.9596494, "lon": 29.1920907, "tags": {"amenity": "fast_food", "name": "Kantin"}}, {"type": "node", "id": 2852277796, "lat": 40.9602595, "lon": 29.190781, "tags": {"amenity": "fast_food", "name": "Kantin"}}, {"type": "node", "id": 2874381163, "lat": 40.876817, "lon": 29.2358268, "tags": {"amenity": "fast_food", "brand": "Burger King", "brand:wikidata": "Q177054", "brand:wikipedia": "en:Burger King", "cuisine": "burger", "name": "Burger King", "takeaway": "yes"}}, {"type": "node", "id": 2902932726, "lat": 41.0252943, "lon": 29.1255882, "tags": {"amenity": "fast_food", "brand": "IKEA", "brand:wikidata": "Q54078", "brand:wikipedia": "en:IKEA", "cuisine": "swedish", "name": "IKEA Restaurant", "name:ru": "\u0420\u0435\u0441\u0442\u043e\u0440\u0430\u043d \u0418\u041a\u0415\u0410", "takeaway": "yes", "toilets:wheelchair": "yes", "wheelchair": "yes"}}, {"type": "node", "id": 2982679786, "lat": 41.0361779, "lon": 28.9847046, "tags": {"amenity": "fast_food", "cuisine": "kebab", "name": "Taksim D\u00f6ner"}}, {"type": "node", "id": 2982682484, "lat": 41.0362097, "lon": 28.9846326, "tags": {"amenity": "fast_food", "name": "K\u0131z\u0131lkayalar", "name:el": "\u03bc\u03c0\u03ad\u03c1\u03b3\u03ba\u03b5\u03c1"}}, {"type": "node", "id": 2990375617, "lat": 40.986853, "lon": 29.0310928, "tags": {"amenity": "fast_food", "name": "Me\u015fhur Ad\u0131yaman \u00c7i\u011f K\u00f6ftecisi"}}, {"type": "node", "id": 2999419475, "lat": 40.9708604, "lon": 29.0833317, "tags": {"amenity": "fast_food", "brand": "Burger King", "brand:wikidata": "Q177054", "brand:wikipedia": "en:Burger King", "cuisine": "burger", "name": "Burger King", "takeaway": "yes"}}, {"type": "node", "id": 3053092998, "lat": 40.9732491, "lon": 29.0568684, "tags": {"amenity": "fast_food", "name": "Bar\u0131\u015f B\u00fcfe"}}, {"type": "node", "id": 3156398840, "lat": 41.0184045, "lon": 28.9711966}, {"type": "node", "id": 3156398841, "lat": 41.0183446, "lon": 28.9711449}, {"type": "node", "id": 3156398842, "lat": 41.0183112, "lon": 28.9712227}, {"type": "node", "id": 3156398843, "lat": 41.0183653, "lon": 28.9712732}, {"type": "node", "id": 3281304692, "lat": 40.9928451, "lon": 29.0250605, "tags": {"amenity": "fast_food", "name": "Ad\u0131yaman \u00c7i\u011f Koftecisi"}}, {"type": "node", "id": 3281304693, "lat": 40.9932882, "lon": 29.0250757, "tags": {"amenity": "fast_food", "name": "Doyuran"}}, {"type": "node", "id": 3452205488, "lat": 41.0311645, "lon": 28.975743, "tags": {"amenity": "fast_food", "brand": "Burger King", "brand:wikidata": "Q177054", "brand:wikipedia": "en:Burger King", "cuisine": "burger", "name": "Burger King", "takeaway": "yes", "wheelchair": "no"}}, {"type": "node", "id": 3452205893, "lat": 41.0317476, "lon": 28.9761587, "tags": {"amenity": "fast_food", "cuisine": "turkish", "name": "Patatos"}}, {"type": "node", "id": 3453711783, "lat": 41.0254794, "lon": 28.9798516, "tags": {"amenity": "fast_food", "cuisine": "burger", "name": "Burgerlab", "name:tr": "Burgerlab"}}, {"type": "node", "id": 3453817695, "lat": 41.0302175, "lon": 28.9755854, "tags": {"amenity": "fast_food", "cuisine": "turkish", "name": "Kasap Doner", "wheelchair": "no"}}, {"type": "node", "id": 3457706724, "lat": 41.0167889, "lon": 28.976238, "tags": {"amenity": "fast_food", "cuisine": "regional", "name": "Semb\u00f6l b\u00fcfe"}}, {"type": "node", "id": 3459046122, "lat": 41.0358738, "lon": 28.9829001, "tags": {"amenity": "fast_food", "brand": "Burger King", "brand:wikidata": "Q177054", "brand:wikipedia": "en:Burger King", "check_date": "2022-11-27", "cuisine": "burger", "level": "-1", "name": "Burger King", "name:en": "Burger King", "payment:mastercard": "yes", "payment:visa": "yes", "takeaway": "yes", "wheelchair": "no"}}, {"type": "node", "id": 3459046127, "lat": 41.0354442, "lon": 28.9822654, "tags": {"amenity": "fast_food", "brand": "McDonald's", "brand:wikidata": "Q38076", "brand:wikipedia": "en:McDonald's", "check_date": "2022-12-10", "cuisine": "burger", "level": "0", "name": "McDonald's", "name:en": "McDonald's", "name:ja": "\u30de\u30af\u30c9\u30ca\u30eb\u30c9", "payment:mastercard": "yes", "payment:visa": "yes", "takeaway": "yes", "wheelchair": "no"}}, {"type": "node", "id": 3465524883, "lat": 40.8887928, "lon": 29.3786694}, {"type": "node", "id": 3465524884, "lat": 40.8888154, "lon": 29.3787741}, {"type": "node", "id": 3465524885, "lat": 40.8887488, "lon": 29.378804}, {"type": "node", "id": 3465526095, "lat": 40.8887281, "lon": 29.3786966}, {"type": "node", "id": 3465526100, "lat": 40.8887374, "lon": 29.3787497}, {"type": "node", "id": 3499034005, "lat": 41.0087525, "lon": 28.9682769, "tags": {"amenity": "fast_food", "brand": "McDonald's", "brand:wikidata": "Q38076", "brand:wikipedia": "en:McDonald's", "cuisine": "burger", "name": "McDonald's", "takeaway": "yes", "wheelchair": "limited"}}, {"type": "node", "id": 3499040566, "lat": 41.0080972, "lon": 28.9741991, "tags": {"addr:city": "Istanbul", "addr:district": "Fatih", "addr:street": "Divanyolu Caddesi", "amenity": "fast_food", "brand": "McDonald's", "brand:wikidata": "Q38076", "brand:wikipedia": "en:McDonald's", "cuisine": "burger", "name": "McDonald's", "name:ar": "\u0645\u0627\u0643\u062f\u0648\u0646\u0627\u0644\u062f\u0632", "name:en": "McDonald's", "name:ja": "\u30de\u30af\u30c9\u30ca\u30eb\u30c9", "name:tr": "\u0411\u0438\u0433\u043c\u0430\u0447\u043d\u0430\u044f", "takeaway": "yes", "wheelchair": "limited"}}, {"type": "node", "id": 3537303436, "lat": 40.9733492, "lon": 29.0566384, "tags": {"amenity": "fast_food", "cuisine": "turkish", "name": "Marmaris B\u00fcfe"}}, {"type": "node", "id": 3578825463, "lat": 41.0159955, "lon": 29.0755825, "tags": {"amenity": "fast_food", "brand": "McDonald's", "brand:wikidata": "Q38076", "brand:wikipedia": "en:McDonald's", "cuisine": "burger", "delivery": "yes", "name": "McDonald's", "smoking": "outside", "takeaway": "yes", "wheelchair": "yes"}}, {"type": "node", "id": 3804788213, "lat": 40.995909, "lon": 29.0242067, "tags": {"amenity": "fast_food"}}, {"type": "node", "id": 3804788222, "lat": 40.9968565, "lon": 29.0235962, "tags": {"amenity": "fast_food"}}, {"type": "node", "id": 3817826558, "lat": 40.9879268, "lon": 29.0243363, "tags": {"amenity": "fast_food", "cuisine": "turkish", "name": "B\u00fctme Evi G\u00f6zleme"}}, {"type": "node", "id": 3817961596, "lat": 41.0268292, "lon": 28.9782236, "tags": {"amenity": "fast_food", "cuisine": "turkish", "name": "Kulinata", "wheelchair": "no"}}, {"type": "node", "id": 4100513989, "lat": 40.9885585, "lon": 29.0277437, "tags": {"addr:street": "Nail Bey Soka\u011f\u0131", "amenity": "fast_food", "name": "Sayla Mant\u0131"}}, {"type": "node", "id": 4102159089, "lat": 40.988487, "lon": 29.0273987, "tags": {"amenity": "fast_food", "cuisine": "burger", "disused:amenity": "cafe", "disused:name": "Casual", "name": "Betro Burgers"}}, {"type": "node", "id": 4102455892, "lat": 40.9901803, "lon": 29.0288893, "tags": {"addr:street": "Bestekar Dilhayat Soka\u011f\u0131", "alt_name": "Kentucky Fried Chicken", "amenity": "fast_food", "brand": "KFC", "brand:wikidata": "Q524757", "brand:wikipedia": "en:KFC", "cuisine": "chicken", "name": "KFC", "takeaway": "yes"}}, {"type": "node", "id": 4105318289, "lat": 40.9887208, "lon": 29.0274086, "tags": {"addr:street": "Aray\u0131c\u0131ba\u015f\u0131 Soka\u011f\u0131", "amenity": "fast_food", "name": "Pilav Station"}}, {"type": "node", "id": 4161519276, "lat": 41.0484497, "lon": 29.0266092, "tags": {"amenity": "fast_food", "name": "NewYork Fries", "wheelchair": "yes"}}, {"type": "node", "id": 4161519277, "lat": 41.0484334, "lon": 29.026494, "tags": {"amenity": "fast_food", "name": "Suadiye Marmaris", "wheelchair": "yes"}}, {"type": "node", "id": 4161524050, "lat": 41.04836, "lon": 29.026104, "tags": {"amenity": "fast_food", "name": "Kasap Doner", "wheelchair": "yes"}}, {"type": "node", "id": 4162021183, "lat": 41.0491334, "lon": 29.0264974, "tags": {"amenity": "fast_food", "brand": "Domino's", "brand:wikidata": "Q839466", "brand:wikipedia": "en:Domino's Pizza", "cuisine": "pizza", "name": "Domino's", "takeaway": "yes", "wheelchair": "yes"}}, {"type": "node", "id": 4228186894, "lat": 41.036202, "lon": 28.9846011, "tags": {"addr:street": "Taksim Meydan\u0131", "amenity": "fast_food", "brand": "Burger King", "brand:wikidata": "Q177054", "brand:wikipedia": "en:Burger King", "cuisine": "burger", "name": "Burger King", "name:ru": "\u0411\u0443\u0440\u0433\u0435\u0440 \u041a\u0438\u043d\u0433", "takeaway": "yes"}}, {"type": "node", "id": 4369636425, "lat": 41.0106999, "lon": 28.9701014, "tags": {"amenity": "fast_food", "name": "D\u00f6nerci Sahin Usta"}}, {"type": "node", "id": 4395626789, "lat": 40.9733539, "lon": 29.041244, "tags": {"amenity": "fast_food", "name": "Buffe", "name:tr": "Buffe"}}, {"type": "node", "id": 4395626791, "lat": 40.982619, "lon": 29.0392807, "tags": {"amenity": "fast_food", "name": "B\u00fcfe", "name:tr": "B\u00fcfe"}}, {"type": "node", "id": 4416236590, "lat": 40.9530339, "lon": 29.1002282, "tags": {"amenity": "fast_food", "brand": "Domino's", "brand:wikidata": "Q839466", "brand:wikipedia": "en:Domino's Pizza", "cuisine": "pizza", "name": "Domino's", "name:tr": "Domino's Pizza", "short_name": "Domino's", "takeaway": "yes"}}, {"type": "node", "id": 4416272689, "lat": 40.9529684, "lon": 29.1005592, "tags": {"amenity": "fast_food", "brand": "Little Caesars", "brand:wikidata": "Q1393809", "brand:wikipedia": "en:Little Caesars", "cuisine": "pizza", "name": "Little Caesars", "name:tr": "Little Ceasar's Pizza", "takeaway": "yes"}}, {"type": "node", "id": 4417671241, "lat": 40.9851577, "lon": 29.0249862, "tags": {"amenity": "fast_food", "cuisine": "kebab", "name:en": "Cigk\u00f6fte M"}}, {"type": "node", "id": 4419095995, "lat": 40.9866004, "lon": 29.0257795, "tags": {"amenity": "fast_food", "name": "Pide Sun", "name:en": "Pide Sun"}}, {"type": "node", "id": 4427098989, "lat": 41.0048853, "lon": 29.0449572, "tags": {"alt_name": "Kentucky Fried Chicken", "amenity": "fast_food", "brand": "KFC", "brand:wikidata": "Q524757", "brand:wikipedia": "en:KFC", "cuisine": "chicken", "name": "KFC", "name:en": "KFC Acibadem", "opening_hours": "Mo-Su 10:00-13:00, 19:00-23:00", "takeaway": "yes"}}, {"type": "node", "id": 4435520394, "lat": 40.9732706, "lon": 29.1460305, "tags": {"addr:street": "\u00e7im sokak", "amenity": "fast_food", "internet_access": "wlan", "name": "Durum b\u00fcs", "name:en": "Durumbus", "name:tr": "Durum b\u00fcs", "opening_hours": "24/7"}}, {"type": "node", "id": 4458778090, "lat": 41.0330929, "lon": 28.987503, "tags": {"amenity": "fast_food", "brand": "Domino's", "brand:wikidata": "Q839466", "brand:wikipedia": "en:Domino's Pizza", "cuisine": "pizza", "name": "Domino's", "name:en": "Domino's Pizza", "takeaway": "yes"}}, {"type": "node", "id": 4460648893, "lat": 40.9876049, "lon": 29.0267312, "tags": {"addr:postcode": "34710", "amenity": "fast_food", "cuisine": "pizza", "name": "Gorgonzo"}}, {"type": "node", "id": 4470268990, "lat": 40.9464849, "lon": 29.1149216, "tags": {"addr:street": "basakci sokak", "amenity": "fast_food", "name": "Pideci \u00c7avu\u015fo\u011flu", "name:tr": "Pideci \u00c7avu\u015fo\u011flu", "phone": "+902164177230"}}, {"type": "node", "id": 4504321793, "lat": 40.9927974, "lon": 29.0250503, "tags": {"amenity": "fast_food", "name": "Borsam Ta\u015f F\u0131r\u0131n R\u0131ht\u0131m", "name:tr": "Borsam TasFirin Rihtim"}}, {"type": "node", "id": 4535688364, "lat": 41.0170632, "lon": 29.1376938, "tags": {"amenity": "fast_food", "name": "Av\u015fa B\u00fcfe"}}, {"type": "node", "id": 4537592814, "lat": 41.0139216, "lon": 29.1341292}, {"type": "node", "id": 4537592815, "lat": 41.0138467, "lon": 29.1341023}, {"type": "node", "id": 4537592816, "lat": 41.0138285, "lon": 29.1342311}, {"type": "node", "id": 4537592817, "lat": 41.0139013, "lon": 29.134266}, {"type": "node", "id": 4541807093, "lat": 40.9833444, "lon": 29.0404849, "tags": {"amenity": "fast_food", "name:en": "Dobbys Burger place"}}, {"type": "node", "id": 4544917698, "lat": 41.0161593, "lon": 29.129736, "tags": {"amenity": "fast_food", "name": "Alkan B\u00f6rek", "wheelchair": "no"}}, {"type": "node", "id": 4557740445, "lat": 41.0321902, "lon": 29.1795637, "tags": {"addr:city": "\u0130stanbul \u00c7ekmek\u00f6y", "addr:postcode": "34782", "addr:street": "Mimar Sinan Caddesi", "amenity": "fast_food", "brand": "Domino's", "brand:wikidata": "Q839466", "brand:wikipedia": "en:Domino's Pizza", "cuisine": "pizza", "delivery": "yes", "name": "Domino's", "takeaway": "yes"}}, {"type": "node", "id": 4560399596, "lat": 41.0280383, "lon": 29.0971304, "tags": {"addr:street": "Can sokak", "amenity": "fast_food", "cuisine": "turkish", "name": "\u00c7i\u011f k\u00f6fteci Aziz Usta"}}, {"type": "node", "id": 4560457347, "lat": 41.0096776, "lon": 29.2156855, "tags": {"amenity": "fast_food", "name": "Ad\u0131 G\u00fczel D\u00f6ner", "smoking": "no"}}, {"type": "node", "id": 4560961621, "lat": 40.9244386, "lon": 29.1313581, "tags": {"amenity": "fast_food", "name": "Simit Saray\u0131"}}, {"type": "node", "id": 4561668192, "lat": 40.9107359, "lon": 29.2105182, "tags": {"amenity": "fast_food", "name": "Uptwins Deluxe Residence", "name:tr": "Uptwins Deluxe Residence"}}, {"type": "node", "id": 4564012195, "lat": 41.0171904, "lon": 29.1349599}, {"type": "node", "id": 4564012196, "lat": 41.0174574, "lon": 29.1351528}, {"type": "node", "id": 4564012197, "lat": 41.0174961, "lon": 29.1349776}, {"type": "node", "id": 4564012198, "lat": 41.0172438, "lon": 29.1347953}, {"type": "node", "id": 4564042372, "lat": 40.9239382, "lon": 29.1328455, "tags": {"amenity": "fast_food", "name": "Pa\u015fa D\u00f6ner"}}, {"type": "node", "id": 4564042380, "lat": 40.9240263, "lon": 29.1326655, "tags": {"amenity": "fast_food", "name": "Sebzeli D\u00f6ner"}}, {"type": "node", "id": 4565567207, "lat": 41.0086958, "lon": 29.2140251, "tags": {"amenity": "fast_food", "cuisine": "turkish", "name": "Gazi \u00c7i\u011f K\u00f6fte", "smoking": "no", "takeaway": "only"}}, {"type": "node", "id": 4565569055, "lat": 41.0097078, "lon": 29.214856, "tags": {"amenity": "fast_food", "name": "Pizza Pizza", "smoking": "no"}}, {"type": "node", "id": 4567145947, "lat": 40.9150173, "lon": 29.202346, "tags": {"amenity": "fast_food"}}, {"type": "node", "id": 4567390808, "lat": 41.0086511, "lon": 29.213967, "tags": {"amenity": "fast_food", "cuisine": "turkish", "name": "Midyeci \u015e\u00fckr\u00fc Usta", "smoking": "no"}}, {"type": "node", "id": 4570494680, "lat": 40.939818, "lon": 29.1329036, "tags": {"amenity": "fast_food", "brand": "McDonald's", "brand:wikidata": "Q38076", "brand:wikipedia": "en:McDonald's", "cuisine": "burger", "name": "McDonald's", "takeaway": "yes"}}, {"type": "node", "id": 4571512956, "lat": 41.0092464, "lon": 29.2090839, "tags": {"amenity": "fast_food", "brand": "Little Caesars", "brand:wikidata": "Q1393809", "brand:wikipedia": "en:Little Caesars", "cuisine": "pizza", "name": "Little Caesars", "takeaway": "yes"}}, {"type": "node", "id": 4574229906, "lat": 40.920245, "lon": 29.1383319, "tags": {"addr:city": "\u0130stanbul", "addr:housenumber": "481", "addr:postcode": "34844", "addr:street": "Ba\u011fdat Caddesi", "amenity": "fast_food", "cuisine": "regional", "delivery": "no", "drive_through": "no", "name": "safranbolu f\u0131r\u0131n", "opening_hours": "05:00-24:00", "outdoor_seating": "yes", "smoking": "isolated", "takeaway": "yes"}}, {"type": "node", "id": 4574909039, "lat": 40.9520205, "lon": 29.1012867, "tags": {"amenity": "fast_food", "brand": "McDonald's", "brand:wikidata": "Q38076", "brand:wikipedia": "en:McDonald's", "cuisine": "burger", "name": "McDonald's", "takeaway": "yes"}}, {"type": "node", "id": 4576879698, "lat": 41.0115038, "lon": 29.0383925, "tags": {"amenity": "fast_food", "name": "B\u00dcFE KO\u015eUYOLU"}}, {"type": "node", "id": 4576888138, "lat": 41.0113116, "lon": 29.038612}, {"type": "node", "id": 4576888139, "lat": 41.011257, "lon": 29.0385703}, {"type": "node", "id": 4576888140, "lat": 41.0111784, "lon": 29.0387509}, {"type": "node", "id": 4576888141, "lat": 41.011233, "lon": 29.0387926}, {"type": "node", "id": 4576909321, "lat": 41.011371, "lon": 29.0382845, "tags": {"addr:city": "\u00dcsk\u00fcdar/\u0130stanbul", "addr:street": "Ko\u015fuyolu Caddesi", "amenity": "fast_food", "name": "D\u00f6nerli"}}, {"type": "node", "id": 4577171264, "lat": 41.0109748, "lon": 29.0379863, "tags": {"addr:city": "\u00dcsk\u00fcdar/\u0130stanbul", "addr:street": "Ko\u015fuyolu Caddesi", "amenity": "fast_food", "brand": "Papa John's", "brand:wikidata": "Q2759586", "brand:wikipedia": "en:Papa John's Pizza", "cuisine": "pizza", "name": "Papa John's", "takeaway": "yes"}}, {"type": "node", "id": 4577172098, "lat": 41.0109466, "lon": 29.0379467, "tags": {"addr:city": "\u00dcsk\u00fcdar/\u0130stanbul", "addr:street": "Ko\u015fuyolu Caddesi", "amenity": "fast_food", "brand": "Domino's", "brand:wikidata": "Q839466", "brand:wikipedia": "en:Domino's Pizza", "cuisine": "pizza", "name": "Domino's", "takeaway": "yes"}}, {"type": "node", "id": 4577897817, "lat": 40.9341548, "lon": 29.1378864, "tags": {"amenity": "fast_food", "name": "Ya\u011fmur Pide&B\u00f6rek"}}, {"type": "node", "id": 4580351451, "lat": 40.9218992, "lon": 29.1405418, "tags": {"amenity": "fast_food", "name": "Mutlu B\u00fcfe"}}, {"type": "node", "id": 4580411151, "lat": 40.9762666, "lon": 29.1325211, "tags": {"amenity": "fast_food", "name": "\u00c7i\u011fk\u00f6fteci Sait"}}, {"type": "node", "id": 4663040790, "lat": 41.0326501, "lon": 28.9688114, "tags": {"addr:housenumber": "3", "addr:street": "Catma Mescit Cesme Sokagi", "amenity": "fast_food", "cuisine": "local;turkish", "name": "\u00d6z Gaziantep Kebap Lahmacun", "name:de": "super Fladenbrot", "phone": "02122380032"}}, {"type": "node", "id": 4663157604, "lat": 40.9944767, "lon": 29.0251443, "tags": {"addr:city": "istanbul", "addr:district": "kad\u0131k\u00f6y", "addr:neighbourhood": "Rasimpa\u015fa", "addr:street": "Izzettin Sokak", "amenity": "fast_food", "cuisine": "international;sandwich;soup", "delivery": "yes", "drive_through": "yes", "name": "Asker Abi'nin Yeri", "opening_hours": "24/7", "outdoor_seating": "yes", "smoking": "outside", "takeaway": "yes"}}, {"type": "node", "id": 4736291422, "lat": 41.0219274, "lon": 28.9761329, "tags": {"amenity": "fast_food", "name": "Tost\u00e7u Erol", "name:en": "Elif Bufe"}}, {"type": "node", "id": 4736460221, "lat": 40.9870061, "lon": 29.035056, "tags": {"amenity": "fast_food", "brand": "Papa John's", "brand:wikidata": "Q2759586", "brand:wikipedia": "en:Papa John's Pizza", "cuisine": "pizza", "name": "Papa John's", "takeaway": "yes"}}, {"type": "node", "id": 4737705121, "lat": 41.0336609, "lon": 28.9780366, "tags": {"amenity": "fast_food", "name": "Kebab shop", "name:tr": "Kebab shop"}}, {"type": "node", "id": 4740649183, "lat": 40.9870071, "lon": 29.0349796, "tags": {"amenity": "fast_food", "name": "Birtat Mersin Tantuni"}}, {"type": "node", "id": 4740649184, "lat": 40.9869899, "lon": 29.0349032, "tags": {"amenity": "fast_food", "name": "\u015eampiyon Kokore\u00e7"}}, {"type": "node", "id": 4831086822, "lat": 40.9833987, "lon": 29.0297291, "tags": {"amenity": "fast_food", "name": "Sak\u0131z B\u00fcfe", "name:tr": "Sak\u0131z B\u00fcfe"}}, {"type": "node", "id": 4831201054, "lat": 40.989927, "lon": 29.0289216, "tags": {"amenity": "fast_food", "name": "La Pitsa"}}, {"type": "node", "id": 4831201056, "lat": 40.9915574, "lon": 29.0284013, "tags": {"amenity": "fast_food", "name": "Jetbite"}}, {"type": "node", "id": 4831213355, "lat": 40.9884161, "lon": 29.0279897, "tags": {"addr:postcode": "34710", "amenity": "fast_food", "cuisine": "burger", "name": "Salt Fried Chicken", "website": "http://www.saltfriedchicken.com/"}}, {"type": "node", "id": 4833359925, "lat": 40.9873392, "lon": 29.0278449, "tags": {"amenity": "fast_food", "name": "Tarihi Petek B\u00fcfe"}}, {"type": "node", "id": 4889069521, "lat": 41.0324667, "lon": 28.9823398, "tags": {"amenity": "fast_food", "cuisine": "pizza", "name": "Pizza Vegas", "name:en": "Pizza Vegas"}}, {"type": "node", "id": 4889905026, "lat": 40.9753401, "lon": 29.1531788, "tags": {"amenity": "fast_food", "name": "Mektep", "name:en": "Mektep", "name:tr": "Mektep"}}, {"type": "node", "id": 4889959136, "lat": 41.0478688, "lon": 29.0056071, "tags": {"amenity": "fast_food", "cuisine": "burger", "name": "Pe\u010dka"}}, {"type": "node", "id": 4889959430, "lat": 40.9847186, "lon": 29.0268241, "tags": {"amenity": "fast_food", "name": "Bubada", "name:en": "Bubada", "name:tr": "Bubada"}}, {"type": "node", "id": 4890639821, "lat": 41.0321823, "lon": 28.9831528, "tags": {"amenity": "fast_food", "name": "Cihangirli", "name:tr": "Cihangirli"}}, {"type": "node", "id": 4927024308, "lat": 41.0289225, "lon": 28.9737096}, {"type": "node", "id": 4927024309, "lat": 41.0289174, "lon": 28.9736266}, {"type": "node", "id": 4927024310, "lat": 41.0288132, "lon": 28.9736359}, {"type": "node", "id": 4927024311, "lat": 41.0288244, "lon": 28.9737351}, {"type": "node", "id": 4952006421, "lat": 40.9803418, "lon": 29.0233833, "tags": {"addr:housenumber": "3B", "addr:postcode": "34710", "addr:street": "Nene Hatun Soka\u011f\u0131", "amenity": "fast_food", "name": "Rolls and Balls"}}, {"type": "node", "id": 4958334522, "lat": 41.0435139, "lon": 29.0032621, "tags": {"amenity": "fast_food", "name": "\u00c7akmak Kahvalti Salonu"}}, {"type": "node", "id": 5052121126, "lat": 41.0436139, "lon": 29.0041656, "tags": {"amenity": "fast_food", "name": "KASAP D\u00d6NER", "name:tr": "KASAP D\u00d6NER"}}, {"type": "node", "id": 5052121131, "lat": 40.9717571, "lon": 29.0443775, "tags": {"addr:street": "Dr. Faruk Ayano\u011flu Caddesi", "amenity": "fast_food", "brand": "Domino's", "brand:wikidata": "Q839466", "brand:wikipedia": "en:Domino's Pizza", "cuisine": "pizza", "name": "Domino's", "name:tr": "Domino's", "takeaway": "yes"}}, {"type": "node", "id": 5052121132, "lat": 40.9842209, "lon": 29.0431273, "tags": {"addr:street": "K\u0131z\u0131ltoprak \u0130stasyon Caddesi", "amenity": "fast_food", "name": "Ba\u011fdat B\u00f6rek", "name:tr": "Ba\u011fdat B\u00f6rek"}}, {"type": "node", "id": 5052121223, "lat": 40.9841768, "lon": 29.0428811, "tags": {"addr:street": "K\u0131z\u0131ltoprak \u0130stasyon Caddesi", "amenity": "fast_food", "name": "Ersoy Tantoni", "name:tr": "Ersoy Tantoni"}}, {"type": "node", "id": 5052121329, "lat": 40.910392, "lon": 29.0549026, "tags": {"addr:street": "Iskele caddesi", "amenity": "fast_food", "name": "Do\u011fa Kebap", "name:tr": "Do\u011fa Kebap"}}, {"type": "node", "id": 5059232326, "lat": 41.0153493, "lon": 28.975814, "tags": {"addr:city": "Istanbul", "addr:district": "Fatih", "addr:street": "Ankara Caddesi", "amenity": "fast_food", "brand": "Burger King", "brand:wikidata": "Q177054", "brand:wikipedia": "en:Burger King", "cuisine": "burger", "name": "Burger King", "name:en": "Burger King;Burger king", "name:tr": "Burger King", "takeaway": "yes"}}, {"type": "node", "id": 5088183823, "lat": 41.014558, "lon": 28.9750459, "tags": {"amenity": "fast_food", "cuisine": "turkish", "name": "Ali Usta \u00c7ig K\u00f6fte", "name:tr": "Ali Usta Cigk\u00f6fte"}}, {"type": "node", "id": 5100117322, "lat": 41.0296141, "lon": 28.9754519, "tags": {"addr:housenumber": "183", "amenity": "fast_food", "cuisine": "regional", "name:en": "Marmaris bufe", "name:ru": "\u0422\u0443\u0440\u0435\u0446\u043a\u0438\u0435 \u043c\u043e\u043a\u0440\u044b\u0435 \u0431\u0443\u0440\u0433\u0435\u0440\u044b", "wheelchair": "limited"}}, {"type": "node", "id": 5101371121, "lat": 41.0314695, "lon": 28.9842809, "tags": {"amenity": "fast_food", "cuisine": "chicken", "delivery": "yes", "diet:vegetarian": "no", "drive_through": "no", "internet_access": "wlan", "name": "Juste Fried Chicken", "outdoor_seating": "yes", "survey:date": "2021-12-17", "takeaway": "yes", "wheelchair": "no"}}, {"type": "node", "id": 5106523029, "lat": 41.0083782, "lon": 28.9692955, "tags": {"amenity": "fast_food", "brand": "Burger King", "brand:wikidata": "Q177054", "brand:wikipedia": "en:Burger King", "cuisine": "burger", "name": "Burger King", "name:en": "Burger King", "takeaway": "yes"}}, {"type": "node", "id": 5108828645, "lat": 41.0143288, "lon": 28.9768514, "tags": {"addr:city": "Istanbul", "addr:district": "Fatih", "addr:street": "\u0130stasyon Arkas\u0131 Sokak", "amenity": "fast_food", "cuisine": "chinese", "name": "Lak Lak Fast Food", "phone": "+90 212 527 06 06"}}, {"type": "node", "id": 5108828647, "lat": 41.0142721, "lon": 28.9769816, "tags": {"addr:city": "Istanbul", "addr:district": "Fatih", "addr:street": "N\u00f6bethane caddesi", "amenity": "fast_food", "brand": "Domino's", "brand:wikidata": "Q839466", "brand:wikipedia": "en:Domino's Pizza", "cuisine": "pizza", "name": "Domino's", "phone": "+90 212 522 40 00", "takeaway": "yes"}}, {"type": "node", "id": 5108837422, "lat": 41.0135841, "lon": 28.9751585, "tags": {"addr:city": "Istanbul", "addr:district": "Fatih", "addr:street": "Ebussuut Caddesi", "amenity": "fast_food", "name": "Osmanl\u0131 B\u00fcfe"}}, {"type": "node", "id": 5108837443, "lat": 41.0142143, "lon": 28.9764699, "tags": {"addr:city": "Istanbul", "addr:district": "Fatih", "addr:street": "Muradiye Caddesi", "amenity": "fast_food", "name": "Birlik B\u00fcfe"}}, {"type": "node", "id": 5108843959, "lat": 41.0096074, "lon": 28.9749732, "tags": {"addr:city": "Istanbul", "addr:district": "Fatih", "addr:street": "Molla Feneri Sokak", "amenity": "fast_food", "name": "Orhan B\u00fcfe", "name:ar": "\u0628\u0648\u0641\u064a\u0647 \u0623\u0648\u0631\u0647\u0627\u0646"}}, {"type": "node", "id": 5108844015, "lat": 41.0091516, "lon": 28.9754885, "tags": {"addr:city": "Istanbul", "addr:district": "Fatih", "addr:street": "\u00c7atal\u00e7e\u015fme Sokak", "amenity": "fast_food", "cuisine": "kebab"}}, {"type": "node", "id": 5110344569, "lat": 41.0186029, "lon": 28.9655828, "tags": {"addr:city": "Istanbul", "addr:district": "Fatih", "addr:street": "k\u0131ble cesme caddesi", "amenity": "fast_food", "name": "Emin\u00f6n\u00fc B\u00f6rek\u00e7isi", "name:ar": "\u0627\u0645\u064a\u0646\u064a\u0648 \u0628\u0648\u0631\u064a\u0643\u062c\u064a\u0633\u064a"}}, {"type": "node", "id": 5110345100, "lat": 41.0132823, "lon": 28.9747042, "tags": {"addr:city": "Istanbul", "addr:district": "Fatih", "addr:street": "\u00c7akalo\u011flu yk\u015f", "amenity": "fast_food", "name": "Meyvex", "name:ar": "\u0645\u064a\u0641\u064a\u0643\u0633"}}, {"type": "node", "id": 5110347245, "lat": 41.0153617, "lon": 28.9745345, "tags": {"addr:city": "Istanbul", "addr:district": "Fatih", "addr:street": "Hamidiye caddesi", "amenity": "fast_food", "name": "Sait d\u00f6ner"}}, {"type": "node", "id": 5110347258, "lat": 41.0151309, "lon": 28.9756837, "tags": {"addr:city": "Istanbul", "addr:district": "Fatih", "addr:street": "Ankara caddesi", "amenity": "fast_food", "name": "Gar pilavc\u0131s\u0131"}}, {"type": "node", "id": 5110347268, "lat": 41.0156916, "lon": 28.9760033, "tags": {"addr:city": "Istanbul", "addr:district": "Fatih", "addr:street": "Ankara caddesi", "amenity": "fast_food", "name": "Hattad D\u00f6ner"}}, {"type": "node", "id": 5110347269, "lat": 41.0157614, "lon": 28.9760445, "tags": {"addr:city": "Istanbul", "addr:district": "Fatih", "addr:street": "Ankara caddesi", "amenity": "fast_food", "name": "Bereket D\u00f6ner"}}, {"type": "node", "id": 5110347277, "lat": 41.0162882, "lon": 28.9761909, "tags": {"addr:city": "Istanbul", "addr:district": "Fatih", "addr:street": "Ankara caddesi", "alt_name": "Kentucky Fried Chicken", "amenity": "fast_food", "brand": "KFC", "brand:wikidata": "Q524757", "brand:wikipedia": "en:KFC", "cuisine": "chicken", "name": "KFC", "takeaway": "yes"}}, {"type": "node", "id": 5111206139, "lat": 41.0197079, "lon": 28.9628349, "tags": {"addr:city": "Istanbul", "addr:district": "Fatih", "addr:street": "K\u00fc\u00e7\u00fck Pazar Caddesi", "amenity": "fast_food", "name": "Fast food", "name:ar": "\u0627\u0643\u0644 \u062c\u0627\u0647\u0632"}}, {"type": "node", "id": 5111211810, "lat": 41.0140211, "lon": 28.9699817, "tags": {"addr:city": "Istanbul", "addr:district": "Fatih", "addr:street": "Mahmodpasa yks sokak", "amenity": "fast_food", "name": "Nur bufe", "name:ar": "\u0646\u0648\u0631 \u0628\u0648\u0641\u064a\u0647"}}, {"type": "node", "id": 5111211811, "lat": 41.0139887, "lon": 28.9700675, "tags": {"addr:city": "Istanbul", "addr:district": "Fatih", "addr:street": "Mahmodpasa yks sokak", "amenity": "fast_food", "name": "Meshur bafra bidesi", "name:ar": "\u0645\u0634\u0647\u0648\u0631 \u0628\u0627\u0641\u0631\u0627 \u0628\u064a\u062f\u0633\u064a"}}, {"type": "node", "id": 5111212296, "lat": 41.0184896, "lon": 28.9707971, "tags": {"addr:city": "Istanbul", "addr:district": "Fatih", "addr:street": "resadeyi caddesi", "amenity": "fast_food", "name": "Bal\u0131k Ekmek"}}, {"type": "node", "id": 5111212297, "lat": 41.018441, "lon": 28.9691234, "tags": {"addr:city": "Istanbul", "addr:district": "Fatih", "addr:street": "Ragep gumuspala sokak", "amenity": "fast_food", "name": "Balik ekmek", "name:ar": "\u0628\u0627\u0644\u0643 \u0627\u0643\u0645\u064a\u0643"}}, {"type": "node", "id": 5111212298, "lat": 41.0180282, "lon": 28.9690804, "tags": {"addr:city": "Istanbul", "addr:district": "Fatih", "addr:street": "Kalcin sokak", "amenity": "fast_food", "name": "Emin\u00f6n\u00fc B\u00f6rek\u00e7isi", "name:ar": "\u0627\u064a\u0645\u064a\u0646\u0648\u0646\u0648 \u0628\u0648\u0649\u0643\u062c\u0633\u064a"}}, {"type": "node", "id": 5111212302, "lat": 41.0159376, "lon": 28.9719826, "tags": {"addr:city": "Istanbul", "addr:district": "Fatih", "addr:street": "Yeni Cami caddesi", "amenity": "fast_food", "name": "Dana D\u00f6ner"}}, {"type": "node", "id": 5112736027, "lat": 41.0140167, "lon": 28.9699946, "tags": {"addr:city": "Istanbul", "addr:district": "Fatih", "addr:street": "Mahmutpa\u015fa Yk\u015f.", "amenity": "fast_food", "name": "Nur B\u00fcfe", "name:ar": "\u0646\u0648\u0631 \u0628\u0648\u0641\u064a\u0647"}}, {"type": "node", "id": 5112736042, "lat": 41.0146367, "lon": 28.9701418, "tags": {"addr:city": "Istanbul", "addr:district": "Fatih", "addr:street": "Vas\u0131f \u00c7\u0131nar Caddesi", "amenity": "fast_food", "name": "Bizim B\u00fcfe", "name:ar": "\u0628\u064a\u0632\u064a\u0645 \u0628\u0648\u0641\u064a\u0647"}}, {"type": "node", "id": 5112736065, "lat": 41.0150166, "lon": 28.9677514, "tags": {"addr:city": "Istanbul", "addr:district": "Fatih", "addr:street": "Vas\u0131f \u00c7\u0131nar Caddesi", "amenity": "fast_food", "name": "Tat B\u00fcfe", "name:ar": "\u062a\u0627\u062a \u0628\u0648\u0641\u064a\u0647"}}, {"type": "node", "id": 5112736069, "lat": 41.0150463, "lon": 28.9671495, "tags": {"addr:city": "Istanbul", "addr:district": "Fatih", "addr:street": "\u0130smetiye Caddesi", "amenity": "fast_food", "name": "Mercan B\u00fcfe", "name:ar": "\u0645\u064a\u0631\u062c\u0627\u0646 \u0628\u0648\u0641\u064a\u0647"}}, {"type": "node", "id": 5112738776, "lat": 41.0124916, "lon": 28.9674443, "tags": {"addr:city": "Istanbul", "addr:district": "Fatih", "addr:street": "\u00d6r\u00fcc\u00fcler Kap\u0131s\u0131 Soka\u011f\u0131", "amenity": "fast_food", "name": "Sosi B\u00fcfe", "name:ar": "\u0633\u0648\u0633\u064a \u0628\u0648\u0641\u064a\u0647"}}, {"type": "node", "id": 5112738791, "lat": 41.0133277, "lon": 28.9674113, "tags": {"addr:city": "Istanbul", "addr:district": "Fatih", "addr:street": "Uzun \u00c7ar\u015f\u0131 Caddesi", "amenity": "fast_food", "name": "\u015eampion Kokore\u00e7", "name:ar": "\u0645\u0637\u0639\u0645 \u0634\u0627\u0645\u0628\u064a\u0648\u0646 \u0643\u0648\u0643\u0648\u0631\u064a\u062c"}}, {"type": "node", "id": 5112739269, "lat": 41.0130439, "lon": 28.9676651, "tags": {"addr:city": "Istanbul", "addr:district": "Fatih", "addr:street": "Uzun \u00c7ar\u015f\u0131 Caddesi", "amenity": "fast_food", "name": "Z\u00fclf\u00fc Usta Kokore\u00e7", "name:ar": "\u0645\u0637\u0639\u0645 \u0632\u0648\u0644\u0641\u0648 \u0623\u0648\u0633\u062a\u0627 \u0643\u0648\u0643\u0648\u0631\u064a\u062a\u0634"}}, {"type": "node", "id": 5112744267, "lat": 41.0147207, "lon": 28.9676511, "tags": {"addr:city": "Istanbul", "addr:district": "Fatih", "addr:street": "Pa\u015fa Cami Soka\u011f\u0131", "amenity": "fast_food", "name": "Derya B\u00fcfe", "name:ar": "\u062f\u064a\u0631\u064a\u0627 \u0628\u0648\u0641\u064a\u0647"}}, {"type": "node", "id": 5112744286, "lat": 41.0145954, "lon": 28.9663183, "tags": {"addr:city": "Istanbul", "addr:district": "Fatih", "addr:street": "Havanc\u0131 Soka\u011f\u0131", "amenity": "fast_food", "name": "Y\u0131ld\u0131z", "name:ar": "\u0645\u0637\u0639\u0645 \u064a\u0644\u062f\u0632"}}, {"type": "node", "id": 5113485074, "lat": 41.0127828, "lon": 28.9659427, "tags": {"addr:city": "Istanbul", "addr:district": "Fatih", "addr:street": "Fuat pa\u015fa caddesi", "amenity": "fast_food", "name": "Me\u015fhur d\u00f6nerci hac osmanin yeri", "name:ar": "\u0645\u0634\u0647\u0632\u0631 \u062f\u0648\u0646\u064a\u0631\u062c\u064a"}}, {"type": "node", "id": 5113485075, "lat": 41.0128441, "lon": 28.9659427, "tags": {"addr:city": "Istanbul", "addr:district": "Fatih", "addr:street": "Fuat pa\u015fa caddesi", "amenity": "fast_food", "name": "K\u0131rm\u0131z\u0131 elma", "name:ar": "\u0643\u0631\u0645\u064a\u0632\u0649 \u0627\u0644\u0645\u0627"}}, {"type": "node", "id": 5113486785, "lat": 41.0164788, "lon": 28.9661217, "tags": {"addr:city": "Istanbul", "addr:district": "Fatih", "addr:street": "Siyavu\u015f Pa\u015fa Sokak", "amenity": "fast_food", "name": "nova \u015fantiye cafe", "name:ar": "\u0633\u0645\u0633\u0648\u0631"}}, {"type": "node", "id": 5113486792, "lat": 41.015087, "lon": 28.9659314, "tags": {"addr:city": "Istanbul", "addr:district": "Fatih", "addr:street": "Siyavu\u015f pa\u015fa caddesi", "amenity": "fast_food", "name": "S\u00fcleymaniye donercisi", "name:ar": "\u0633\u0644\u064a\u0645\u0627\u0646\u064a\u0647 \u062f\u0648\u0646\u064a\u0631\u062c\u064a\u0633\u0649"}}, {"type": "node", "id": 5113486795, "lat": 41.0150229, "lon": 28.9654832, "tags": {"addr:city": "Istanbul", "addr:district": "Fatih", "addr:street": "Mimar sinan caddesi", "amenity": "fast_food", "name": "K\u00f6\u015fe bufe", "name:ar": "\u0643\u0648\u0634\u0649 \u0628\u0648\u0641\u064a\u0647"}}, {"type": "node", "id": 5113486802, "lat": 41.0147268, "lon": 28.9627436, "tags": {"addr:city": "Istanbul", "addr:district": "Fatih", "addr:street": "S\u00fcleymaniye caddesi", "amenity": "fast_food", "name": "Hasan o\u011flu", "name:ar": "\u062d\u0633\u0646 \u0627\u0648\u063a\u0644\u0648"}}, {"type": "node", "id": 5113487662, "lat": 41.0079767, "lon": 28.9710151, "tags": {"addr:city": "Istanbul", "addr:district": "Fatih", "addr:street": "Ta\u015fdirek \u00e7e\u015fme sokak", "amenity": "fast_food", "name": "\u00c7emberlita\u015f Pilavc\u0131s\u0131", "name:ar": "\u062c\u0645\u0628\u0631\u0644\u064a \u062a\u0627\u0634"}}, {"type": "node", "id": 5113487667, "lat": 41.0082428, "lon": 28.972303, "tags": {"addr:city": "Istanbul", "addr:district": "Fatih", "addr:street": "T\u00fcbedar Sokak", "amenity": "fast_food", "brand": "Burger King", "brand:wikidata": "Q177054", "brand:wikipedia": "en:Burger King", "cuisine": "burger", "name": "Burger King", "name:ar": "\u0628\u0631\u063a\u0631 \u0643\u064a\u0646\u063a", "opening_hours": "Mo-Su 10:30-23:00", "takeaway": "yes"}}, {"type": "node", "id": 5113500302, "lat": 41.00669, "lon": 28.9725105, "tags": {"addr:city": "Istanbul", "addr:district": "Fatih", "addr:street": "Peykhane caddesi", "amenity": "fast_food", "check_date": "2022-11-12", "cuisine": "kebab", "name": "\u00d6zlem", "name:ar": "\u0627\u0648\u0632\u0644\u064a\u0645"}}, {"type": "node", "id": 5113620612, "lat": 41.0091231, "lon": 28.9787632, "tags": {"addr:city": "Istanbul", "addr:district": "Turkey", "addr:street": "Alemdar Caddesi", "amenity": "fast_food", "name": "4 D\u00f6ner"}}, {"type": "node", "id": 5113620700, "lat": 41.0138873, "lon": 28.9791763, "tags": {"addr:city": "Istanbul", "addr:district": "Turkey", "addr:street": "Tayahatun sokak", "amenity": "fast_food", "name": "Pizza de lavia"}}, {"type": "node", "id": 5115939948, "lat": 41.0121498, "lon": 28.9677802, "tags": {"addr:city": "Istanbul", "addr:district": "Fatih", "addr:street": "Mercan Cami Sokak", "amenity": "fast_food", "name": "K\u00f6fteci Mustafa", "name:ar": "\u0627\u0644\u0643\u0641\u062a\u062c\u064a \u0645\u0635\u0637\u0641\u0649 \u0644\u0644\u0648\u062c\u0628\u0627\u062a \u0627\u0644\u0633\u0631\u064a\u0639\u0629", "phone": "02125123525"}}, {"type": "node", "id": 5116183221, "lat": 41.0441189, "lon": 29.0069746, "tags": {"amenity": "fast_food", "brand": "Burger King", "brand:wikidata": "Q177054", "brand:wikipedia": "en:Burger King", "cuisine": "burger", "name": "Burger King", "takeaway": "yes"}}, {"type": "node", "id": 5116183321, "lat": 41.0440094, "lon": 29.0069434, "tags": {"alt_name": "Kentucky Fried Chicken", "amenity": "fast_food", "brand": "KFC", "brand:wikidata": "Q524757", "brand:wikipedia": "en:KFC", "cuisine": "chicken", "name": "KFC", "takeaway": "yes"}}, {"type": "node", "id": 5125118721, "lat": 41.0140447, "lon": 28.9750218, "tags": {"amenity": "fast_food", "name:en": "Balkan lokantasi"}}, {"type": "node", "id": 5149685225, "lat": 41.0346019, "lon": 28.9808444, "tags": {"addr:street": "Sadri Al\u0131\u015f\u0131k Soka\u011f\u0131", "amenity": "fast_food", "name": "Lades Menemen", "opening_hours": "Mo-Su 07:00-23:00", "wheelchair": "no"}}, {"type": "node", "id": 5152048723, "lat": 41.0394049, "lon": 28.9785738, "tags": {"amenity": "fast_food", "name": "Ozzie's Kokore\u00e7"}}, {"type": "node", "id": 5244795867, "lat": 41.0166857, "lon": 28.9679833, "tags": {"addr:city": "Istanbul", "addr:district": "Fatih", "addr:street": "Tomruk Soka\u011f\u0131", "amenity": "fast_food", "name": "Tahtakale Ci\u011fercisi", "name:ar": "\u062a\u0647\u062a\u0627\u0643\u0627\u0644\u064a \u062c\u064a\u0627\u0627\u0631\u062c\u064a\u0633\u064a", "operator": "private"}}, {"type": "node", "id": 5244795869, "lat": 41.0168322, "lon": 28.9682862, "tags": {"addr:city": "Istanbul", "addr:district": "Fatih", "addr:street": "Tahtakale Caddesi", "amenity": "fast_food", "name": "Ayg\u00fcn B\u00fcfe", "name:ar": "\u0622\u064a\u063a\u0646 \u0628\u0648\u0641\u064a", "operator": "private"}}, {"type": "node", "id": 5244796148, "lat": 41.0160562, "lon": 28.9677461, "tags": {"addr:city": "Istanbul", "addr:district": "Fatih", "addr:street": "Uzun \u00c7ar\u015f\u0131 Caddesi", "amenity": "fast_food", "name": "Virginia Angus Burger", "name:ar": "\u0641\u064a\u0631\u062c\u064a\u0646\u064a\u0627 \u0627\u0646\u063a\u0648\u0633 \u0628\u064a\u0631\u063a\u0631", "operator": "private"}}, {"type": "node", "id": 5244796153, "lat": 41.0169934, "lon": 28.9679928, "tags": {"addr:city": "Istanbul", "addr:district": "Fatih", "addr:street": "Uzun \u00c7ar\u015f\u0131 Caddesi", "amenity": "fast_food", "name": "D\u00f6ner House", "name:ar": "\u062f\u0648\u0646\u0631 \u0647\u0627\u0648\u0633", "operator": "private"}}, {"type": "node", "id": 5244796158, "lat": 41.0173634, "lon": 28.968247, "tags": {"addr:city": "Istanbul", "addr:district": "Fatih", "addr:street": "Uzun \u00c7ar\u015f\u0131 Caddesi", "amenity": "fast_food", "name": "K\u00f6zde Kanat\u00e7\u0131 Muro", "name:ar": "\u0643\u0648\u0632\u062f\u064a \u0643\u0627\u0646\u0627\u062a\u0634\u064a \u0645\u0648\u0631\u0648", "operator": "private"}}, {"type": "node", "id": 5244802017, "lat": 41.004887, "lon": 28.9709402, "tags": {"addr:city": "Istanbul", "addr:district": "Fatih", "addr:street": "Kad\u0131rga Liman\u0131 Caddesi", "amenity": "fast_food", "name": "\u00c7i\u011fk\u00f6fteci S\u0131rr\u0131 Usta", "name:ar": "\u062a\u0634\u064a\u0643\u0648\u0641\u062a\u064a\u0643\u064a \u0633\u064a\u0631\u0631\u064a \u0627\u0648\u0633\u062a\u0627", "operator": "private"}}, {"type": "node", "id": 5244805834, "lat": 41.0113682, "lon": 28.9727263, "tags": {"addr:city": "Istanbul", "addr:district": "Fatih", "addr:street": "Arif Pa\u015fa Sokak", "amenity": "fast_food", "name": "Arda B\u00fcfe", "name:ar": "\u0623\u0631\u062f\u0627 \u0628\u0648\u0641\u064a\u0647"}}, {"type": "node", "id": 5244805878, "lat": 41.0106249, "lon": 28.9733909, "tags": {"addr:city": "Istanbul", "addr:district": "Fatih", "addr:street": "\u015eeref Efendi Sokak", "amenity": "fast_food", "name": "\u00c7ar\u015f\u0131 Muhallebicisi", "name:ar": "\u062a\u0634\u0627\u0631\u0634\u064a \u0645\u0648\u0647\u0644\u0644\u0628\u064a\u062c\u064a\u0633\u064a"}}, {"type": "node", "id": 5244806725, "lat": 41.0096964, "lon": 28.9693332, "tags": {"addr:city": "Istanbul", "addr:district": "Fatih", "addr:street": "Bileyciler Sokak", "amenity": "fast_food", "name": "Y\u00fccel B\u00fcfe", "name:ar": "\u064a\u0648\u062c\u064a\u0644 \u0628\u0648\u0641\u064a\u0647"}}, {"type": "node", "id": 5244806729, "lat": 41.0095963, "lon": 28.9694795, "tags": {"addr:city": "Istanbul", "addr:district": "Fatih", "addr:street": "K\u00fcrk\u00e7\u00fcler Pazar\u0131 Sokak", "amenity": "fast_food", "name": "Ci\u011ferci Basri", "name:ar": "\u062c\u064a\u0627\u0631\u062c\u064a \u0628\u0627\u0635\u0631\u064a"}}, {"type": "node", "id": 5244806777, "lat": 41.0085856, "lon": 28.9715678, "tags": {"addr:city": "Istanbul", "addr:district": "Fatih", "addr:street": "Vezirhan Caddesi", "amenity": "fast_food", "name": "Elit B\u00fcfe", "name:ar": "\u0625\u0644\u064a\u062a \u0628\u0648\u0641\u064a\u0647", "phone": "+90 212 528 67 10"}}, {"type": "node", "id": 5244807844, "lat": 41.0048778, "lon": 28.9653979, "tags": {"addr:city": "Istanbul", "addr:district": "Fatih", "addr:street": "Kad\u0131rga Liman\u0131 Caddesi", "amenity": "fast_food", "name": "Ad\u0131yaman \u00c7i\u011f K\u00f6ftecisi", "name:ar": "\u0627\u062f\u064a\u0645\u0627\u0646 \u062a\u0634\u064a \u0643\u0648\u0641\u062a\u064a\u062c\u064a\u0633\u064a", "operator": "private"}}, {"type": "node", "id": 5244807911, "lat": 41.0054767, "lon": 28.9646595, "tags": {"addr:city": "Istanbul", "addr:district": "Fatih", "addr:street": "Tiyatro Caddesi", "amenity": "fast_food", "name": "\u00d6zbek Samsa Senter", "name:ar": "\u0627\u0648\u0632\u0628\u064a\u0643 \u0633\u0627\u0645\u0633\u0627 \u0633\u064a\u0646\u062a\u0631", "operator": "private"}}, {"type": "node", "id": 5244807935, "lat": 41.0108667, "lon": 28.9707809, "tags": {"addr:city": "Istanbul", "addr:district": "Fatih", "addr:street": "K\u0131l\u0131\u00e7c\u0131lar Sokak", "amenity": "fast_food", "name": "Kilisli D\u00f6nerci", "name:ar": "\u0643\u064a\u0644\u064a\u0633\u0644\u064a \u062f\u0648\u0646\u0631\u062c\u064a"}}, {"type": "node", "id": 5244807937, "lat": 41.0106757, "lon": 28.9712106, "tags": {"addr:city": "Istanbul", "addr:district": "Fatih", "addr:street": "Vezirhan Caddesi", "amenity": "fast_food", "name": "Kamer B\u00fcfe 2", "name:ar": "\u0643\u0627\u0645\u064a\u0631 \u0628\u0648\u0641\u064a\u0647 2"}}, {"type": "node", "id": 5244807939, "lat": 41.0104164, "lon": 28.9713494, "tags": {"addr:city": "Istanbul", "addr:district": "Fatih", "addr:street": "Vezirhan Caddesi", "amenity": "fast_food", "name": "B\u00f6rekci Cemil Usta", "name:ar": "\u0628\u0648\u0631\u064a\u0643\u062c\u064a \u062c\u0645\u064a\u0644 \u0623\u0648\u0633\u0637\u0629"}}, {"type": "node", "id": 5244807969, "lat": 41.0092963, "lon": 28.9688893, "tags": {"addr:city": "Istanbul", "addr:district": "Fatih", "addr:street": "H\u00fcseyin A\u011fa Cami Sokak", "amenity": "fast_food", "name": "D\u00f6ner Bank", "name:ar": "\u062f\u0648\u0646\u0631 \u0628\u0646\u0643"}}, {"type": "node", "id": 5244809866, "lat": 41.0085622, "lon": 28.9673925, "tags": {"addr:city": "Istanbul", "addr:district": "Fatih", "addr:street": "Gedik Pa\u015fa Caddesi", "amenity": "fast_food", "brand": "Burger King", "brand:wikidata": "Q177054", "brand:wikipedia": "en:Burger King", "cuisine": "burger", "name": "Burger King", "name:ar": "\u0628\u0631\u063a\u0631 \u0643\u064a\u0646\u063a", "operator": "private", "takeaway": "yes"}}, {"type": "node", "id": 5244809892, "lat": 41.0074675, "lon": 28.9684912, "tags": {"addr:city": "Istanbul", "addr:district": "Fatih", "addr:street": "Gedik Pa\u015fa Cami Sokak", "amenity": "fast_food", "name": "F\u0131rat B\u00fcfe", "name:ar": "\u0641\u0631\u0627\u062a \u0628\u0648\u0641\u064a", "operator": "private"}}, {"type": "node", "id": 5244809909, "lat": 41.00813, "lon": 28.9669481, "tags": {"addr:city": "Istanbul", "addr:district": "Fatih", "addr:street": "Hattat Sokak", "amenity": "fast_food", "name": "Pa\u015fa Tost", "name:ar": "\u0628\u0627\u0634\u0627 \u062a\u0648\u0633\u062a", "operator": "private"}}, {"type": "node", "id": 5244809915, "lat": 41.008379, "lon": 28.9675248, "tags": {"addr:city": "Istanbul", "addr:district": "Fatih", "addr:street": "Asma Kandil Sokak", "amenity": "fast_food", "name": "Gedikpa\u015fa Buffet", "name:ar": "\u063a\u064a\u064a\u062f\u0643 \u0628\u0627\u0634\u0627 \u0628\u0648\u0641\u064a\u064a\u062a", "operator": "private"}}, {"type": "node", "id": 5244810319, "lat": 41.0064175, "lon": 28.9660438, "tags": {"addr:city": "Istanbul", "addr:district": "Fatih", "addr:street": "Bali Pa\u015fa Yoku\u015fu", "amenity": "fast_food", "name": "Aynen D\u00fcr\u00fcm Ci\u011fer", "name:ar": "\u0627\u064a\u0646\u064a\u0646 \u062f\u0648\u0631\u0648\u0645 \u062c\u064a\u063a\u0627\u0631", "operator": "private"}}, {"type": "node", "id": 5244811465, "lat": 41.0116244, "lon": 28.9699139, "tags": {"addr:city": "Istanbul", "addr:district": "Fatih", "addr:street": "Mahmutpa\u015fa Yoku\u015fu Sokak", "amenity": "fast_food", "name": "D\u00f6nerci Sad\u0131k Usta", "name:ar": "\u062f\u0648\u0646\u064a\u0631\u062c\u064a \u0633\u0627\u062f\u0643 \u0627\u0648\u0633\u062a\u0627", "operator": "private"}}, {"type": "node", "id": 5244811475, "lat": 41.0114798, "lon": 28.9688481, "tags": {"addr:city": "Istanbul", "addr:district": "Fatih", "addr:street": "T\u0131\u011fc\u0131lar Sokak", "amenity": "fast_food", "name": "Yunus B\u00fcfe", "name:ar": "\u064a\u0648\u0646\u0648\u0633 \u0628\u0648\u0641\u064a", "operator": "private"}}, {"type": "node", "id": 5244812090, "lat": 41.0183718, "lon": 28.9669134, "tags": {"addr:city": "Istanbul", "addr:district": "Fatih", "addr:street": "Rag\u0131p G\u00fcm\u00fc\u015fpala Caddesi", "amenity": "fast_food", "hazard": "violence", "name": "Hanc\u0131 Cafe", "outdoor_seating": "yes"}}, {"type": "node", "id": 5244812102, "lat": 41.01816, "lon": 28.9680418, "tags": {"addr:city": "Istanbul", "addr:district": "Fatih", "addr:street": "Rag\u0131p G\u00fcm\u00fc\u015fpala Caddesi", "amenity": "fast_food", "name": "Gala Kokore\u00e7"}}, {"type": "node", "id": 5244812131, "lat": 41.019951, "lon": 28.9645761, "tags": {"addr:city": "Istanbul", "addr:district": "Fatih", "addr:street": "Rag\u0131p G\u00fcm\u00fc\u015fpala Caddesi", "amenity": "fast_food", "name": "Gazi \u00c7i\u011fk\u00f6fte", "name:ar": "\u063a\u0627\u0632\u064a \u062a\u0634\u0643\u0648\u0641\u062a\u064a"}}, {"type": "node", "id": 5260250356, "lat": 41.0266902, "lon": 29.0338895, "tags": {"addr:city": "\u0130stanbul", "addr:district": "\u00dcsk\u00fcdar", "amenity": "fast_food", "name": "Patso Burger"}}, {"type": "node", "id": 5262246767, "lat": 41.0152057, "lon": 29.189821, "tags": {"amenity": "fast_food", "brand": "Domino's", "brand:wikidata": "Q839466", "brand:wikipedia": "en:Domino's Pizza", "cuisine": "pizza", "name": "Domino's", "takeaway": "yes"}}, {"type": "node", "id": 5268566104, "lat": 40.8751679, "lon": 29.2542543, "tags": {"amenity": "fast_food", "cuisine": "turkish", "name": "Komagene"}}, {"type": "node", "id": 5275929321, "lat": 41.0318624, "lon": 28.9763337, "tags": {"addr:housenumber": "167a", "addr:street": "\u0130stiklal Caddesi", "amenity": "fast_food", "diet:vegan": "yes", "diet:vegetarian": "yes", "name": "Patato", "wheelchair": "no"}}, {"type": "node", "id": 5279878055, "lat": 41.0329555, "lon": 29.1746889, "tags": {"addr:city": "\u0130stanbul", "addr:district": "\u00c7ekmek\u00f6y", "addr:neighbourhood": "Mimar Sinan Mahallesi", "addr:postcode": "34782", "addr:street": "Mimar Sinan Caddesi", "amenity": "fast_food", "name": "Pizza Lazza", "opening_hours": "Mo-Su 11:00-02:00", "phone": "+90 216 420 30 12", "website": "https://www.pizzalazza.com.tr/"}}, {"type": "node", "id": 5279878073, "lat": 41.0330081, "lon": 29.1743228, "tags": {"addr:city": "\u0130stanbul", "addr:district": "\u00c7ekmek\u00f6y", "addr:neighbourhood": "Mimar Sinan Mahallesi", "addr:postcode": "34782", "addr:street": "Mimar Sinan Caddesi", "amenity": "fast_food", "brand": "Burger King", "brand:wikidata": "Q177054", "brand:wikipedia": "en:Burger King", "cuisine": "burger", "delivery": "yes", "drive_through": "no", "name": "Burger King", "outdoor_seating": "yes", "phone": "444 5 464", "smoking": "outside", "takeaway": "yes"}}, {"type": "node", "id": 5279878086, "lat": 41.0329009, "lon": 29.1753112, "tags": {"addr:city": "\u0130stanbul", "addr:district": "\u00c7ekmek\u00f6y", "addr:neighbourhood": "Mimar Sinan Mahallesi", "addr:postcode": "34782", "addr:street": "Mimar Sinan Caddesi", "addr:unit": "13-2", "amenity": "fast_food", "cuisine": "turkish", "delivery": "yes", "drive_through": "no", "name": "Sampi Pide", "opening_hours": "Mo-Su 10:30-22:30", "outdoor_seating": "yes", "phone": "+90 216 642 50 05", "smoking": "outside", "website": "http://www.sampi.com.tr/"}}, {"type": "node", "id": 5279910989, "lat": 41.0320832, "lon": 29.1811919, "tags": {"amenity": "fast_food", "brand": "Little Caesars", "brand:wikidata": "Q1393809", "brand:wikipedia": "en:Little Caesars", "cuisine": "pizza", "name": "Little Caesars", "takeaway": "yes"}}, {"type": "node", "id": 5281964169, "lat": 40.9268521, "lon": 29.1293946, "tags": {"amenity": "fast_food", "brand": "Domino's", "brand:wikidata": "Q839466", "brand:wikipedia": "en:Domino's Pizza", "cuisine": "pizza", "name": "Domino's", "takeaway": "yes"}}, {"type": "node", "id": 5282746269, "lat": 40.9764755, "lon": 29.1519536, "tags": {"amenity": "fast_food", "brand": "Subway", "brand:wikidata": "Q244457", "brand:wikipedia": "en:Subway (restaurant)", "cuisine": "sandwich", "name": "Subway", "takeaway": "yes"}}, {"type": "node", "id": 5282913585, "lat": 40.8986465, "lon": 29.170448, "tags": {"amenity": "fast_food", "cuisine": "kebab", "name": "Pa\u015fa D\u00f6ner"}}, {"type": "node", "id": 5283741323, "lat": 40.8982108, "lon": 29.1654412, "tags": {"amenity": "fast_food", "brand": "McDonald's", "brand:wikidata": "Q38076", "brand:wikipedia": "en:McDonald's", "cuisine": "burger", "name": "McDonald's", "takeaway": "yes"}}, {"type": "node", "id": 5284675975, "lat": 40.8817315, "lon": 29.238038, "tags": {"amenity": "fast_food", "brand": "Domino's", "brand:wikidata": "Q839466", "brand:wikipedia": "en:Domino's Pizza", "cuisine": "pizza", "name": "Domino's", "takeaway": "yes"}}, {"type": "node", "id": 5285979528, "lat": 40.9339661, "lon": 29.2144972, "tags": {"amenity": "fast_food", "brand": "Burger King", "brand:wikidata": "Q177054", "brand:wikipedia": "en:Burger King", "cuisine": "burger", "name": "Burger King", "takeaway": "yes"}}, {"type": "node", "id": 5286243624, "lat": 41.0451577, "lon": 29.0030998, "tags": {"amenity": "fast_food", "name": "Atalay Kebab"}}, {"type": "node", "id": 5287941391, "lat": 40.8855124, "lon": 29.2325278, "tags": {"addr:neighbourhood": "bah\u00e7elievler mah.", "addr:street": "\u00e7elebi sokak", "amenity": "fast_food", "brand": "Domino's", "brand:wikidata": "Q839466", "brand:wikipedia": "en:Domino's Pizza", "cuisine": "pizza", "delivery": "yes", "drive_through": "yes", "name": "Domino's", "opening_hours": "Mo-Su 08:00-23:00", "outdoor_seating": "yes", "smoking": "no", "takeaway": "yes"}}, {"type": "node", "id": 5289269950, "lat": 41.0316147, "lon": 29.1819366, "tags": {"amenity": "fast_food", "name": "Arsemia \u00c7i\u011fk\u00f6fte"}}, {"type": "node", "id": 5289269962, "lat": 41.0312002, "lon": 29.1832552, "tags": {"amenity": "fast_food", "brand": "Papa John's", "brand:wikidata": "Q2759586", "brand:wikipedia": "en:Papa John's Pizza", "cuisine": "pizza", "name": "Papa John's", "takeaway": "yes"}}, {"type": "node", "id": 5289269967, "lat": 41.0311537, "lon": 29.1834664, "tags": {"amenity": "fast_food", "name": "Etiler Marmaris", "phone": "+90 216 642 53 34", "website": "http://www.etilermarmaris.com.tr"}}, {"type": "node", "id": 5289269968, "lat": 41.031137, "lon": 29.1835154, "tags": {"amenity": "fast_food", "name": "Mersin Tantuni"}}, {"type": "node", "id": 5289868132, "lat": 41.0310844, "lon": 29.1823113, "tags": {"amenity": "fast_food", "name": "\u00c7i\u011fk\u00f6fteci \u00d6mer Usta"}}, {"type": "node", "id": 5291793664, "lat": 40.9611644, "lon": 29.0934767, "tags": {"addr:city": "\u0130stanbul", "addr:district": "Kad\u0131k\u00f6y", "addr:neighbourhood": "Kozyata\u011f\u0131 Mahallesi", "addr:postcode": "34742", "addr:street": "\u015eemsettin G\u00fcnaltay Caddesi", "amenity": "fast_food", "brand": "Papa John's", "brand:wikidata": "Q2759586", "brand:wikipedia": "en:Papa John's Pizza", "cuisine": "pizza", "delivery": "yes", "drive_through": "no", "name": "Papa John's", "outdoor_seating": "yes", "smoking": "isolated", "takeaway": "yes"}}, {"type": "node", "id": 5293915437, "lat": 40.8099136, "lon": 29.3693237, "tags": {"amenity": "fast_food", "brand": "Burger King", "brand:wikidata": "Q177054", "brand:wikipedia": "en:Burger King", "cuisine": "burger", "name": "Burger King", "takeaway": "yes"}}, {"type": "node", "id": 5294058863, "lat": 40.7851446, "lon": 29.3733679, "tags": {"amenity": "fast_food", "name": "Can Kebap"}}, {"type": "node", "id": 5294667789, "lat": 40.9691807, "lon": 29.0855368, "tags": {"addr:city": "istanbul", "addr:district": "kad\u0131k\u00f6y", "addr:neighbourhood": "19 May\u0131s Mah.", "addr:postcode": "34744", "addr:street": "Sinan Ercan Caddesi", "amenity": "fast_food", "delivery": "yes", "name": "Kokomusti", "opening_hours": "Mo-Su 10:00-05:00", "takeaway": "yes"}}, {"type": "node", "id": 5294667790, "lat": 40.9693124, "lon": 29.0854475, "tags": {"addr:city": "istanbul", "addr:district": "kad\u0131k\u00f6y", "addr:housenumber": "no:146", "addr:neighbourhood": "19 May\u0131s Mah.", "addr:street": "\u015eemsettin G\u00fcnaltay Caddesi", "amenity": "fast_food", "delivery": "yes", "drive_through": "yes", "name": "\u00c7evirdik Tavuk", "opening_hours": "Mo-Su 09:00-21:00"}}, {"type": "node", "id": 5294684271, "lat": 40.9622848, "lon": 29.0763924, "tags": {"addr:city": "\u0130stanbul", "addr:district": "Kad\u0131k\u00f6y", "addr:neighbourhood": "Suadiye Mahallesi", "addr:postcode": "34740", "addr:street": "Ba\u011fdat Caddesi", "amenity": "fast_food", "cuisine": "pizza", "name": "Bafetto Pizza"}}, {"type": "node", "id": 5296004325, "lat": 41.0454909, "lon": 28.9847439, "tags": {"amenity": "fast_food", "name": "Zula", "name:en": "Zula", "name:tr": "Zula"}}, {"type": "node", "id": 5296343847, "lat": 40.7818481, "lon": 29.3958285, "tags": {"amenity": "fast_food", "name": "Bizim Fast Food"}}, {"type": "node", "id": 5297555759, "lat": 40.9663874, "lon": 29.1244722, "tags": {"amenity": "fast_food"}}, {"type": "node", "id": 5297555760, "lat": 40.9664704, "lon": 29.1236783, "tags": {"amenity": "fast_food"}}, {"type": "node", "id": 5297555762, "lat": 40.9667154, "lon": 29.1233403, "tags": {"amenity": "fast_food"}}, {"type": "node", "id": 5297555763, "lat": 40.9671572, "lon": 29.123584, "tags": {"amenity": "fast_food"}}, {"type": "node", "id": 5297555764, "lat": 40.9669666, "lon": 29.1238124, "tags": {"amenity": "fast_food"}}, {"type": "node", "id": 5297555766, "lat": 40.9667862, "lon": 29.1246986, "tags": {"amenity": "fast_food"}}, {"type": "node", "id": 5297555767, "lat": 40.9683524, "lon": 29.1243109, "tags": {"amenity": "fast_food"}}, {"type": "node", "id": 5297555768, "lat": 40.9683397, "lon": 29.1248933, "tags": {"amenity": "fast_food"}}, {"type": "node", "id": 5297555772, "lat": 40.9690182, "lon": 29.1236179, "tags": {"amenity": "fast_food"}}, {"type": "node", "id": 5297555778, "lat": 40.9686496, "lon": 29.1233228, "tags": {"amenity": "fast_food"}}, {"type": "node", "id": 5297555780, "lat": 40.9692391, "lon": 29.1275786, "tags": {"amenity": "fast_food"}}, {"type": "node", "id": 5297555782, "lat": 40.9690648, "lon": 29.1281683, "tags": {"amenity": "fast_food"}}, {"type": "node", "id": 5297555814, "lat": 40.968217, "lon": 29.1296655, "tags": {"amenity": "fast_food"}}, {"type": "node", "id": 5297555819, "lat": 40.9686798, "lon": 29.1297098, "tags": {"amenity": "fast_food"}}, {"type": "node", "id": 5297556923, "lat": 40.9682589, "lon": 29.1309825, "tags": {"amenity": "fast_food"}}, {"type": "node", "id": 5298438798, "lat": 40.9656782, "lon": 29.1239779, "tags": {"amenity": "fast_food"}}, {"type": "node", "id": 5298438801, "lat": 40.9663223, "lon": 29.1253029, "tags": {"amenity": "fast_food"}}, {"type": "node", "id": 5298438808, "lat": 40.9657425, "lon": 29.1247749, "tags": {"amenity": "fast_food"}}, {"type": "node", "id": 5300762919, "lat": 40.8819725, "lon": 29.2371187, "tags": {"amenity": "fast_food", "brand": "Little Caesars", "brand:wikidata": "Q1393809", "brand:wikipedia": "en:Little Caesars", "cuisine": "pizza", "name": "Little Caesars", "takeaway": "yes"}}, {"type": "node", "id": 5308494821, "lat": 41.0491466, "lon": 29.0261812, "tags": {"addr:housenumber": "02122270072", "addr:postcode": "00034", "addr:street": "Dereboyu Caddesi", "amenity": "fast_food", "email": "kumrucumehmett@gmail.com", "internet_access": "wlan", "name": "\u0130zmirli Kumrucu Mehmet", "opening_hours": "Mo-Su 09:00-04:00", "phone": "02122270073"}}, {"type": "node", "id": 5309720121, "lat": 41.0224095, "lon": 28.9706639, "tags": {"amenity": "fast_food", "description": "Locals say that it's not a \"true\" balik ekmek, but fake.", "description:ru": "\u041e\u0442\u0437\u044b\u0432\u044b \u0433\u043e\u0432\u043e\u0440\u044f\u0442 \u0447\u0442\u043e \u044d\u0442\u043e \"\u043d\u0435 \u043d\u0430\u0441\u0442\u043e\u044f\u0449\u0438\u0439\" \u0411\u0430\u043b\u044b\u043a \u0415\u043a\u043c\u0435\u043a, \u0430 \u043f\u0440\u0438\u0442\u0432\u043e\u0440\u044f\u044e\u0442\u0441\u044f.", "name:en": "Emin Usta \u00abSupermario\u00bb balik ekmek", "name:ru": "\u0411\u0430\u043b\u044b\u043a \u0415\u043a\u043c\u0435\u043a \u043e\u0442 \u042d\u043c\u0438\u043d\u0430", "phone": "05434074077"}}, {"type": "node", "id": 5312343975, "lat": 40.9941749, "lon": 29.1101651, "tags": {"amenity": "fast_food", "brand": "McDonald's", "brand:wikidata": "Q38076", "brand:wikipedia": "en:McDonald's", "cuisine": "burger", "name": "McDonald's", "takeaway": "yes"}}, {"type": "node", "id": 5316343129, "lat": 40.9117087, "lon": 29.1801426, "tags": {"amenity": "fast_food", "brand": "McDonald's", "brand:wikidata": "Q38076", "brand:wikipedia": "en:McDonald's", "cuisine": "burger", "name": "McDonald's", "takeaway": "yes"}}, {"type": "node", "id": 5316343798, "lat": 40.9117087, "lon": 29.1802047, "tags": {"amenity": "fast_food", "brand": "Subway", "brand:wikidata": "Q244457", "brand:wikipedia": "en:Subway (restaurant)", "cuisine": "sandwich", "name": "Subway", "takeaway": "yes"}}, {"type": "node", "id": 5316344819, "lat": 40.9116424, "lon": 29.1805261, "tags": {"amenity": "fast_food", "brand": "Burger King", "brand:wikidata": "Q177054", "brand:wikipedia": "en:Burger King", "cuisine": "burger", "name": "Burger King", "takeaway": "yes"}}, {"type": "node", "id": 5329298023, "lat": 40.9499113, "lon": 29.2741806, "tags": {"addr:city": "Istanbul", "addr:district": "Sultanbeyli", "addr:street": "Pamuk Soka\u011f\u0131", "amenity": "fast_food", "name": "Ad\u0131yaman \u00c7i\u011fk\u00f6fte", "name:ar": "\u0643\u0648\u0641\u062a\u0647 \u0627\u062f\u064a\u0627\u0645\u0627\u0646", "phone": "08502097885"}}, {"type": "node", "id": 5329298034, "lat": 40.9705719, "lon": 29.2691418, "tags": {"addr:city": "Istanbul", "addr:district": "Sultanbeyli", "addr:street": "Gecem Soka\u011f\u0131", "amenity": "fast_food", "name": "Enes B\u00f6rek & Cafe", "name:ar": "\u0645\u0637\u0639\u0645 \u0641\u0637\u0627\u0626\u0631"}}, {"type": "node", "id": 5329298060, "lat": 40.9683423, "lon": 29.2756301, "tags": {"addr:city": "Istanbul", "addr:district": "Sultanbeyli", "addr:street": "\u00c7aml\u0131k Caddesi", "amenity": "fast_food", "name": "Y\u0131lmazlar B\u00f6rek", "name:ar": "\u0641\u0637\u0627\u0626\u0631 \u064a\u0644\u0645\u0627\u0632\u0644\u0627\u0631"}}, {"type": "node", "id": 5329298065, "lat": 40.9708442, "lon": 29.2693536, "tags": {"addr:city": "Istanbul", "addr:district": "Sultanbeyli", "addr:street": "\u015eeyh \u015eamil caddesi", "amenity": "fast_food", "name": "Hasan Usta", "name:ar": "\u0645\u0639\u0644\u0645 \u062d\u0633\u0646", "phone": "05367152653"}}, {"type": "node", "id": 5329298085, "lat": 40.9682575, "lon": 29.2716515, "tags": {"addr:city": "Istanbul", "addr:district": "Sultanbeyli", "addr:street": "Demokrasi Caddesi", "amenity": "fast_food", "name": "\u015eim\u015fek Fast Food", "name:ar": "\u0634\u064a\u0645 \u0634\u064a\u0643 \u0641\u0627\u0633\u062a \u0641\u0648\u062f", "phone": "05531380202"}}, {"type": "node", "id": 5329298101, "lat": 40.9681497, "lon": 29.2753418, "tags": {"addr:city": "Istanbul", "addr:district": "Sultanbeyli", "addr:street": "\u00c7aml\u0131k Caddesi", "amenity": "fast_food", "name": "Emmo\u011flu Pide Ve Lahmacun F\u0131r\u0131n\u0131", "name:ar": "\u0641\u0637\u0627\u0626\u0631 \u0648\u0645\u0639\u062c\u0646\u0627\u062a \u0627\u0645\u0627\u0648\u063a\u0644\u0648", "phone": "05447663551"}}, {"type": "node", "id": 5329298114, "lat": 40.972923, "lon": 29.2743848, "tags": {"addr:city": "Istanbul", "addr:district": "Sultanbeyli", "addr:street": "Kaptan\u0131 Derya Caddesi", "amenity": "fast_food", "name": "A\u011fam Kebap", "name:ar": "\u0643\u0628\u0627\u0628 \u0622\u063a\u0627\u0645", "phone": "5921602"}}, {"type": "node", "id": 5329298429, "lat": 40.9704956, "lon": 29.2689612, "tags": {"addr:city": "Istanbul", "addr:district": "Sultanbeyli", "addr:street": "Gecem Soka\u011f\u0131", "amenity": "fast_food", "name": "Derya B\u00f6rek", "name:ar": "\u0645\u0637\u0639\u0645 \u0641\u0637\u0627\u0626\u0631"}}, {"type": "node", "id": 5329298438, "lat": 40.970021, "lon": 29.2686416, "tags": {"addr:city": "Istanbul", "addr:district": "Sultanbeyli", "addr:street": "Gecem Soka\u011f\u0131", "amenity": "fast_food", "name": "Kral \u00c7i\u011fk\u00f6fte", "name:ar": "\u0643\u0631\u0627\u0644 \u062a\u0634\u064a\u0643\u0648\u0641\u062a\u064a\u0647"}}, {"type": "node", "id": 5329298444, "lat": 40.9438063, "lon": 29.2706823, "tags": {"addr:city": "Istanbul", "addr:district": "Sultanbeyli", "addr:street": "\u015ealgaml\u0131 Caddesi", "amenity": "fast_food", "name": "\u00c7i\u011f K\u00f6fte", "name:ar": "\u062a\u0634\u064a\u0643\u0648\u0641\u062a\u064a\u0647"}}, {"type": "node", "id": 5329298485, "lat": 40.9672359, "lon": 29.2751186, "tags": {"addr:city": "Istanbul", "addr:district": "Sultanbeyli", "addr:street": "Cinnah Soka\u011f\u0131", "amenity": "fast_food", "name": "\u00d6z S\u00fcper Pide Salonu", "name:ar": "\u0641\u0637\u0627\u0626\u0631 \u0623\u0648\u0632 \u0633\u0648\u0628\u0631", "phone": "02164988965"}}, {"type": "node", "id": 5329298509, "lat": 40.9687098, "lon": 29.2762843, "tags": {"addr:city": "Istanbul", "addr:district": "Sultanbeyli", "addr:street": "Sema soka\u011f\u0131", "amenity": "fast_food", "name": "\u00d6zg\u00fcven Market & Kuruyemi\u015fcilik", "name:ar": "\u0645\u0627\u0631\u0643\u062a \u0623\u0648\u0632\u063a\u0648\u0641\u064a\u0646 \u0648\u0645\u0637\u0639\u0645"}}, {"type": "node", "id": 5329298510, "lat": 40.9722899, "lon": 29.2657904, "tags": {"addr:city": "Istanbul", "addr:district": "Sultanbeyli", "addr:street": "Alt\u0131nova Soka\u011f\u0131", "amenity": "fast_food", "name": "A\u011fam Kebap", "name:ar": "\u0622\u063a\u0627\u0645 \u0643\u0628\u0627\u0628", "phone": "5921602"}}, {"type": "node", "id": 5329298514, "lat": 40.9679915, "lon": 29.275187, "tags": {"addr:city": "Istanbul", "addr:district": "Sultanbeyli", "addr:street": "\u015ean Soka\u011f\u0131", "amenity": "fast_food", "name": "Fethi Day\u0131n\u0131n Yeri", "name:ar": "\u0645\u0637\u0639\u0645 \u0641\u0627\u062a\u062d", "phone": "05307346123"}}, {"type": "node", "id": 5329298822, "lat": 40.9672359, "lon": 29.2751678, "tags": {"addr:city": "Istanbul", "addr:district": "Sultanbeyli", "addr:street": "Cinnah Soka\u011f\u0131", "amenity": "fast_food", "name": "Adana Sofras\u0131", "name:ar": "\u0645\u0637\u0639\u0645 \u0633\u0641\u0631\u0627 \u0627\u0636\u0646\u0627", "phone": "05423547713"}}, {"type": "node", "id": 5329310969, "lat": 40.9559705, "lon": 29.2717592, "tags": {"addr:city": "Istanbul", "addr:district": "Sultanbeyli", "addr:street": "\u015ealgaml\u0131 Caddesi", "amenity": "fast_food", "name": "Dilan Pastanesi", "name:ar": "\u0641\u0637\u0627\u0626\u0631 \u062f\u064a\u0644\u0627\u0646", "phone": "05323917765"}}, {"type": "node", "id": 5329310975, "lat": 40.9669994, "lon": 29.2752582, "tags": {"addr:city": "Istanbul", "addr:district": "Sultanbeyli", "addr:street": "Cinnah Soka\u011f\u0131", "amenity": "fast_food", "cuisine": "turkish", "name": "Kral \u00c7i\u011fk\u00f6fte", "name:ar": "\u0643\u0648\u0641\u062a\u0647 \u0643\u0631\u0627\u0644"}}, {"type": "node", "id": 5329311010, "lat": 40.9683913, "lon": 29.2724594, "tags": {"addr:city": "Istanbul", "addr:district": "Sultanbeyli", "addr:street": "Ahmet Kavak Soka\u011f\u0131", "amenity": "fast_food", "cuisine": "turkish", "name": "K\u0131smet Catering Yemek", "name:ar": "\u0642\u0633\u0645\u0629 \u062c\u0627\u062a\u0631\u064a\u0646\u063a \u064a\u0645\u064a\u0643", "phone": "02164985104"}}, {"type": "node", "id": 5329311668, "lat": 40.9728534, "lon": 29.2746565, "tags": {"addr:city": "Istanbul", "addr:district": "Sultanbeyli", "addr:street": "Kaptan\u0131 Derya Cadeesi", "amenity": "fast_food", "cuisine": "dessert", "name": "S\u0131cak Tatl\u0131 D\u00fcnyas\u0131", "name:ar": "\u0639\u0627\u0644\u0645 \u0627\u0644\u062d\u0644\u0648\u064a\u0627\u062a \u0627\u0644\u0633\u0627\u062e\u0646\u0629", "phone": "05353794455"}}, {"type": "node", "id": 5329312222, "lat": 40.9519291, "lon": 29.281273, "tags": {"addr:city": "Istanbul", "addr:district": "Sultanbeyli", "addr:street": "Eyyubi Caddesi", "amenity": "fast_food", "name": "Sel\u00e7uk", "name:ar": "\u0645\u0637\u0639\u0645 \u0633\u0644\u062a\u0634\u0648\u0643"}}, {"type": "node", "id": 5329312246, "lat": 40.9728314, "lon": 29.2746565, "tags": {"addr:city": "Istanbul", "addr:district": "Sultanbeyli", "addr:street": "Kaptan\u0131 Derya Cadeesi", "amenity": "fast_food", "cuisine": "turkish", "name": "\u00c7i\u011fk\u00f6fteci", "name:ar": "\u0643\u0648\u0641\u062a\u0627\u062c\u064a"}}, {"type": "node", "id": 5329312253, "lat": 40.9677844, "lon": 29.2749815, "tags": {"addr:city": "Istanbul", "addr:district": "Sultanbeyli", "addr:street": "\u00c7aml\u0131k Caddesi", "amenity": "fast_food", "cuisine": "ice_cream", "name": "Mara\u015f Dondurma Salonu", "name:ar": "\u0628\u0648\u0638\u0629 \u0645\u0627\u0631\u0627\u0634"}}, {"type": "node", "id": 5329312258, "lat": 40.9758001, "lon": 29.2647079, "tags": {"addr:city": "Istanbul", "addr:district": "Sultanbeyli", "addr:street": "Ahmet Yesevi Mahllesi", "amenity": "fast_food", "cuisine": "turkish", "name": "Kral \u00c7i\u011fk\u00f6fte", "name:ar": "\u0643\u0648\u0641\u062a\u0647 \u0643\u0631\u0627\u0644"}}, {"type": "node", "id": 5329319369, "lat": 40.9533081, "lon": 29.3017119, "tags": {"addr:city": "Istanbul", "addr:district": "Sultanbeyli", "addr:street": "Ordu Caddesi", "amenity": "fast_food", "name": "Kral \u00c7i\u011fk\u00f6fte", "name:ar": "\u0643\u0631\u0627\u0644 \u0634\u064a\u0643\u0648\u0641\u062a\u0627"}}, {"type": "node", "id": 5329319389, "lat": 40.9534498, "lon": 29.3015645, "tags": {"addr:city": "Istanbul", "addr:district": "Sultanbeyli", "addr:street": "Afyon Caddesi", "amenity": "fast_food", "cuisine": "turkish", "name": "Pide B\u00f6rek", "name:ar": "\u0628\u064a\u062f\u064a \u0628\u0648\u0631\u064a\u0643"}}, {"type": "node", "id": 5329319390, "lat": 40.9445207, "lon": 29.3003176, "tags": {"addr:city": "Istanbul", "addr:district": "Sultanbeyli", "addr:street": "Fatih Bulvar\u0131", "amenity": "fast_food", "name": "Tiryaki kebab", "name:ar": "\u0643\u0628\u0627\u0628 \u0643\u0631\u064a\u0627\u062a\u064a", "operator": "Teryaki kebab"}}, {"type": "node", "id": 5329335337, "lat": 40.9669137, "lon": 29.2664575, "tags": {"addr:city": "Istanbul", "addr:district": "Sultanbeyli", "addr:street": "Cami caddesi", "amenity": "fast_food", "name": "\u00c7i\u011f k\u00f6fte \u00f6mer usta", "name:ar": "\u0635\u0646\u062f\u0648\u064a\u0634 \u0639\u0645\u0631 \u0627\u0648\u0633\u0637\u0629"}}, {"type": "node", "id": 5329335354, "lat": 40.9669637, "lon": 29.2689353, "tags": {"addr:city": "Istanbul", "addr:district": "Sultanbeyli", "addr:street": "Fatih bulvar\u0131", "amenity": "fast_food", "name": "\u00d6z s\u00fcper pide", "name:ar": "\u0645\u062d\u0644 \u0641\u0637\u0627\u0626\u0631 \u0633\u0648\u0628\u0631 \u0628\u064a\u062f\u0627", "phone": "02163987079"}}, {"type": "node", "id": 5329335376, "lat": 40.9645724, "lon": 29.2693328, "tags": {"addr:city": "Istanbul", "addr:district": "Sultanbeyli", "addr:street": "G\u00fcn caddesi", "amenity": "fast_food", "name": "\u00c7a\u011fri paket servisi", "name:ar": "\u0641\u0637\u0627\u0626\u0631 \u062a\u0634\u0627\u063a\u0631\u064a"}}, {"type": "node", "id": 5329335407, "lat": 40.9640863, "lon": 29.2707276, "tags": {"addr:city": "Istanbul", "addr:district": "Sultanbeyli", "addr:street": "Ziya-\u00fcl hak caddesi", "amenity": "fast_food", "name": "\u015eam lahmacun", "name:ar": "\u0641\u0637\u0627\u0626\u0631 \u0627\u0644\u0634\u0627\u0645"}}, {"type": "node", "id": 5329335419, "lat": 40.9951971, "lon": 29.2649984, "tags": {"addr:city": "Istanbul", "addr:district": "Sultanbeyli", "addr:street": "Mimar sinan caddesi", "amenity": "fast_food", "name": "Anteplio\u011flu hertat", "name:ar": "\u0641\u0637\u0627\u0626\u0631 \u0639\u0646\u062a\u0627\u0628\u0644\u064a \u0627\u0648\u063a\u0644\u0648", "phone": "05419193463"}}, {"type": "node", "id": 5329335921, "lat": 40.9544853, "lon": 29.2648911, "tags": {"addr:city": "Istanbul", "addr:district": "Sultanbeyli", "addr:street": "Kuran kursu caddesi", "amenity": "fast_food", "name": "Alt\u0131yol pide", "name:ar": "\u0641\u0637\u0627\u0626\u0631 \u0627\u0644\u062a\u064a\u0648\u0644"}}, {"type": "node", "id": 5329335923, "lat": 40.9677481, "lon": 29.2674445, "tags": {"addr:city": "Istanbul", "addr:district": "Sultanbeyli", "addr:street": "Merkez soka\u011f\u0131", "amenity": "fast_food", "name": "C\u0131zb\u0131z sucuk", "name:ar": "\u0635\u0646\u062f\u0648\u064a\u0634 \u062c\u0632\u0628\u0632", "phone": "05365007652"}}, {"type": "node", "id": 5329335962, "lat": 40.967659, "lon": 29.2657923, "tags": {"addr:city": "Istanbul", "addr:district": "Sultanbeyli", "addr:street": "Fatih bulvar\u0131", "amenity": "fast_food", "name": "\u0130sos d\u00f6ner sultanbeyli", "name:ar": "\u0645\u0637\u0639\u0645 \u0633\u0644\u0637\u0627\u0646 \u0628\u064a\u0644\u064a", "phone": "02164191012"}}, {"type": "node", "id": 5329335970, "lat": 40.967181, "lon": 29.269719, "tags": {"addr:city": "Istanbul", "addr:district": "Sultanbeyli", "addr:street": "Ke\u015fan sokak", "amenity": "fast_food", "name": "D\u00fcr\u00fcmix", "name:ar": "\u0645\u0637\u0639\u0645 \u062f\u0648\u0631\u0648\u0645\u064a\u0643\u0633 \u0644\u0644\u0648\u062c\u0628\u0627\u062a \u0627\u0644\u0633\u0631\u064a\u0639\u0629", "phone": "02163980066"}}, {"type": "node", "id": 5329335972, "lat": 40.9672377, "lon": 29.2688178, "tags": {"addr:city": "Istanbul", "addr:district": "Sultanbeyli", "addr:street": "Cenk sokak", "amenity": "fast_food", "name": "Karde\u015fler d\u00f6ner", "name:ar": "\u0634\u0627\u0648\u0631\u0645\u0627 \u0627\u0644\u0627\u0635\u062f\u0642\u0627\u0621", "phone": "05397484571"}}, {"type": "node", "id": 5329335976, "lat": 40.9667841, "lon": 29.2663502, "tags": {"addr:city": "Istanbul", "addr:district": "Sultanbeyli", "addr:street": "Cami caddesi", "amenity": "fast_food", "name": "Enerji bistro", "name:ar": "\u0645\u0637\u0639\u0645 \u0627\u0646\u0631\u062c\u064a", "phone": "02164196100"}}, {"type": "node", "id": 5329335980, "lat": 40.9919857, "lon": 29.2729759, "tags": {"addr:city": "Istanbul", "addr:district": "Sultanbeyli", "addr:street": "Unkapan\u0131 soka\u011f\u0131", "amenity": "fast_food", "name": "\u00c7i\u011f k\u00f6fteci ramazan usta", "name:ar": "\u0635\u0646\u062f\u0648\u064a\u0634 \u0631\u0645\u0636\u0627\u0646 \u0627\u0648\u0633\u0637\u0629", "phone": "02163936444"}}, {"type": "node", "id": 5329335984, "lat": 40.9594601, "lon": 29.2648696, "tags": {"addr:city": "Istanbul", "addr:district": "Sultanbeyli", "addr:street": "Kuran kursu caddesi", "amenity": "fast_food", "name": "\u00c7i\u011fk\u00f6fteci hasan aybak", "name:ar": "\u0645\u0637\u0639\u0645 \u062d\u0633\u0646 \u0627\u064a\u0628\u0643", "phone": "05372215457"}}, {"type": "node", "id": 5329336010, "lat": 40.9658552, "lon": 29.2707512, "tags": {"addr:city": "Istanbul", "addr:district": "Sultanbeyli", "addr:street": "Fatih bulvar\u0131", "amenity": "fast_food", "name": "\u00c7i\u011fk\u00f6fteci \u00f6mer usta", "name:ar": "\u0643\u0648\u0641\u062a\u062c\u064a \u0639\u0645\u0631 \u0627\u0648\u0633\u0637\u0629"}}, {"type": "node", "id": 5329336529, "lat": 40.9653744, "lon": 29.2718433, "tags": {"addr:city": "Istanbul", "addr:district": "Sultanbeyli", "addr:street": "Erdo\u011fan caddesi", "amenity": "fast_food", "name": "U\u011fur b\u00f6ce\u011fi", "name:ar": "\u0645\u0637\u0639\u0645 \u064a\u0648\u063a\u0648\u0631 \u0628\u0648\u062c\u0627", "phone": "02164961314"}}, {"type": "node", "id": 5329336533, "lat": 40.9677886, "lon": 29.2679166, "tags": {"addr:city": "Istanbul", "addr:district": "Sultanbeyli", "addr:street": "Yusuf islam soka\u011f\u0131", "amenity": "fast_food", "name": "Karada\u011f pida d\u00f6ner", "name:ar": "\u0635\u0646\u062f\u0648\u064a\u0634 \u0643\u0627\u0631\u0627\u062f\u0627\u063a", "phone": "05448702387"}}, {"type": "node", "id": 5329336539, "lat": 40.9644023, "lon": 29.2660712, "tags": {"addr:city": "Istanbul", "addr:district": "Sultanbeyli", "addr:street": "Kuran kursu caddesi", "amenity": "fast_food", "name": "U\u011fur pida b\u00f6rek", "name:ar": "\u0645\u0637\u0639\u0645 \u064a\u0648\u063a\u0648\u0631", "phone": "02163983747"}}, {"type": "node", "id": 5329336547, "lat": 40.9670352, "lon": 29.2677235, "tags": {"addr:city": "Istanbul", "addr:district": "Sultanbeyli", "addr:street": "Fatih bulvar\u0131", "amenity": "fast_food", "brand": "Burger King", "brand:wikidata": "Q177054", "brand:wikipedia": "en:Burger King", "cuisine": "burger", "name": "Burger King", "name:ar": "\u0628\u0631\u063a\u0631 \u0643\u064a\u0646\u063a", "phone": "4445464", "takeaway": "yes"}}, {"type": "node", "id": 5329336551, "lat": 40.9652722, "lon": 29.2681575, "tags": {"addr:city": "Istanbul", "addr:district": "Sultanbeyli", "addr:street": "G\u00fcl caddesi", "amenity": "fast_food", "name": "Memo usta", "name:ar": "\u0645\u0637\u0639\u0645 \u0648\u062c\u0628\u0627\u062a \u0633\u0631\u064a\u0639\u0629 \u0645\u064a\u0645\u0648 \u0627\u0648\u0633\u0637\u0629"}}, {"type": "node", "id": 5329338004, "lat": 40.967578, "lon": 29.267187, "tags": {"addr:city": "Istanbul", "addr:district": "Sultanbeyli", "addr:street": "Ak soka\u011f\u0131", "amenity": "fast_food", "name": "Anadolu d\u00fcr\u00fcm", "name:ar": "\u0635\u0646\u062f\u0648\u064a\u0634 \u0627\u0644\u0627\u0646\u0627\u0636\u0648\u0644", "phone": "05377226474"}}, {"type": "node", "id": 5329338006, "lat": 40.9662756, "lon": 29.2693319, "tags": {"addr:city": "Istanbul", "addr:district": "Sultanbeyli", "addr:street": "Fatih bulvar\u0131", "amenity": "fast_food", "name": "Hot d\u00f6ner", "name:ar": "\u0645\u0637\u0639\u0645 \u0647\u0648\u062a \u062f\u0648\u0646\u064a\u0631"}}, {"type": "node", "id": 5329338008, "lat": 40.954226, "lon": 29.2646979, "tags": {"addr:city": "Istanbul", "addr:district": "Sultanbeyli", "addr:street": "Kuran kursu caddesi", "amenity": "fast_food", "name": "Emin o\u011fullar\u0131 pastaneleri", "name:ar": "\u0641\u0637\u0627\u0626\u0631 \u0627\u0645\u064a\u0646", "phone": "05346030915"}}, {"type": "node", "id": 5329338123, "lat": 40.9647911, "lon": 29.2654704, "tags": {"addr:city": "Istanbul", "addr:district": "Sultanbeyli", "addr:street": "Cami caddesi", "amenity": "fast_food", "name": "Ad\u0131yaman \u00e7i\u011fk\u00f6fteci dervi\u015f ya\u015far", "name:ar": "\u0645\u0637\u0639\u0645 \u0627\u062f\u064a\u0645\u0627\u0646", "phone": "05364191658"}}, {"type": "node", "id": 5329338148, "lat": 40.96902, "lon": 29.2678951, "tags": {"addr:city": "Istanbul", "addr:district": "Sultanbeyli", "addr:street": "Yusuf islam soka\u011f\u0131", "amenity": "fast_food", "name": "D\u0131mlag", "name:ar": "\u0635\u0646\u062f\u0648\u064a\u0634 \u062f\u0645\u0644\u0627\u063a", "phone": "05367929943"}}, {"type": "node", "id": 5329338152, "lat": 40.9654207, "lon": 29.2697254, "tags": {"addr:city": "Istanbul", "addr:district": "Sultanbeyli", "addr:street": "G\u00fcn caddesi", "amenity": "fast_food", "name": "D\u00fcr\u00fcmce", "name:ar": "\u0645\u0637\u0639\u0645 \u062f\u0631\u0648\u0645\u062c\u064a \u0644\u0644\u0648\u062c\u0628\u0627\u062a \u0627\u0644\u0633\u0631\u064a\u0639\u0629"}}, {"type": "node", "id": 5329338164, "lat": 40.9669947, "lon": 29.2665004, "tags": {"addr:city": "Istanbul", "addr:district": "Sultanbeyli", "addr:street": "Cami caddesi", "amenity": "fast_food", "name": "VB Ci\u011fercim sultanbeyli \u015fubesi", "name:ar": "\u0645\u0637\u0639\u0645 \u0633\u0644\u0637\u0627\u0646 \u0628\u064a\u0644\u064a \u0641\u064a \u0628\u064a", "phone": "02164988978"}}, {"type": "node", "id": 5329338170, "lat": 40.9664303, "lon": 29.2687886, "tags": {"addr:city": "Istanbul", "addr:district": "Sultanbeyli", "addr:street": "Fatih bulvar\u0131", "amenity": "fast_food", "name": "Seydio\u011flu B\u00f6rek", "name:ar": "\u0634\u0627\u0648\u0631\u0645\u0627 \u0633\u064a\u062f\u064a \u0627\u0648\u063a\u0644\u0648"}}, {"type": "node", "id": 5340499425, "lat": 41.0106711, "lon": 28.9704631, "tags": {"amenity": "fast_food", "name": "KOKORE\u00c7\u00c7\u0130"}}, {"type": "node", "id": 5344919568, "lat": 40.9510144, "lon": 29.2915289, "tags": {"addr:city": "Istanbul", "addr:district": "Sultanbeyli", "addr:street": "Petrol Yolu Caddesi", "amenity": "fast_food", "name": "Istanbul \u00c7i\u011fk\u00f6fte", "name:ar": "\u0627\u0633\u0637\u0646\u0628\u0648\u0644 \u0643\u0648\u0641\u062a\u064a"}}, {"type": "node", "id": 5344919590, "lat": 40.9543548, "lon": 29.2833446, "tags": {"addr:city": "Istanbul", "addr:district": "Sultanbeyli", "addr:street": "Petrol Yolu Caddesi", "amenity": "fast_food", "name": "\u00e7i\u011fk\u00f6fte", "name:ar": "\u0643\u0648\u0641\u062a\u064a\u0647"}}, {"type": "node", "id": 5344919607, "lat": 40.9537893, "lon": 29.282055, "tags": {"addr:city": "Istanbul", "addr:district": "Sultanbeyli", "addr:street": "Eyyubi caddesi", "amenity": "fast_food", "name": "Pide salonu", "name:ar": "\u0628\u064a\u062f\u0647", "phone": "02164870701"}}, {"type": "node", "id": 5344919612, "lat": 40.9570772, "lon": 29.2966246, "tags": {"addr:city": "Istanbul", "addr:district": "Sultanbeyli", "addr:street": "Fatih Bulvar\u0131", "amenity": "fast_food", "name": "Tad\u0131m", "name:ar": "\u0645\u0637\u0639\u0645 \u062a\u0627\u062f\u0645"}}, {"type": "node", "id": 5344921538, "lat": 40.9557167, "lon": 29.2852011, "tags": {"addr:city": "Istanbul", "addr:district": "Sultanbeyli", "addr:street": "Eyyubi caddesi", "amenity": "fast_food", "name": "Has \u00e7i\u011fk\u00f6fte d\u00fcnyas\u0131", "name:ar": "\u0634\u064a \u0643\u0648\u0641\u062a\u064a\u0647"}}, {"type": "node", "id": 5395306821, "lat": 41.0172132, "lon": 28.9695544, "tags": {"amenity": "fast_food", "name": "Kebaq\u8089\u6372"}}, {"type": "node", "id": 5450459410, "lat": 40.995419, "lon": 29.0294325, "tags": {"amenity": "fast_food", "name": "Antepli Beraat Tatl\u0131 Ve \u00c7i\u011f K\u00f6fte Salonu"}}, {"type": "node", "id": 5470929362, "lat": 41.0183207, "lon": 28.9705982, "tags": {"amenity": "fast_food", "cuisine": "fish", "internet_access": "wlan", "name:ar": "\u0645\u0637\u0627\u0639\u0645 \u0633\u0645\u0643 \u0645\u0642\u0644\u064a", "name:en": "fash food"}}, {"type": "node", "id": 5523629322, "lat": 41.0116565, "lon": 28.9751481, "tags": {"amenity": "fast_food", "name:en": "Tavuk Dunyasi"}}, {"type": "node", "id": 5542882980, "lat": 40.9789423, "lon": 29.265883, "tags": {"addr:city": "Istanbul", "addr:district": "Sultanbeyli", "addr:street": "kubbe Caddesi", "amenity": "fast_food", "name": "Tad\u0131m Zurna D\u00fcr\u00fcm"}}, {"type": "node", "id": 5542883417, "lat": 40.9690371, "lon": 29.2575654, "tags": {"addr:city": "Istanbul", "addr:district": "Sultanbeyli", "addr:street": "Fatih Bulvar\u0131 Caddesi", "amenity": "fast_food", "name": "Do\u011fukan B\u00fcfe", "name:ar": "\u0643\u0634\u0643 \u062f\u0648\u063a\u0643\u0627\u0646", "opening_hours": "Mo-Fr 07:00-13:30; Mo-Fr 17:00-20:00"}}, {"type": "node", "id": 5542883521, "lat": 40.9408544, "lon": 29.2882633, "tags": {"addr:city": "Istanbul", "addr:district": "Sultanbeyli", "addr:street": "Alparslan caddsi", "amenity": "fast_food", "name": "Kerde\u015fler b\u00fcfe", "name:ar": "\u0645\u0637\u0639\u0645 \u0643\u0627\u0631\u062f\u064a\u0634\u0644\u0627\u0631", "phone": "05536993233"}}, {"type": "node", "id": 5542883541, "lat": 40.9382691, "lon": 29.2839289, "tags": {"addr:city": "Istanbul", "addr:district": "Sultanbeyli", "addr:street": "Antalya Caddesi", "amenity": "fast_food", "name": "Hiranur pide", "name:ar": "\u0645\u0637\u0639\u0645 \u0647\u064a\u0631\u0627\u0646\u0648\u0631", "phone": "05356829930"}}, {"type": "node", "id": 5542883558, "lat": 40.9681978, "lon": 29.2621869, "tags": {"addr:city": "Istanbul", "addr:district": "Sultanbeyli", "addr:street": "Fatih Bulvar\u0131 Caddesi", "amenity": "fast_food", "name": "\u00c7i\u011f k\u00f6fte \u00d6mer Usta", "name:ar": "\u0645\u0637\u0639\u0645 \u0639\u0645\u0631 \u0627\u0648\u0633\u0637\u0627", "phone": "05416063463"}}, {"type": "node", "id": 5542883568, "lat": 40.9685424, "lon": 29.2551125, "tags": {"addr:city": "Istanbul", "addr:district": "Sultanbeyli", "addr:street": "Fatih Bulvar\u0131 Caddesi", "amenity": "fast_food", "name": "Kral \u00c7i\u011fk\u00f6fte", "name:ar": "\u0645\u0637\u0639\u0645 \u0643\u0627\u0631\u0627\u0644"}}, {"type": "node", "id": 5542883582, "lat": 40.9386957, "lon": 29.2871094, "tags": {"addr:city": "Istanbul", "addr:district": "Sultanbeyli", "addr:street": "cihan caddsi", "amenity": "fast_food", "name:ar": "\u0645\u0637\u0639\u0645 \u0641\u0637\u0627\u0626\u0631 \u0648\u062a\u0634\u0627\u064a", "phone": "05446650406"}}, {"type": "node", "id": 5542883586, "lat": 40.9685892, "lon": 29.2600755, "tags": {"addr:city": "Istanbul", "addr:district": "Sultanbeyli", "addr:street": "Fatih Bulvar\u0131 Caddesi", "amenity": "fast_food", "name": "Pa\u015fa D\u00f6ner", "name:ar": "\u0645\u0637\u0639\u0645 \u0628\u0627\u0634\u0627 \u062f\u0648\u0646\u064a\u0631"}}, {"type": "node", "id": 5542883621, "lat": 40.9688857, "lon": 29.2582895, "tags": {"addr:city": "Istanbul", "addr:district": "Sultanbeyli", "addr:street": "Fatih Bulvar\u0131 Caddesi", "amenity": "fast_food", "name": "Kumru", "name:ar": "\u0645\u0637\u0639\u0645 \u0643\u0648\u0645\u0631\u0648", "phone": "05452458580"}}, {"type": "node", "id": 5542883630, "lat": 40.9804497, "lon": 29.2659091, "tags": {"addr:city": "Istanbul", "addr:district": "Sultanbeyli", "addr:street": "kubbe Caddesi", "amenity": "fast_food", "name": "Me\u015fhur \u00c7i\u011fk\u00f6fteci Ramazan Usta", "name:ar": "\u0645\u0637\u0639\u0645 \u0645\u0634\u0647\u0648\u0631 \u0634\u064a\u0643\u0648\u0641\u062a\u062c\u064a"}}, {"type": "node", "id": 5542883634, "lat": 40.9686194, "lon": 29.2597525, "tags": {"addr:city": "Istanbul", "addr:district": "Sultanbeyli", "addr:street": "Fatih Bulvar\u0131 Caddesi", "amenity": "fast_food", "name": "Kral \u00c7i\u011fk\u00f6fte", "name:ar": "\u0645\u0637\u0639\u0645 \u0643\u0627\u0631\u0627\u0644"}}, {"type": "node", "id": 5542883646, "lat": 40.9383707, "lon": 29.2956413, "tags": {"addr:city": "Istanbul", "addr:district": "Sultanbeyli", "addr:street": "E\u015fref bitlis blv", "amenity": "fast_food", "name": "Antepli kadir uastkabap", "name:ar": "\u0645\u0637\u0639\u0645 \u0644\u0648\u062c\u0628\u0627\u062a \u0627\u0644\u0633\u0631\u064a\u0639\u0647", "phone": "02164872484"}}, {"type": "node", "id": 5542883669, "lat": 40.9703629, "lon": 29.2499731, "tags": {"addr:city": "Istanbul", "addr:district": "Sultanbeyli", "addr:street": "fatih bulvar\u0131", "amenity": "fast_food", "name": "Karahan pide&b\u00f6rek salonu", "name:ar": "\u0628\u0631\u0643 \u0648 \u0628\u064a\u062f\u064a\u0647"}}, {"type": "node", "id": 5542883719, "lat": 40.9469153, "lon": 29.2981145, "tags": {"addr:city": "Istanbul", "addr:district": "Sultanbeyli", "addr:street": "Alparslan caddsi", "amenity": "fast_food", "name": "Dostlar k\u00f6fte", "name:ar": "\u0645\u0637\u0639\u0645 \u0648\u062c\u0628\u0627\u062a \u0633\u0631\u064a\u0639\u0647 \u0643\u0641\u062a \u062f\u0648\u0633\u062a\u0644\u0627\u0631"}}, {"type": "node", "id": 5542883744, "lat": 40.9448498, "lon": 29.2846799, "tags": {"addr:city": "Istanbul", "addr:district": "Sultanbeyli", "addr:street": "Semanur Sokak", "amenity": "fast_food", "name": "K\u00f6fteci ersin", "name:ar": "\u0645\u0637\u0639\u0645 \u0627\u064a\u0631\u0633\u064a\u0646", "phone": "05320697255"}}, {"type": "node", "id": 5542883761, "lat": 40.9570779, "lon": 29.2966357, "tags": {"addr:city": "Istanbul", "addr:district": "Sultanbeyli", "addr:street": "Fatih Bulvar\u0131", "amenity": "fast_food", "name": "Tad\u0131m", "name:ar": "\u0645\u0637\u0639\u0645 \u062a\u0627\u062f\u0645"}}, {"type": "node", "id": 5542884526, "lat": 40.9472097, "lon": 29.2997337, "tags": {"addr:city": "Istanbul", "addr:district": "Sultanbeyli", "addr:street": "Fatih blv", "amenity": "fast_food", "name": "Ensar \u00e7i\u011fk\u00f6fte", "name:ar": "\u0645\u0637\u0639\u0645 \u0627\u0644\u0645\u0643\u0648\u0644\u0627\u062a \u0627\u0644\u0633\u0631\u064a\u0639\u0647)\u062a\u0634\u064a\u0643\u0648\u0641\u062a\u0647"}}, {"type": "node", "id": 5542884531, "lat": 40.9466326, "lon": 29.2994213, "tags": {"addr:city": "Istanbul", "addr:district": "Sultanbeyli", "addr:street": "Fatih bulvar\u0131", "amenity": "fast_food", "name": "Hertat", "name:ar": "\u0647\u064a\u0631\u062a\u0627\u062a"}},