{"version": 0.6, "generator": "Overpass API 0.7.60 f4c14d41", "osm3s": {"timestamp_osm_base": "2023-05-02T21:17:24Z", "copyright": "The data included in this document is from www.openstreetmap.org. The data is made available under ODbL."}, "elements": [{"type": "node", "id": 13757642, "lat": -33.8807768, "lon": 151.203912, "tags": {"amenity": "restaurant", "name": "Singapore Famous BBQ Pork"}}, {"type": "node", "id": 18323773, "lat": -33.8945472, "lon": 151.2335026, "tags": {"amenity": "restaurant", "name": "Centennial Homestead", "website": "https://www.centennialhomestead.com.au/"}}, {"type": "node", "id": 18469019, "lat": -33.968863, "lon": 151.2536276, "tags": {"addr:city": "Malabar", "addr:housenumber": "1", "addr:postcode": "2036", "addr:state": "NSW", "addr:street": "Howe Street", "addr:suburb": "Malabar", "amenity": "restaurant", "bar": "yes", "name": "Randwick Golf Club Restaurant", "phone": "+61 2 8347 3744", "website": "https://www.randwickgolfclub.com.au/restaurant.html"}}, {"type": "node", "id": 20955046, "lat": -33.8933503, "lon": 151.26066, "tags": {"amenity": "restaurant", "name": "Odessa on Bondi", "note": "exists? Some web presence."}}, {"type": "node", "id": 20959033, "lat": -33.857526, "lon": 151.2101733, "tags": {"addr:place": "Northern end of the Overseas Passenger Terminal", "addr:street": "Circular Quay West", "addr:suburb": "The Rocks", "air_conditioning": "yes", "amenity": "restaurant", "brewery": "James Squire", "cuisine": "regional", "diet:meat": "yes", "microbrewery": "yes", "name": "Squire's Landing", "opening_hours": "Mo-Fr 12:00-24:00; Sa-Su 11:00-24:00; PH 12:00-24:00", "phone": "+61 2 8014 5663", "website": "https://www.jamessquire.com.au/brewhouses/the-squires-landing/"}}, {"type": "node", "id": 20959034, "lat": -33.8581837, "lon": 151.2094296, "tags": {"amenity": "restaurant", "name": "La Mela"}}, {"type": "node", "id": 20959035, "lat": -33.8572949, "lon": 151.2093644, "tags": {"amenity": "restaurant", "name": "Waterfront"}}, {"type": "node", "id": 20959037, "lat": -33.8569286, "lon": 151.2091434, "tags": {"amenity": "restaurant", "cuisine": "chinese", "name": "Imperial Peking Harbourside"}}, {"type": "node", "id": 20959038, "lat": -33.8567625, "lon": 151.2090206, "tags": {"amenity": "restaurant", "cuisine": "italian", "name": "Italian Village"}}, {"type": "node", "id": 20959043, "lat": -33.8588135, "lon": 151.209991, "tags": {"amenity": "restaurant", "name": "Cruise Bar"}}, {"type": "node", "id": 20959187, "lat": -33.8581781, "lon": 151.2083712, "tags": {"amenity": "restaurant", "name": "Caminetto Restaurant"}}, {"type": "node", "id": 20959237, "lat": -33.8623203, "lon": 151.207161, "tags": {"addr:city": "Sydney", "addr:housenumber": "118", "addr:postcode": "2000", "addr:province": "nsw", "addr:street": "Harrington Street", "amenity": "restaurant", "cuisine": "italian", "name": "Rosetta", "website": "giovannissydney.com"}}, {"type": "node", "id": 20979627, "lat": -33.8941701, "lon": 151.2249669, "tags": {"amenity": "restaurant", "created_by": "JOSM", "cuisine": "chinese", "name": "Golden Century Seafood Restaurant"}}, {"type": "node", "id": 20979675, "lat": -33.8943121, "lon": 151.2262403, "tags": {"amenity": "restaurant", "name": "Arena"}}, {"type": "node", "id": 20979677, "lat": -33.8942077, "lon": 151.2261203, "tags": {"amenity": "restaurant", "created_by": "JOSM", "name": "Ablaze Grill & Bar"}}, {"type": "node", "id": 20979678, "lat": -33.8942578, "lon": 151.226183, "tags": {"amenity": "restaurant", "created_by": "JOSM", "cuisine": "italian", "name": "Cine"}}, {"type": "node", "id": 20979868, "lat": -33.8902287, "lon": 151.2777106, "tags": {"amenity": "restaurant", "cuisine": "burger;seafood", "description": "Offers DJs as entertainment", "name": "The Bucket List", "name:en": "The Bucket List", "outdoor_seating": "yes", "wheelchair": "limited"}}, {"type": "node", "id": 20979873, "lat": -33.8888348, "lon": 151.2765847, "tags": {"amenity": "restaurant", "cuisine": "sushi", "name": "Sushi Train"}}, {"type": "node", "id": 20979895, "lat": -33.8896163, "lon": 151.2756363, "tags": {"amenity": "restaurant", "created_by": "JOSM", "cuisine": "vietnamese", "name": "Nam"}}, {"type": "node", "id": 20979905, "lat": -33.8892039, "lon": 151.2751178, "tags": {"amenity": "restaurant", "created_by": "JOSM", "cuisine": "japanese", "name": "Myoko"}}, {"type": "node", "id": 20979907, "lat": -33.8889148, "lon": 151.2745196, "tags": {"amenity": "restaurant", "cuisine": "chinese", "name": "Bambusia Chinese Restaurant"}}, {"type": "node", "id": 20979950, "lat": -33.8894278, "lon": 151.2713468, "tags": {"amenity": "restaurant", "cuisine": "mexican", "name": "Fonda"}}, {"type": "node", "id": 20979957, "lat": -33.8887535, "lon": 151.2703101, "tags": {"amenity": "restaurant", "diet:kosher": "yes", "name": "Katzy's Food Factory", "opening_hours": "Su-Th 12:00-20:00; Fr 09:30-14:30"}}, {"type": "node", "id": 20980058, "lat": -33.8912691, "lon": 151.2736505, "tags": {"amenity": "restaurant", "name": "Ravesi's", "source": "survey"}}, {"type": "node", "id": 20980082, "lat": -33.8914735, "lon": 151.2734931, "tags": {"amenity": "restaurant", "name": "Doxa Steakhouse & Seafood", "source": "survey"}}, {"type": "node", "id": 20980086, "lat": -33.8916904, "lon": 151.2734798, "tags": {"amenity": "restaurant", "created_by": "JOSM", "name": "Mojito Bar &Grill"}}, {"type": "node", "id": 20980088, "lat": -33.8917182, "lon": 151.2732272, "tags": {"amenity": "restaurant", "cuisine": "italian", "name": "Il Puntino Italian Restaurant", "source": "survey"}}, {"type": "node", "id": 20980089, "lat": -33.8918013, "lon": 151.273284, "tags": {"amenity": "restaurant", "cuisine": "sushi", "name": "Ichiban Sushi"}}, {"type": "node", "id": 20980096, "lat": -33.8926685, "lon": 151.2729141, "tags": {"amenity": "restaurant", "created_by": "JOSM", "name": "Sobo"}}, {"type": "node", "id": 20980097, "lat": -33.8930248, "lon": 151.2728131, "tags": {"amenity": "restaurant"}}, {"type": "node", "id": 20980099, "lat": -33.8934917, "lon": 151.2728011, "tags": {"amenity": "restaurant", "name": "Bondi Social Restaurant & Bar"}}, {"type": "node", "id": 20980103, "lat": -33.8939619, "lon": 151.2729126, "tags": {"amenity": "restaurant", "name": "Bondi Trattoria"}}, {"type": "node", "id": 26526161, "lat": -33.86466, "lon": 151.2169334}, {"type": "node", "id": 42335405, "lat": -33.9028295, "lon": 151.0843422, "tags": {"amenity": "restaurant", "created_by": "Potlatch alpha", "cuisine": "italian", "name": "Mancini's"}}, {"type": "node", "id": 134497895, "lat": -33.8512699, "lon": 151.0784886, "tags": {"amenity": "restaurant", "name": "Waterview", "wheelchair": "yes"}}, {"type": "node", "id": 173139348, "lat": -33.8827122, "lon": 151.2071081}, {"type": "node", "id": 173139350, "lat": -33.8827706, "lon": 151.2072141}, {"type": "node", "id": 173139351, "lat": -33.8828151, "lon": 151.2072625}, {"type": "node", "id": 173139352, "lat": -33.8828343, "lon": 151.2072556}, {"type": "node", "id": 173354137, "lat": -33.8729424, "lon": 151.1920482, "tags": {"al_fresco": "yes", "amenity": "restaurant", "name": "Doyles", "wheelchair": "yes"}}, {"type": "node", "id": 263133047, "lat": -33.8930426, "lon": 151.1840745, "tags": {"amenity": "restaurant", "name": "Asakusa"}}, {"type": "node", "id": 263133050, "lat": -33.896789, "lon": 151.1797622, "tags": {"amenity": "restaurant", "created_by": "JOSM", "name": "Thai Pothong"}}, {"type": "node", "id": 268964322, "lat": -33.8404396, "lon": 151.1279477, "tags": {"amenity": "restaurant", "created_by": "JOSM", "name": "Banjo Paterson Cottage Restaurant"}}, {"type": "node", "id": 318861272, "lat": -33.8761041, "lon": 151.2074889, "tags": {"addr:housenumber": "371", "addr:street": "Pitt Street", "amenity": "restaurant", "cuisine": "korean", "name": "Madang"}}, {"type": "node", "id": 321191104, "lat": -33.8496851, "lon": 151.2114015, "tags": {"amenity": "restaurant", "name": "Ripples Cafe Milsons Point"}}, {"type": "node", "id": 325246951, "lat": -33.8804003, "lon": 151.2052498, "tags": {"addr:housenumber": "768", "addr:street": "George Street", "amenity": "restaurant", "comment": "authentic thai; about $10 per main; casual atmosphere", "cuisine": "thai", "name": "Crocodile Senior Thai", "opening_hours": "Mo-Su 11:30-22:00", "phone": "+61 (2) 9211 6630"}}, {"type": "node", "id": 331374030, "lat": -33.9660695, "lon": 151.1026693, "tags": {"amenity": "restaurant", "cuisine": "chinese", "name": "Sunny Harbour Seafood", "toilets:wheelchair": "yes", "wheelchair": "yes"}}, {"type": "node", "id": 331374040, "lat": -33.965224, "lon": 151.1007104, "tags": {"amenity": "restaurant"}}, {"type": "node", "id": 344419693, "lat": -33.8876506, "lon": 151.1577179, "tags": {"addr:housenumber": "15", "amenity": "restaurant", "cuisine": "brazilian", "name": "Braza"}}, {"type": "node", "id": 348994614, "lat": -33.8740627, "lon": 151.215338, "tags": {"addr:housenumber": "60-70", "amenity": "restaurant", "created_by": "Potlatch 0.10f", "cuisine": "brazilian", "name": "Churrasco", "source": "survey", "url": "http://churrasco.com.au/"}}, {"type": "node", "id": 348994783, "lat": -33.8675288, "lon": 151.2018027, "tags": {"amenity": "restaurant", "name": "Spice Room at the Malaya"}}, {"type": "node", "id": 356993906, "lat": -33.8759139, "lon": 151.2152926, "tags": {"addr:housenumber": "75", "amenity": "restaurant", "cuisine": "argentinian", "name": "Gaucho Grill", "source": "survey"}}, {"type": "node", "id": 373877953, "lat": -33.7838457, "lon": 151.1301723, "tags": {"amenity": "restaurant", "name": "Sambal"}}, {"type": "node", "id": 392527429, "lat": -33.8334312, "lon": 151.2078383, "tags": {"amenity": "restaurant", "indoor_seating": "yes", "name": "Soho on miller", "outdoor_seating": "yes", "source": "survey"}}, {"type": "node", "id": 392527430, "lat": -33.8349644, "lon": 151.2074861, "tags": {"amenity": "restaurant", "cuisine": "italian", "name": "Lincontro", "source": "survey"}}, {"type": "node", "id": 428468958, "lat": -33.8047166, "lon": 151.055931, "tags": {"amenity": "restaurant", "cuisine": "chinese", "name": "Yung Shing Restaurant", "source": "survey"}}, {"type": "node", "id": 428472730, "lat": -33.8294696, "lon": 151.1268795, "tags": {"amenity": "restaurant", "cuisine": "french", "name": "Restraunt B.Y.O."}}, {"type": "node", "id": 458715841, "lat": -33.7998099, "lon": 151.2838725, "tags": {"amenity": "restaurant", "cuisine": "pizza", "name": "Hugos", "name:ja": "\u30d2\u30e5\u30fc\u30b4\u30b9 \u30de\u30f3\u30ea\u30fc", "wheelchair": "yes"}}, {"type": "node", "id": 469633220, "lat": -33.8096118, "lon": 151.1856636, "tags": {"addr:housenumber": "44", "addr:postcode": "2064", "addr:state": "NSW", "addr:street": "Hampden Road", "addr:suburb": "Artarmon", "addr:unit": "Shop 1", "amenity": "restaurant", "cuisine": "pizza", "name": "Pizza Luna", "source": "local_knowledge", "website": "https://pizzalunaartarmon.com.au/", "wheelchair": "yes"}}, {"type": "node", "id": 471483653, "lat": -33.8082229, "lon": 151.1849218, "tags": {"amenity": "restaurant", "cuisine": "sushi;japanese", "name": "Sushiya", "source": "local_knowledge"}}, {"type": "node", "id": 471483798, "lat": -33.8081398, "lon": 151.185024, "tags": {"amenity": "restaurant", "cuisine": "japanese", "indoor_seating": "yes", "name": "Japanese Noodle Genki", "outdoor_seating": "yes"}}, {"type": "node", "id": 497587538, "lat": -33.8328713, "lon": 151.2076371, "tags": {"amenity": "restaurant", "cuisine": "korean", "name": "Jingogae Korean", "source": "survey"}}, {"type": "node", "id": 501793212, "lat": -33.8931642, "lon": 151.1838217, "tags": {"amenity": "restaurant", "name": "Kai on King sushi"}}, {"type": "node", "id": 515985924, "lat": -33.8874257, "lon": 151.1746218, "tags": {"addr:city": "Camperdown", "addr:housenumber": "137", "addr:postcode": "2050", "addr:street": "Parramatta Road", "amenity": "restaurant", "contact:facebook": "https://www.facebook.com/Franks.Pizza.Bar", "cuisine": "pizza", "name": "Frank's Pizza Bar", "opening_hours": "Tu-Su 11:00-23:00", "phone": "+61 2 9519 3404", "smoking": "no", "wheelchair": "limited"}}, {"type": "node", "id": 518303130, "lat": -33.8882278, "lon": 151.1582329, "tags": {"addr:city": "Leichhardt", "addr:housenumber": "470", "addr:postcode": "2049", "addr:street": "Parramatta Road", "amenity": "restaurant", "cuisine": "peruvian", "name": "La Parillada Charcoal Restaurant", "opening_hours": "Tu-Fr 17:30-22:00, Sa-Su 12:00-15:00, Sa-Su 17:00-23:00", "phone": "+61 2 9560 0943", "smoking": "no", "website": "http://www.laparrillada.com.au"}}, {"type": "node", "id": 536763961, "lat": -33.8490445, "lon": 151.2109015, "tags": {"amenity": "restaurant", "name": "Aqua Dining"}}, {"type": "node", "id": 536763962, "lat": -33.8484748, "lon": 151.2061634, "tags": {"amenity": "restaurant", "name": "Sails"}}, {"type": "node", "id": 573233241, "lat": -33.8647585, "lon": 151.2168817}, {"type": "node", "id": 573233243, "lat": -33.8648064, "lon": 151.2168847}, {"type": "node", "id": 573233245, "lat": -33.8648135, "lon": 151.2169653}, {"type": "node", "id": 573233247, "lat": -33.8648503, "lon": 151.2169756}, {"type": "node", "id": 573233249, "lat": -33.8648713, "lon": 151.217033}, {"type": "node", "id": 573233251, "lat": -33.8648548, "lon": 151.2170943}, {"type": "node", "id": 573233253, "lat": -33.864743, "lon": 151.2171522}, {"type": "node", "id": 573233254, "lat": -33.8646785, "lon": 151.2171188}, {"type": "node", "id": 573233256, "lat": -33.8646347, "lon": 151.2170149}, {"type": "node", "id": 599519847, "lat": -33.7840655, "lon": 151.1760591, "tags": {"amenity": "restaurant", "name": "Pizza Olla", "website": "https://www.pizzaolla.com.au/", "wheelchair": "limited"}}, {"type": "node", "id": 604260091, "lat": -33.8447764, "lon": 151.2431493}, {"type": "node", "id": 604260098, "lat": -33.8446225, "lon": 151.2431356}, {"type": "node", "id": 604260161, "lat": -33.8445996, "lon": 151.2432764}, {"type": "node", "id": 604260162, "lat": -33.8447479, "lon": 151.2433008}, {"type": "node", "id": 617563706, "lat": -33.857462, "lon": 151.214805}, {"type": "node", "id": 617563713, "lat": -33.857528, "lon": 151.2145467}, {"type": "node", "id": 617563714, "lat": -33.8574225, "lon": 151.214601}, {"type": "node", "id": 667281914, "lat": -34.0668525, "lon": 151.0145491, "tags": {"amenity": "restaurant", "cuisine": "indian", "name": "Abi's Curry Palace"}}, {"type": "node", "id": 668734538, "lat": -34.0650985, "lon": 151.0133394, "tags": {"amenity": "restaurant", "cuisine": "chinese", "name": "Golden Pond"}}, {"type": "node", "id": 679718765, "lat": -33.8650639, "lon": 151.0436654, "tags": {"amenity": "restaurant", "cuisine": "korean", "name": "Hanabi"}}, {"type": "node", "id": 697081312, "lat": -34.051966, "lon": 151.1555919, "tags": {"amenity": "restaurant", "name": "Sea Level", "source:location": "survey;nearmap"}}, {"type": "node", "id": 743312720, "lat": -33.8590636, "lon": 151.2084022, "tags": {"amenity": "restaurant", "name": "Pony dining", "website": "https://www.ponydining.com.au/"}}, {"type": "node", "id": 745486317, "lat": -33.8069709, "lon": 151.0846586, "tags": {"amenity": "restaurant", "brand": "Pizza Hut", "brand:wikidata": "Q191615", "cuisine": "pizza", "name": "Pizza Hut", "website": "https://www.pizzahut.com.au/"}}, {"type": "node", "id": 745486335, "lat": -33.8074037, "lon": 151.0864798, "tags": {"amenity": "restaurant", "cuisine": "chinese", "name": "Tian Ci"}}, {"type": "node", "id": 745582373, "lat": -33.7931547, "lon": 151.0851807, "tags": {"amenity": "restaurant", "cuisine": "seafood;local", "name": "Hawks on Second Avenue"}}, {"type": "node", "id": 765088637, "lat": -33.8009905, "lon": 151.2982673, "tags": {"amenity": "restaurant", "bottle": "yes", "breakfast": "07:00-11:30", "check_date": "2023-03-16", "cuisine": "burger;seafood", "dinner": "no", "indoor_seating": "yes", "lunch": "12:00-15:00", "name": "The Boathouse", "opening_hours": "07:00-15:00", "outdoor_seating": "yes", "payment:cash": "yes", "payment:credit_cards": "yes", "payment:debit_cards": "yes", "reservation": "no", "takeaway": "yes", "toilets:wheelchair": "yes", "website": "https://theboathousesb.com.au/"}}, {"type": "node", "id": 780965557, "lat": -33.9100689, "lon": 151.2027152}, {"type": "node", "id": 780965575, "lat": -33.9100511, "lon": 151.2025778}, {"type": "node", "id": 816325207, "lat": -33.8998832, "lon": 151.1838717, "tags": {"amenity": "restaurant", "name": "Piatsa Cafe"}}, {"type": "node", "id": 852658067, "lat": -33.8136149, "lon": 151.1054413}, {"type": "node", "id": 852658070, "lat": -33.8137575, "lon": 151.1056318}, {"type": "node", "id": 852658071, "lat": -33.813674, "lon": 151.1057163}, {"type": "node", "id": 852658073, "lat": -33.8135313, "lon": 151.1055284}, {"type": "node", "id": 852658078, "lat": -33.8132895, "lon": 151.1051918}, {"type": "node", "id": 852658079, "lat": -33.8135057, "lon": 151.1049759}, {"type": "node", "id": 894183644, "lat": -33.7819114, "lon": 151.1127818}, {"type": "node", "id": 894183647, "lat": -33.781351, "lon": 151.1122555}, {"type": "node", "id": 894183650, "lat": -33.7811667, "lon": 151.1124577}, {"type": "node", "id": 894183652, "lat": -33.7815365, "lon": 151.1129458}, {"type": "node", "id": 894183654, "lat": -33.7816902, "lon": 151.1127772}, {"type": "node", "id": 894183655, "lat": -33.7817925, "lon": 151.1129123}, {"type": "node", "id": 936413516, "lat": -33.878261, "lon": 151.2150892, "tags": {"amenity": "restaurant", "name": "The Commons", "name:ko": "\ub354 \ucee4\uba3c\uc2a4 \ud638\uc8fc \uac00\uc815\uc2dd \uc694\ub9ac"}}, {"type": "node", "id": 936414542, "lat": -33.8780124, "lon": 151.2167682, "tags": {"amenity": "restaurant", "cuisine": "italian", "name": "Pizza Lucio"}}, {"type": "node", "id": 936414725, "lat": -33.8781494, "lon": 151.216794, "tags": {"amenity": "restaurant", "cuisine": "vietnamese", "name": "Phamish"}}, {"type": "node", "id": 936416637, "lat": -33.8758455, "lon": 151.2148829, "tags": {"amenity": "restaurant", "name": "Verde", "wheelchair": "no"}}, {"type": "node", "id": 936418288, "lat": -33.8768955, "lon": 151.2130447, "tags": {"amenity": "restaurant", "name": "Simizu"}}, {"type": "node", "id": 951237991, "lat": -33.7823469, "lon": 151.1302395, "tags": {"amenity": "restaurant", "cuisine": "steak_house", "name": "Ribs and Rumps"}}, {"type": "node", "id": 984838630, "lat": -33.9568784, "lon": 151.0027125, "tags": {"amenity": "restaurant", "cuisine": "italian", "name": "Al Martino's Italian Restaurant & Pizzeria", "website": "https://www.almartinos.com.au/"}}, {"type": "node", "id": 1000013850, "lat": -34.0549877, "lon": 151.153217, "tags": {"amenity": "restaurant", "name": "Buzz Bar", "source": "survey", "source:location": "nearmap"}}, {"type": "node", "id": 1000014066, "lat": -34.0548693, "lon": 151.1532051, "tags": {"amenity": "restaurant", "name": "Cook's Table", "source": "survey", "source:location": "nearmap"}}, {"type": "node", "id": 1000014892, "lat": -34.0554811, "lon": 151.1532156, "tags": {"amenity": "restaurant", "name": "La Cucina", "source": "survey", "source:location": "nearmap"}}, {"type": "node", "id": 1003522089, "lat": -34.046127, "lon": 151.1587348, "tags": {"amenity": "restaurant", "name": "Summer Salt", "source": "survey", "source:location": "nearmap"}}, {"type": "node", "id": 1044374699, "lat": -33.8796885, "lon": 151.2095619, "tags": {"addr:housenumber": "90", "addr:postcode": "2010", "addr:street": "Wentworth Avenue", "amenity": "restaurant", "name": "Spice I Am", "website": "https://www.spiceiam.com/"}}, {"type": "node", "id": 1080431002, "lat": -33.9670077, "lon": 151.1027691, "tags": {"amenity": "restaurant", "name": "Yu Star BBQ Restaurant", "name:zh": "\u65b0\u5473\u82d1\u6e2f\u5f0f\u8336\u9910\u5ef3"}}, {"type": "node", "id": 1080455122, "lat": -33.967558, "lon": 151.1054206, "tags": {"addr:housenumber": "177", "addr:street": "Forest Road", "amenity": "restaurant", "cuisine": "chinese", "name": "Shanghai Yangzhou House"}}, {"type": "node", "id": 1080455123, "lat": -33.9675466, "lon": 151.10549, "tags": {"addr:housenumber": "175", "addr:street": "Forest Road", "amenity": "restaurant", "cuisine": "japanese", "name": "Kagaya Japanese Restaurant"}}, {"type": "node", "id": 1080455124, "lat": -33.9675363, "lon": 151.1055606, "tags": {"amenity": "restaurant", "cuisine": "chinese", "name": "Sun Ming Restaurant"}}, {"type": "node", "id": 1080455125, "lat": -33.9675244, "lon": 151.1056246, "tags": {"amenity": "restaurant", "name": "Mama Takeaway"}}, {"type": "node", "id": 1080455126, "lat": -33.9675172, "lon": 151.1056837, "tags": {"amenity": "restaurant", "name": "Good Kitchen"}}, {"type": "node", "id": 1080455128, "lat": -33.967463, "lon": 151.1069838, "tags": {"amenity": "restaurant", "name": "Ricery"}}, {"type": "node", "id": 1081203600, "lat": -33.9674953, "lon": 151.1058907, "tags": {"amenity": "restaurant", "cuisine": "korean", "name": "Hot and Spicy House"}}, {"type": "node", "id": 1081203605, "lat": -33.9674907, "lon": 151.1059523, "tags": {"amenity": "restaurant", "cuisine": "chinese", "name": "Xi'An Grill"}}, {"type": "node", "id": 1081213936, "lat": -33.9672531, "lon": 151.1062555, "tags": {"amenity": "restaurant", "cuisine": "chinese", "name": "Hurstville Chinese Restaurant"}}, {"type": "node", "id": 1081213956, "lat": -33.9672094, "lon": 151.10537, "tags": {"amenity": "restaurant"}}, {"type": "node", "id": 1081217619, "lat": -33.9678105, "lon": 151.1042878, "tags": {"amenity": "restaurant", "cuisine": "vietnamese", "name": "Miss Saigon"}}, {"type": "node", "id": 1081257994, "lat": -33.9651744, "lon": 151.1005949, "tags": {"amenity": "restaurant"}}, {"type": "node", "id": 1081321626, "lat": -33.9518439, "lon": 151.0826406, "tags": {"amenity": "restaurant", "cuisine": "chinese", "name": "Ah Yuen Chinese Restaurant"}}, {"type": "node", "id": 1081321629, "lat": -33.9510518, "lon": 151.0819351, "tags": {"amenity": "restaurant", "name": "Cafe Restaurant"}}, {"type": "node", "id": 1081321630, "lat": -33.9511609, "lon": 151.0820371, "tags": {"amenity": "restaurant", "name": "Beverly Chinese Restaurant"}}, {"type": "node", "id": 1081321639, "lat": -33.9517371, "lon": 151.0825468, "tags": {"amenity": "restaurant", "cuisine": "german", "name": "Rhinedorf Restaurant"}}, {"type": "node", "id": 1081321642, "lat": -33.9516081, "lon": 151.0824206, "tags": {"amenity": "restaurant", "cuisine": "chinese", "name": "Friendship Oriental Seafood"}}, {"type": "node", "id": 1081321644, "lat": -33.9511008, "lon": 151.0819754, "tags": {"amenity": "restaurant", "cuisine": "japanese", "name": "Asahi Japanese Restaurant"}}, {"type": "node", "id": 1081321653, "lat": -33.9510073, "lon": 151.0818922, "tags": {"amenity": "restaurant", "cuisine": "thai", "name": "Thai Pagoda Restaurant"}}, {"type": "node", "id": 1081321655, "lat": -33.9519773, "lon": 151.0827513, "tags": {"amenity": "restaurant", "name": "Masthai Seafood Restaurant"}}, {"type": "node", "id": 1081321656, "lat": -33.9513878, "lon": 151.0822516, "tags": {"amenity": "restaurant", "cuisine": "vietnamese"}}, {"type": "node", "id": 1081321657, "lat": -33.9521817, "lon": 151.0829119, "tags": {"amenity": "restaurant"}}, {"type": "node", "id": 1081321659, "lat": -33.9519317, "lon": 151.0827139, "tags": {"amenity": "restaurant", "cuisine": "thai", "name": "Hat Yai Thai"}}, {"type": "node", "id": 1081751284, "lat": -33.9678618, "lon": 151.1049964, "tags": {"amenity": "restaurant", "name": "Hurstville Kebab House"}}, {"type": "node", "id": 1084662531, "lat": -33.8915431, "lon": 151.2133098, "tags": {"addr:street": "Cleveland Street", "amenity": "restaurant", "name": "Wafu"}}, {"type": "node", "id": 1095964195, "lat": -33.963345, "lon": 151.13279, "tags": {"amenity": "restaurant"}}, {"type": "node", "id": 1117739830, "lat": -33.8691237, "lon": 151.2101929, "tags": {"addr:housenumber": "165", "addr:postcode": "2000", "addr:street": "King Street", "amenity": "restaurant", "cuisine": "chinese", "name": "Deli Choice"}}, {"type": "node", "id": 1120508023, "lat": -33.9561238, "lon": 151.0018786}, {"type": "node", "id": 1120508127, "lat": -33.9563346, "lon": 151.0018444}, {"type": "node", "id": 1120508319, "lat": -33.9563518, "lon": 151.0019987}, {"type": "node", "id": 1120508335, "lat": -33.956141, "lon": 151.0020329}, {"type": "node", "id": 1120830311, "lat": -33.9556032, "lon": 150.9971969}, {"type": "node", "id": 1120830319, "lat": -33.9557191, "lon": 150.9971727}, {"type": "node", "id": 1120830330, "lat": -33.9557598, "lon": 150.9972857}, {"type": "node", "id": 1120830345, "lat": -33.9559398, "lon": 150.9972547}, {"type": "node", "id": 1120830375, "lat": -33.9559233, "lon": 150.9971375}, {"type": "node", "id": 1120830376, "lat": -33.9556166, "lon": 150.9973104}, {"type": "node", "id": 1121133694, "lat": -33.9599335, "lon": 151.1542112, "tags": {"amenity": "restaurant"}}, {"type": "node", "id": 1121134046, "lat": -33.9609323, "lon": 151.156016, "tags": {"amenity": "restaurant", "name": "Bar Brazilia"}}, {"type": "node", "id": 1121134854, "lat": -33.9606873, "lon": 151.1562674, "tags": {"amenity": "restaurant", "cuisine": "pizza", "name": "Bondi Pizza"}}, {"type": "node", "id": 1121139442, "lat": -33.9610547, "lon": 151.1564964, "tags": {"amenity": "restaurant"}}, {"type": "node", "id": 1121140207, "lat": -33.9597555, "lon": 151.1538786, "tags": {"amenity": "restaurant"}}, {"type": "node", "id": 1121140764, "lat": -33.9611526, "lon": 151.1561102, "tags": {"amenity": "restaurant"}}, {"type": "node", "id": 1121140892, "lat": -33.9614169, "lon": 151.155968, "tags": {"amenity": "restaurant"}}, {"type": "node", "id": 1121141044, "lat": -33.9615728, "lon": 151.1558842, "tags": {"amenity": "restaurant"}}, {"type": "node", "id": 1121141302, "lat": -33.9606365, "lon": 151.1555845, "tags": {"amenity": "restaurant"}}, {"type": "node", "id": 1121141440, "lat": -33.9600403, "lon": 151.1540074, "tags": {"amenity": "restaurant"}}, {"type": "node", "id": 1121141541, "lat": -33.9599424, "lon": 151.1538572, "tags": {"amenity": "restaurant"}}, {"type": "node", "id": 1121142367, "lat": -33.9602183, "lon": 151.1547262, "tags": {"amenity": "restaurant"}}, {"type": "node", "id": 1121142495, "lat": -33.9604496, "lon": 151.1551446, "tags": {"amenity": "restaurant"}}, {"type": "node", "id": 1121143347, "lat": -33.9655751, "lon": 151.1541897, "tags": {"amenity": "restaurant"}}, {"type": "node", "id": 1121143531, "lat": -33.9657442, "lon": 151.1541576, "tags": {"amenity": "restaurant"}}, {"type": "node", "id": 1121143678, "lat": -33.9650235, "lon": 151.1543936, "tags": {"amenity": "restaurant"}}, {"type": "node", "id": 1124634889, "lat": -34.0543407, "lon": 151.1524498}, {"type": "node", "id": 1124634897, "lat": -34.0543084, "lon": 151.1522247}, {"type": "node", "id": 1143598323, "lat": -33.8144058, "lon": 151.0096182, "tags": {"amenity": "restaurant", "cuisine": "korean", "name": "Sariwon Korean Bulgoki BBQ"}}, {"type": "node", "id": 1160951409, "lat": -33.862228, "lon": 151.2108234, "tags": {"amenity": "restaurant", "name": "Cafe Sydney"}}, {"type": "node", "id": 1160951430, "lat": -33.8813079, "lon": 151.2180427, "tags": {"amenity": "restaurant", "cuisine": "greek", "name": "Santorini"}}, {"type": "node", "id": 1160951438, "lat": -33.8722054, "lon": 151.2020521, "tags": {"amenity": "restaurant", "level": "0", "name": "Nick's 103", "outdoor_seating": "yes", "wheelchair": "yes"}}, {"type": "node", "id": 1161127090, "lat": -33.8184688, "lon": 151.2437482, "tags": {"amenity": "restaurant", "brand": "Pizza Hut", "brand:wikidata": "Q191615", "brand:wikipedia": "en:Pizza Hut", "cuisine": "pizza", "name": "Pizza Hut", "wheelchair": "limited"}}, {"type": "node", "id": 1170757252, "lat": -33.7742839, "lon": 151.0815783, "tags": {"amenity": "restaurant", "name": "Michelangelo"}}, {"type": "node", "id": 1170757279, "lat": -33.7732255, "lon": 151.0805937, "tags": {"amenity": "restaurant", "name": "The Epping Club", "wheelchair": "no"}}, {"type": "node", "id": 1170757323, "lat": -33.7718276, "lon": 151.0811753, "tags": {"amenity": "restaurant", "name": "Tom Yum Thai"}}, {"type": "node", "id": 1170757328, "lat": -33.7729747, "lon": 151.0815932, "tags": {"amenity": "restaurant", "cuisine": "japanese", "name": "Tokyo Sushi Bar", "opening_hours": "Mo-Sa 11:30-21:00", "wheelchair": "limited"}}, {"type": "node", "id": 1217221413, "lat": -33.9950429, "lon": 151.1459026}, {"type": "node", "id": 1217221501, "lat": -33.9949567, "lon": 151.14639}, {"type": "node", "id": 1217221544, "lat": -33.9948867, "lon": 151.1459377}, {"type": "node", "id": 1217221560, "lat": -33.9951129, "lon": 151.1463548}, {"type": "node", "id": 1259008017, "lat": -33.8227002, "lon": 151.2509204}, {"type": "node", "id": 1259008031, "lat": -33.822414, "lon": 151.2508391}, {"type": "node", "id": 1259008061, "lat": -33.8226581, "lon": 151.2511438}, {"type": "node", "id": 1259008073, "lat": -33.8224009, "lon": 151.2509088}, {"type": "node", "id": 1259008091, "lat": -33.8222693, "lon": 151.2510377}, {"type": "node", "id": 1259008094, "lat": -33.8222571, "lon": 151.2507963}, {"type": "node", "id": 1259008102, "lat": -33.8222788, "lon": 151.2509873}, {"type": "node", "id": 1259008104, "lat": -33.8225262, "lon": 151.2509429}, {"type": "node", "id": 1259008116, "lat": -33.8225387, "lon": 151.2508763}, {"type": "node", "id": 1259008120, "lat": -33.8222239, "lon": 151.2509724}, {"type": "node", "id": 1259065372, "lat": -33.8012729, "lon": 151.1307715, "tags": {"addr:housenumber": "4", "addr:postcode": "2113", "addr:state": "NSW", "addr:street": "Blenheim Road", "addr:suburb": "North Ryde", "amenity": "restaurant", "cuisine": "chinese", "name": "North Ryde Chinese Kitchen", "phone": "+61 2 9878 1466"}}, {"type": "node", "id": 1262710152, "lat": -33.871174, "lon": 151.2022958, "tags": {"amenity": "restaurant", "name": "Pontoon Bar", "outdoor_seating": "yes", "wheelchair": "limited"}}, {"type": "node", "id": 1262710217, "lat": -33.8716077, "lon": 151.202321, "tags": {"amenity": "restaurant", "cuisine": "italian", "name": "Baia", "outdoor_seating": "yes", "wheelchair": "yes"}}, {"type": "node", "id": 1262720262, "lat": -33.872194, "lon": 151.2022642, "tags": {"addr:housenumber": "1", "addr:street": "Harbour Street", "amenity": "restaurant", "branch": "Chocolate Cafe", "brand": "Lindt", "brand:wikidata": "Q152822", "cuisine": "chocolate", "name": "Lindt", "shop": "chocolate", "wheelchair": "yes"}}, {"type": "node", "id": 1262764790, "lat": -33.8719285, "lon": 151.2022088, "tags": {"amenity": "restaurant", "name": "Adria", "wheelchair": "yes"}}, {"type": "node", "id": 1262764871, "lat": -33.8717769, "lon": 151.2022367, "tags": {"amenity": "restaurant", "name": "I'm Angus", "wheelchair": "yes"}}, {"type": "node", "id": 1262974696, "lat": -33.8727133, "lon": 151.2019526, "tags": {"amenity": "restaurant", "name": "Homebar", "outdoor_seating": "yes", "wheelchair": "yes"}}, {"type": "node", "id": 1266157030, "lat": -33.8721166, "lon": 151.0922133, "tags": {"amenity": "restaurant", "cuisine": "korean", "name": "Bassim", "wheelchair": "yes"}}, {"type": "node", "id": 1266163159, "lat": -33.873508, "lon": 151.093477, "tags": {"amenity": "restaurant", "cuisine": "japanese", "name": "Sansui"}}, {"type": "node", "id": 1266186870, "lat": -33.8715, "lon": 151.092345, "tags": {"amenity": "restaurant", "cuisine": "japanese;korean", "name": "Mi Ga", "wheelchair": "yes"}}, {"type": "node", "id": 1266192319, "lat": -33.8721476, "lon": 151.0923374, "tags": {"amenity": "restaurant", "name": "Tami", "wheelchair": "yes"}}, {"type": "node", "id": 1266396950, "lat": -33.8704898, "lon": 151.263035}, {"type": "node", "id": 1266396954, "lat": -33.8704141, "lon": 151.262742}, {"type": "node", "id": 1266396959, "lat": -33.8705495, "lon": 151.2626471}, {"type": "node", "id": 1266396960, "lat": -33.8705301, "lon": 151.262814}, {"type": "node", "id": 1266396963, "lat": -33.8703837, "lon": 151.263014}, {"type": "node", "id": 1266396971, "lat": -33.8705873, "lon": 151.262763}, {"type": "node", "id": 1266396973, "lat": -33.8705048, "lon": 151.2628982}, {"type": "node", "id": 1266396978, "lat": -33.8703747, "lon": 151.262901}, {"type": "node", "id": 1266396980, "lat": -33.8704936, "lon": 151.2626833}, {"type": "node", "id": 1266396988, "lat": -33.8705155, "lon": 151.2629684}, {"type": "node", "id": 1266396992, "lat": -33.8703963, "lon": 151.2627836}, {"type": "node", "id": 1266396999, "lat": -33.8705466, "lon": 151.2627928}, {"type": "node", "id": 1266397001, "lat": -33.8703926, "lon": 151.2630479}, {"type": "node", "id": 1266397004, "lat": -33.8704464, "lon": 151.2626926}, {"type": "node", "id": 1266397010, "lat": -33.8705088, "lon": 151.2628658}, {"type": "node", "id": 1266397014, "lat": -33.8703781, "lon": 151.2629745}, {"type": "node", "id": 1266397015, "lat": -33.8704659, "lon": 151.2627124}, {"type": "node", "id": 1266397020, "lat": -33.8705063, "lon": 151.2629334}, {"type": "node", "id": 1266397025, "lat": -33.8703777, "lon": 151.2628591}, {"type": "node", "id": 1266397031, "lat": -33.8705647, "lon": 151.262777}, {"type": "node", "id": 1266501569, "lat": -33.8283435, "lon": 151.2293679, "tags": {"amenity": "restaurant", "cuisine": "thai", "name": "Khartoum"}}, {"type": "node", "id": 1268340990, "lat": -33.8753113, "lon": 151.2059628, "tags": {"amenity": "restaurant", "cuisine": "sushi", "name": "Umi Sushi Express"}}, {"type": "node", "id": 1268355153, "lat": -33.8265338, "lon": 151.2512499, "tags": {"amenity": "restaurant", "cuisine": "fish_and_chips", "name": "Bottom of the Harbour", "takeaway": "only", "wheelchair": "limited"}}, {"type": "node", "id": 1268489386, "lat": -33.8301413, "lon": 151.2190089, "tags": {"amenity": "restaurant", "cuisine": "thai", "name": "Stir Crazy"}}, {"type": "node", "id": 1268699984, "lat": -33.8686909, "lon": 151.2017062, "tags": {"amenity": "restaurant", "name": "Cargo bar", "wheelchair": "yes"}}, {"type": "node", "id": 1270148839, "lat": -34.0518841, "lon": 151.1546017, "tags": {"amenity": "restaurant", "contact:phone": "+61 02 95443133", "level": "2", "name": "Opah", "source": "survey", "source:location": "nearmap"}}, {"type": "node", "id": 1277994072, "lat": -34.0544488, "lon": 151.1521757}, {"type": "node", "id": 1277994073, "lat": -34.0545084, "lon": 151.1524205}, {"type": "node", "id": 1277994074, "lat": -34.0544763, "lon": 151.1521945}, {"type": "node", "id": 1280196057, "lat": -34.0434096, "lon": 151.1183335, "tags": {"amenity": "restaurant", "cuisine": "japanese", "name": "Fish Markets"}}, {"type": "node", "id": 1280754815, "lat": -34.042768, "lon": 151.123518, "tags": {"amenity": "restaurant", "created_by": "iLOE 1.9", "cuisine": "thai", "name": "Thai Bay", "opening_hours": "Tu-Th 17:30-21:30; Fr-Su 17:30-22:00"}}, {"type": "node", "id": 1281315648, "lat": -34.0555085, "lon": 151.151871, "tags": {"amenity": "restaurant", "cuisine": "seafood"}}, {"type": "node", "id": 1283594988, "lat": -34.0542936, "lon": 151.1536304, "tags": {"amenity": "restaurant", "cuisine": "italian"}}, {"type": "node", "id": 1283594993, "lat": -34.0541745, "lon": 151.1536481, "tags": {"amenity": "restaurant", "cuisine": "pizza;pasta;breakfast", "name": "Il Gusto"}}, {"type": "node", "id": 1287627670, "lat": -34.0546579, "lon": 151.1538617, "tags": {"amenity": "restaurant", "name": "Waves", "source": "survey"}}, {"type": "node", "id": 1287627676, "lat": -34.0546305, "lon": 151.1536913, "tags": {"amenity": "restaurant", "source": "survey"}}, {"type": "node", "id": 1292981807, "lat": -34.0423394, "lon": 151.1225798, "tags": {"amenity": "restaurant", "cuisine": "sushi", "name": "Kanji Fresh Sushi"}}, {"type": "node", "id": 1294141246, "lat": -34.0440454, "lon": 151.123327, "tags": {"amenity": "restaurant", "cuisine": "indian", "name": "Langkawi"}}, {"type": "node", "id": 1324643316, "lat": -34.0565304, "lon": 151.1554895}, {"type": "node", "id": 1324643317, "lat": -34.0564338, "lon": 151.1552238}, {"type": "node", "id": 1324643318, "lat": -34.0564848, "lon": 151.1555078}, {"type": "node", "id": 1324643319, "lat": -34.0564859, "lon": 151.1552705}, {"type": "node", "id": 1324643321, "lat": -34.0563406, "lon": 151.1553145}, {"type": "node", "id": 1343184727, "lat": -33.799945, "lon": 151.2858528, "tags": {"addr:city": "Manly", "addr:housenumber": "39", "addr:postcode": "2095", "addr:unit": "1", "alt_name": "Garfish Manly", "amenity": "restaurant", "cuisine": "fish", "name": "Garfish", "website": "https://garfish.com.au"}}, {"type": "node", "id": 1343189843, "lat": -33.7961981, "lon": 151.2873843, "tags": {"amenity": "restaurant", "cuisine": "spanish", "name": "El Toro Loco"}}, {"type": "node", "id": 1343204076, "lat": -33.7994343, "lon": 151.2808552, "tags": {"amenity": "restaurant", "name": "Manly Pier Pavillion"}}, {"type": "node", "id": 1343208874, "lat": -33.7940558, "lon": 151.2647673, "tags": {"amenity": "restaurant", "cuisine": "italian", "name": "Ray's Pizza"}}, {"type": "node", "id": 1344500455, "lat": -33.8040496, "lon": 151.2464175, "tags": {"amenity": "restaurant", "name": "Plonk", "website": "http://www.plonkbeachcafe.com.au/"}}, {"type": "node", "id": 1344523941, "lat": -33.8389984, "lon": 151.2551347, "tags": {"addr:housename": "Deck C", "addr:housenumber": "2", "addr:postcode": "2088", "addr:street": "Chowder Bay Road", "amenity": "restaurant", "cuisine": "italian", "name": "Ripples at Chowder Bay", "website": "https://www.aquadining.com.au/aqua_ripples_cafe_restaurant.htm", "wheelchair": "no"}}, {"type": "node", "id": 1346609886, "lat": -33.7909903, "lon": 151.2868044, "tags": {"amenity": "restaurant", "name": "Ash's Table"}}, {"type": "node", "id": 1346609887, "lat": -33.7912132, "lon": 151.2868151, "tags": {"amenity": "restaurant", "name": "Jellyfish"}}, {"type": "node", "id": 1346618972, "lat": -33.8156317, "lon": 151.2869035, "tags": {"addr:housename": "Q Station Retreat", "addr:housenumber": "1", "addr:street": "North Head Scenic Drive", "amenity": "restaurant", "name": "Boilerhouse Harbourside", "website": "https://www.qstation.com.au/"}}, {"type": "node", "id": 1346628717, "lat": -33.8665061, "lon": 151.2038071, "tags": {"amenity": "restaurant", "name": "Taste"}}, {"type": "node", "id": 1348733974, "lat": -33.7989418, "lon": 151.284303, "tags": {"amenity": "restaurant", "cuisine": "italian", "name": "Crinitis"}}, {"type": "node", "id": 1349078531, "lat": -33.8042398, "lon": 151.2454185, "tags": {"amenity": "restaurant", "wheelchair": "yes"}}, {"type": "node", "id": 1363258539, "lat": -33.8907265, "lon": 151.2095904, "tags": {"addr:housenumber": "315", "addr:postcode": "2016", "addr:street": "Cleveland Street", "amenity": "restaurant", "contact:facebook": "https://www.facebook.com/nourishingquarter", "contact:instagram": "https://www.instagram.com/nourishingquarter/", "contact:phone": "+61 2 8399 0888", "cuisine": "international", "delivery": "yes", "diet:vegan": "only", "name": "Nourishing Quarter", "opening_hours": "We-Sa 18:30-21:30", "reservation": "yes", "source": "Fan of restaurant"}}, {"type": "node", "id": 1366288463, "lat": -33.80087, "lon": 151.131306, "tags": {"addr:street": "Blenheim Road", "amenity": "restaurant", "cuisine": "thai", "name": "Boon Me Thai Restaurant and Takeaway"}}, {"type": "node", "id": 1460804301, "lat": -33.8658528, "lon": 151.1909783, "tags": {"addr:housenumber": "3", "addr:postcode": "2009", "addr:state": "NSW", "addr:street": "Harris Street", "addr:suburb": "Pyrmont", "addr:unit": "Shop 2 and 3", "amenity": "restaurant", "bar": "yes", "brand": "Elements Group", "cuisine": "steak_house;bar&grill;american", "email": "info@elementsbarandgrill.com.au", "highchair": "yes", "name": "Elements Bar and Grill Pyrmont", "opening_hours": "Mo-Fr 11:00-23:00; Sa-Su 08:00-23:00", "outdoor_seating": "yes", "payment:american_express": "yes", "payment:cash": "yes", "payment:contactless": "yes", "payment:credit_cards": "yes", "payment:debit_cards": "yes", "payment:mastercard": "yes", "payment:visa": "yes", "phone": "+611300353636", "reservation": "recommended", "toilets:wheelchair": "yes", "website": "https://www.elementsbarandgrill.com.au/home", "wheelchair": "yes"}}, {"type": "node", "id": 1477428340, "lat": -33.7965373, "lon": 151.1806435, "tags": {"addr:housenumber": "1-5", "addr:shop": "P9", "addr:street": "Railway Street", "amenity": "restaurant", "check_date:opening_hours": "2021-11-13", "contact:email": "info@mamak.com.au", "contact:phone": "+61 2 9411 4411", "contact:website": "http://www.mamak.com.au", "cuisine": "malaysian", "indoor_seating": "yes", "name": "Mamak", "opening_hours": "Mo-Fr 11:30-14:00, Sa,Su 11:30-15:00, Su-We 17:30-20:30, Th 17:30-21:00, Fr,Sa 17:30-21:30", "outdoor_seating": "no", "wheelchair": "yes"}}, {"type": "node", "id": 1494105547, "lat": -33.8505602, "lon": 151.0329535, "tags": {"amenity": "restaurant", "cuisine": "kebab", "name": "New Star Kebab"}}, {"type": "node", "id": 1494105551, "lat": -33.8512121, "lon": 151.032785, "tags": {"amenity": "restaurant", "cuisine": "turkish", "name": "Sofra Restaurant"}}, {"type": "node", "id": 1494105553, "lat": -33.8514809, "lon": 151.0330207, "tags": {"amenity": "restaurant", "cuisine": "turkish", "name": "Ariana Kebab House"}}, {"type": "node", "id": 1604307511, "lat": -33.9983674, "lon": 151.1150569}, {"type": "node", "id": 1604307513, "lat": -33.9984162, "lon": 151.1154816}, {"type": "node", "id": 1604307514, "lat": -33.9986328, "lon": 151.1149932}, {"type": "node", "id": 1604307516, "lat": -33.9986943, "lon": 151.115403}, {"type": "node", "id": 1605689100, "lat": -33.8719054, "lon": 151.2133984, "tags": {"addr:city": "Sydney", "addr:country": "AU", "addr:housenumber": "2-4", "addr:postcode": "2000", "addr:state": "NSW", "addr:street": "College Street", "addr:suburb": "Sydney", "amenity": "restaurant", "contact:facebook": "https://www.facebook.com/bodhirestaurantbar/", "contact:website": "https://www.bodhirestaurant.com.au", "diet:vegan": "only", "name": "Bodhi", "opening_hours": "Mo 11:00-15:00; Tu-Fr 11:00-15:00,17:00-22:00; Sa,Su 11:00-16:00,17:00-22:00"}}, {"type": "node", "id": 1609856613, "lat": -33.8352709, "lon": 150.9881639, "tags": {"amenity": "restaurant", "cuisine": "italian", "name": "Fabio's Italian Restaurant"}}, {"type": "node", "id": 1613883956, "lat": -33.8675365, "lon": 151.1937064, "tags": {"amenity": "restaurant", "cuisine": "asian", "name": "Blue Eye Dragon", "wheelchair": "yes"}}, {"type": "node", "id": 1613895192, "lat": -33.8698849, "lon": 151.19387, "tags": {"amenity": "restaurant", "cuisine": "asian", "name": "Wokstation", "wheelchair": "no"}}, {"type": "node", "id": 1613895196, "lat": -33.8703733, "lon": 151.1944888, "tags": {"amenity": "restaurant", "cuisine": "regional", "name": "Graze", "wheelchair": "yes"}}, {"type": "node", "id": 1613909625, "lat": -33.8694825, "lon": 151.1948307, "tags": {"amenity": "restaurant", "name": "Cafe XXII", "wheelchair": "no"}}, {"type": "node", "id": 1613909956, "lat": -33.8696712, "lon": 151.1937254, "tags": {"amenity": "restaurant"}}, {"type": "node", "id": 1613916937, "lat": -33.8644008, "lon": 151.1938884, "tags": {"amenity": "restaurant", "name": "Tapas"}}, {"type": "node", "id": 1613917322, "lat": -33.8626234, "lon": 151.1953314, "tags": {"amenity": "restaurant", "cuisine": "seafood", "name": "Flying Fish"}}, {"type": "node", "id": 1613919579, "lat": -33.8736386, "lon": 151.1923998, "tags": {"amenity": "restaurant", "cuisine": "chinese", "name": "Fisherman's Wharf Seafood Restaurant", "wheelchair": "yes"}}, {"type": "node", "id": 1619638888, "lat": -33.8930201, "lon": 151.184165, "tags": {"addr:street": "King Street", "amenity": "restaurant", "cuisine": "chinese", "diet:vegan": "only", "name": "Green Gourmet", "opening_hours": "Mo-Th 12:00-15:00,17:30-21:30; Fr-Sa 12:00-15:00,17:30-22:30", "reservation": "yes", "website": "https://www.greengourmet.com.au/pages/newtown-restaurant"}}, {"type": "node", "id": 1630533724, "lat": -33.836502, "lon": 150.9893363, "tags": {"amenity": "restaurant", "brand": "Nando's", "brand:wikidata": "Q3472954", "brand:wikipedia": "en:Nando's", "cuisine": "chicken;portuguese", "name": "Nando's", "website": "https://www.nandos.com.au/"}}, {"type": "node", "id": 1635002662, "lat": -33.88239, "lon": 151.2160444, "tags": {"addr:city": "Surry Hills", "addr:housenumber": "Rear, Off Church Lane, 417/421", "addr:street": "Bourke Street", "addr:suburb": "Surry Hills", "amenity": "restaurant", "cuisine": "pizza", "delivery": "yes", "delivery:deliveroo": "yes", "name": "Maybe Frank", "takeaway": "yes", "toilets:wheelchair": "yes", "wheelchair": "yes"}}, {"type": "node", "id": 1635957666, "lat": -33.8127474, "lon": 150.9851983, "tags": {"addr:housenumber": "74", "addr:postcode": "2145", "addr:street": "Hawkesbury Road", "addr:suburb": "Westmead", "addr:unit": "9", "amenity": "restaurant", "cuisine": "indian", "name": "Anna Cuisines"}}, {"type": "node", "id": 1641724301, "lat": -33.7966649, "lon": 151.2881066, "tags": {"addr:street": "North Steyne", "amenity": "restaurant", "changing_table": "no", "check_date": "2023-03-16", "diet:vegetarian": "yes", "name": "The Pantry Manly", "payment:credit_cards": "yes", "payment:debit_cards": "yes", "source": "survey", "website": "https://www.thepantrymanly.com/"}}, {"type": "node", "id": 1643815005, "lat": -33.8172675, "lon": 151.0016354, "tags": {"amenity": "restaurant", "cuisine": "indian"}}, {"type": "node", "id": 1643815016, "lat": -33.8150903, "lon": 151.0025983, "tags": {"addr:housenumber": "79", "addr:street": "Macquarie Street", "amenity": "restaurant", "cuisine": "indian", "name": "NeeLam Indian Restaurant"}}, {"type": "node", "id": 1650823424, "lat": -33.8722137, "lon": 151.222887, "tags": {"amenity": "restaurant", "cuisine": "thai", "name": "Thaipower"}}, {"type": "node", "id": 1652365022, "lat": -33.8585562, "lon": 151.2034006, "tags": {"addr:city": "Millers Point", "addr:postcode": "2000", "addr:province": "New South Wales", "addr:street": "Kent Street", "amenity": "restaurant", "cuisine": "japanese", "name": "Tago-An", "outdoor_seating": "no", "smoking": "no", "source": "survey"}}, {"type": "node", "id": 1653959469, "lat": -33.8627207, "lon": 151.2065122, "tags": {"addr:housenumber": "135", "addr:postcode": "2000", "addr:street": "Harrington Street", "amenity": "restaurant", "name": "Belgian Beer Cafe", "website": "http://heritagebarandrestaurant.com.au", "wheelchair": "yes"}}, {"type": "node", "id": 1681099905, "lat": -33.8792741, "lon": 151.1867668, "tags": {"amenity": "restaurant", "name": "Tom yum tum gang"}}, {"type": "node", "id": 1693986554, "lat": -33.7962559, "lon": 151.2853286, "tags": {"amenity": "restaurant", "cuisine": "asian", "name": "The Wokbar"}}, {"type": "node", "id": 1693986599, "lat": -33.7960645, "lon": 151.2853665, "tags": {"amenity": "restaurant", "cuisine": "international", "name": "Miss Marley's"}}, {"type": "node", "id": 1694224317, "lat": -33.7992022, "lon": 151.2893197, "tags": {"amenity": "restaurant", "cuisine": "greek", "name": "Ouzeria"}}, {"type": "node", "id": 1694224325, "lat": -33.7992958, "lon": 151.2894056, "tags": {"amenity": "restaurant", "name": "Manly Wine"}}, {"type": "node", "id": 1719859876, "lat": -33.8678165, "lon": 151.2063816, "tags": {"amenity": "restaurant", "name": "Athenian Restaurant", "wheelchair": "limited"}}, {"type": "node", "id": 1731303096, "lat": -33.8977683, "lon": 151.1923501, "tags": {"amenity": "restaurant", "cuisine": "fast_food", "source": "survey"}}, {"type": "node", "id": 1739965850, "lat": -33.8655166, "lon": 151.1676191, "tags": {"amenity": "restaurant", "cuisine": "french", "name": "Le Grande Bouffe"}}, {"type": "node", "id": 1742582060, "lat": -33.9535638, "lon": 151.051953, "tags": {"addr:housenumber": "172", "addr:postcode": "2210", "addr:street": "Belmore Road", "amenity": "restaurant", "cuisine": "thai", "name": "Chilli Garden Thai"}}, {"type": "node", "id": 1742582066, "lat": -33.9542224, "lon": 151.0517948, "tags": {"amenity": "restaurant", "cuisine": "mexican", "name": "Ha Long Bay", "old_name": "Ha Long"}}, {"type": "node", "id": 1745101638, "lat": -33.8510472, "lon": 151.0785288, "tags": {"amenity": "restaurant", "name": "Bel Parco", "wheelchair": "yes"}}, {"type": "node", "id": 1776903301, "lat": -33.9303928, "lon": 151.2426216, "tags": {"access": "private", "amenity": "restaurant", "name": "OR's Mess"}}, {"type": "node", "id": 1776903308, "lat": -33.9285675, "lon": 151.2416131, "tags": {"access": "private", "amenity": "restaurant", "name": "SNCO's/Officer's Mess"}}, {"type": "node", "id": 1812117916, "lat": -33.888312, "lon": 151.1962358, "tags": {"amenity": "restaurant", "cuisine": "chinese", "name": "Tian Ci Vegan Restaurant", "opening_hours": "Tu-Su 11:00-15:00,17:00-22:00"}}, {"type": "node", "id": 1812389142, "lat": -33.8713353, "lon": 151.2024826, "tags": {"addr:housenumber": "201", "addr:postcode": "2000", "addr:street": "Sussex Street", "amenity": "restaurant", "contact:facebook": "https://www.facebook.com/pages/Chinta-Ria-Temple-Of-Love/133265790054252", "level": "2", "name": "Chinta Ria", "wheelchair": "yes"}}, {"type": "node", "id": 1813233201, "lat": -33.9167845, "lon": 151.2328425, "tags": {"amenity": "restaurant", "cuisine": "chinese", "name": "Southern Wok", "source": "survey"}}, {"type": "node", "id": 1815543234, "lat": -33.8375268, "lon": 151.1976548, "tags": {"amenity": "restaurant", "cuisine": "thai", "name": "Tamarind Thai"}}, {"type": "node", "id": 1822938158, "lat": -33.8069739, "lon": 151.0702033, "tags": {"amenity": "restaurant", "name": "New Emperor Chinese Restaurant"}}, {"type": "node", "id": 1832706647, "lat": -34.032805, "lon": 151.0583789, "tags": {"amenity": "restaurant", "name": "Shire Bistro", "old_name": "Boyle St Cafe"}}, {"type": "node", "id": 1833116180, "lat": -33.8841151, "lon": 151.1978705, "tags": {"amenity": "restaurant", "name": "Chulin", "source": "photo"}}, {"type": "node", "id": 1833228333, "lat": -33.8804889, "lon": 151.1968913}, {"type": "node", "id": 1833228367, "lat": -33.8805689, "lon": 151.1966917}, {"type": "node", "id": 1833317163, "lat": -33.8850013, "lon": 151.1948399, "tags": {"al_fresco": "no", "amenity": "restaurant", "cuisine": "chinese;malaysian", "delivery": "yes", "name": "Golden Fang", "smoking": "no", "source": "photo", "takeaway": "yes"}}, {"type": "node", "id": 1833885953, "lat": -34.0038948, "lon": 151.0619504, "tags": {"addr:housenumber": "60", "addr:street": "Wolger Street", "amenity": "restaurant", "cuisine": "chinese", "name": "Como Garden Chinese Restaurant", "source_ref:name": "http://img855.imageshack.us/img855/8814/gopr1026.jpg"}}, {"type": "node", "id": 1833899653, "lat": -33.8848347, "lon": 151.1770105, "tags": {"addr:city": "Camperdown", "addr:country": "AU", "addr:housenumber": "30", "addr:postcode": "2050", "addr:street": "Pyrmont Bridge Road", "amenity": "restaurant", "cuisine": "japanese", "name": "Izakaya Shogun", "opening_hours": "Mo-Sa 12:00-15:00, Mo-Su 17:30-21:00"}}, {"type": "node", "id": 1836112548, "lat": -33.8969024, "lon": 151.0503614, "tags": {"addr:housenumber": "167", "addr:street": "Hume Highway", "addr:suburb": "Greenacre", "amenity": "restaurant", "cuisine": "chinese", "name": "Yummy Seafood Restaurant"}}, {"type": "node", "id": 1838871669, "lat": -33.9218996, "lon": 151.2494296}, {"type": "node", "id": 1838871671, "lat": -33.9223393, "lon": 151.2498408}, {"type": "node", "id": 1838871673, "lat": -33.9219673, "lon": 151.249916}, {"type": "node", "id": 1838871675, "lat": -33.9222716, "lon": 151.2493544}, {"type": "node", "id": 1839805386, "lat": -33.873664, "lon": 151.187981, "tags": {"addr:city": "Glebe", "addr:postcode": "2037", "addr:street": "Ferry Road", "amenity": "restaurant", "cuisine": "seafood", "name": "Boathouse on Blackwattle Bay", "source": "survey", "website": "https://www.boathouse.net.au/"}}, {"type": "node", "id": 1840732175, "lat": -34.0317031, "lon": 151.0565264, "tags": {"amenity": "restaurant", "cuisine": "pizza", "name": "Sutherland Pizzeria and Cafe", "source:name": "survey"}}, {"type": "node", "id": 1840926344, "lat": -33.8953926, "lon": 151.2745426}, {"type": "node", "id": 1840926357, "lat": -33.8954487, "lon": 151.2744137}, {"type": "node", "id": 1840926373, "lat": -33.8950133, "lon": 151.2742268}, {"type": "node", "id": 1840926397, "lat": -33.8949826, "lon": 151.2743482}, {"type": "node", "id": 1840926418, "lat": -33.8951351, "lon": 151.2744021}, {"type": "node", "id": 1840926438, "lat": -33.8952449, "lon": 151.2743133}, {"type": "node", "id": 1849591524, "lat": -33.8648055, "lon": 151.2169451}, {"type": "node", "id": 1849591535, "lat": -33.8648197, "lon": 151.2169212}, {"type": "node", "id": 1851001892, "lat": -33.900751, "lon": 151.15959, "tags": {"amenity": "restaurant", "description": "Thai food", "name": "Thai Power"}}, {"type": "node", "id": 1859757754, "lat": -33.8884167, "lon": 151.1964222, "tags": {"amenity": "restaurant", "cuisine": "pizza", "name": "Angry Tony's"}}, {"type": "node", "id": 1880344021, "lat": -33.9749429, "lon": 151.1457854, "tags": {"amenity": "restaurant", "cuisine": "italian", "wheelchair": "limited"}}, {"type": "node", "id": 1883488331, "lat": -33.8341207, "lon": 151.0564119, "tags": {"amenity": "restaurant", "name": "Kagen Sake House"}}, {"type": "node", "id": 1883527594, "lat": -33.8341548, "lon": 151.0570349, "tags": {"amenity": "restaurant", "cuisine": "asian", "name": "Dae Ga Newington", "phone": "+61 2 9648 6262"}}, {"type": "node", "id": 1909581546, "lat": -33.7963001, "lon": 151.1823135, "tags": {"amenity": "restaurant", "cuisine": "chinese", "drive_in": "no", "indoor_seating": "yes", "level": "0", "microbrewery": "no", "name": "Chinatown Noodle Restaurant", "name:zh": "\u65b0\u4e0a\u6d77", "outdoor_seating": "no", "smoking": "no", "wheelchair": "yes"}}, {"type": "node", "id": 1912640834, "lat": -33.8866482, "lon": 151.2089031, "tags": {"addr:housenumber": "116", "addr:postcode": "2010", "addr:state": "NSW", "addr:street": "Devonshire Street", "addr:suburb": "Surry Hills", "amenity": "restaurant", "cuisine": "seafood", "name": "Mohr Fish", "opening_hours": "Mo-Su 11:30-15:00,17:00-22:00", "phone": "+61 2 9318 1326", "source": "Collected via KeypadMapper", "toilets:wheelchair": "yes", "website": "https://mohrfish.com.au/", "wheelchair": "yes"}}, {"type": "node", "id": 1916711838, "lat": -33.8297392, "lon": 151.2272798, "tags": {"amenity": "restaurant", "name": "Sushi Train", "source": "local_knowledge"}}, {"type": "node", "id": 1959796968, "lat": -33.9535855, "lon": 151.0515276, "tags": {"addr:housenumber": "231", "addr:postcode": "2210", "addr:street": "Belmore Road", "amenity": "restaurant", "name": "Jennys Grill"}}, {"type": "node", "id": 1959796989, "lat": -33.9524397, "lon": 151.0523081, "tags": {"addr:housenumber": "208", "addr:postcode": "2210", "addr:street": "Belmore Road", "amenity": "restaurant", "cuisine": "pizza", "name": "Monte Carlo Pizzeria"}}, {"type": "node", "id": 1974543067, "lat": -33.795466, "lon": 151.1224607, "tags": {"addr:postcode": "2113", "addr:street": "Coxs Road", "amenity": "restaurant", "cuisine": "japanese", "name": "Taiyoh Japanese"}}, {"type": "node", "id": 1974543149, "lat": -33.795564, "lon": 151.122618}, {"type": "node", "id": 1974543207, "lat": -33.7827933, "lon": 151.1040768, "tags": {"addr:housenumber": "76A", "addr:postcode": "2113", "addr:street": "Agincourt Road", "amenity": "restaurant", "cuisine": "pizza", "name": "Gourmet Express Pizza and Pasta", "opening_hours": "Mo-Su 17:00-21:30"}}, {"type": "node", "id": 1974543236, "lat": -33.7953813, "lon": 151.1223506, "tags": {"amenity": "restaurant"}}, {"type": "node", "id": 1974543269, "lat": -33.7945308, "lon": 151.1217376, "tags": {"addr:city": "Sydney", "addr:housenumber": "144", "addr:postcode": "2113", "addr:street": "Coxs Road", "amenity": "restaurant", "cuisine": "chinese", "name": "Noble Terrace Chinese Restaurant", "opening_hours": "Tu-Su 11:30-14:30, 17:00-21:30", "phone": "+61 2 9887 3788"}}, {"type": "node", "id": 1974543272, "lat": -33.7961325, "lon": 151.123209, "tags": {"addr:city": "North Ryde", "addr:housenumber": "132", "addr:postcode": "2113", "addr:street": "Coxs Road", "amenity": "restaurant", "cuisine": "thai", "name": "Kasalong Thai Restaurant", "opening_hours": "Mo-Su 12:00-15:00, 17:30-21:45", "outdoor_seating": "no", "phone": "+61 2 9887 4122", "website": "http://kasalong.com.au/"}}, {"type": "node", "id": 1978946857, "lat": -34.027084, "lon": 151.0838231, "tags": {"addr:housenumber": "461", "addr:street": "Princes Highway", "amenity": "restaurant", "cuisine": "chinese", "name": "House of Fortune"}}, {"type": "node", "id": 1987326784, "lat": -33.8827889, "lon": 151.2072473}, {"type": "node", "id": 2019456476, "lat": -33.7841905, "lon": 151.0941363, "tags": {"addr:street": "Balaclava Road", "amenity": "restaurant", "brand": "Pizza Hut", "brand:wikidata": "Q191615", "cuisine": "pizza", "name": "Pizza Hut"}}, {"type": "node", "id": 2019456479, "lat": -33.7838272, "lon": 151.094045, "tags": {"addr:housenumber": "2A", "addr:postcode": "2122", "addr:street": "Corunna Road", "amenity": "restaurant", "cuisine": "chinese", "name": "Jimbo's Restaurant"}}, {"type": "node", "id": 2019456483, "lat": -33.7839988, "lon": 151.0939352, "tags": {"amenity": "restaurant"}}, {"type": "node", "id": 2026143596, "lat": -33.8915187, "lon": 151.213539, "tags": {"amenity": "restaurant", "cuisine": "indian", "name": "Holy Cow"}}, {"type": "node", "id": 2088348742, "lat": -33.7957598, "lon": 151.1843408}, {"type": "node", "id": 2093102897, "lat": -33.8245548, "lon": 151.2391897, "tags": {"addr:housenumber": "99", "addr:street": "Military Road", "amenity": "restaurant", "cuisine": "japanese", "name": "Milo"}}, {"type": "node", "id": 2097580046, "lat": -33.8661043, "lon": 151.208417, "tags": {"addr:city": "Sydney", "addr:housenumber": "107", "addr:postcode": "2000", "addr:state": "NSW", "addr:street": "Pitt Street", "amenity": "restaurant", "cuisine": "italian", "name": "Jamie's Italian", "website": "https://www.jamieoliver.com/italian/australia/restaurants/sydney/"}}, {"type": "node", "id": 2108375840, "lat": -33.7998163, "lon": 151.2839775, "tags": {"amenity": "restaurant", "cuisine": "thai", "name": "Chat Thai", "website": "http://www.chatthai.com.au/manly.html", "wheelchair": "yes"}}, {"type": "node", "id": 2138793315, "lat": -33.9521972, "lon": 151.0334, "tags": {"addr:city": "Padstow", "addr:postcode": "2211", "amenity": "restaurant", "cuisine": "thai", "name": "Doytao Thai", "source": "survey", "wifi": "no"}}, {"type": "node", "id": 2138793317, "lat": -33.9522414, "lon": 151.0334681, "tags": {"addr:city": "Padstow", "addr:postcode": "2211", "amenity": "restaurant", "cuisine": "greek", "name": "Orexi", "source": "survey"}}, {"type": "node", "id": 2138796003, "lat": -33.954189, "lon": 151.0336378, "tags": {"addr:city": "Padstow", "addr:housenumber": "Shop 19A", "addr:postcode": "2211", "addr:state": "NSW", "addr:street": "Faraday Road", "addr:suburb": "Padstow", "amenity": "restaurant", "cuisine": "thai", "delivery": "yes", "name": "Thai Elephant", "opening_hours": "Mo-Sa 11:00-15:00; Mo-Su 17:00-22:00", "opening_hours:covid19": "same", "phone": "+61 2 97739678", "source": "survey;local knowledge", "takeaway": "yes", "wifi": "no"}}, {"type": "node", "id": 2141119847, "lat": -33.9544205, "lon": 151.0332774, "tags": {"amenity": "restaurant", "cuisine": "chinese", "name": "House of Lee", "source": "survey"}}, {"type": "node", "id": 2141119883, "lat": -33.9535026, "lon": 151.0331219, "tags": {"addr:city": "Padstow", "addr:housenumber": "43", "addr:postcode": "2211", "addr:state": "NSW", "addr:street": "Padstow Parade", "addr:suburb": "Padstow", "amenity": "restaurant", "cuisine": "indian", "name": "Tandoori Cottage", "phone": "+61 2 97738377", "source": "survey", "website": "https://tandooricottage.com.au/"}}, {"type": "node", "id": 2151129487, "lat": -33.7975302, "lon": 151.1816242}, {"type": "node", "id": 2151129539, "lat": -33.796817, "lon": 151.1812028}, {"type": "node", "id": 2151129563, "lat": -33.7971627, "lon": 151.1805698}, {"type": "node", "id": 2151129602, "lat": -33.7969405, "lon": 151.1811069}, {"type": "node", "id": 2170430679, "lat": -33.8875614, "lon": 151.1901859, "tags": {"amenity": "restaurant", "name": "Taste Baguette"}}, {"type": "node", "id": 2174335088, "lat": -33.7964988, "lon": 151.1801191}, {"type": "node", "id": 2174335092, "lat": -33.7964997, "lon": 151.1801636}, {"type": "node", "id": 2174335096, "lat": -33.7964964, "lon": 151.1801435}, {"type": "node", "id": 2174335113, "lat": -33.7965467, "lon": 151.1800695}, {"type": "node", "id": 2174335128, "lat": -33.7966055, "lon": 151.1801027}, {"type": "node", "id": 2174335141, "lat": -33.7965459, "lon": 151.1802096}, {"type": "node", "id": 2174335148, "lat": -33.7965265, "lon": 151.1802015}, {"type": "node", "id": 2174335151, "lat": -33.7965099, "lon": 151.180185}, {"type": "node", "id": 2174335169, "lat": -33.7966137, "lon": 151.180132}, {"type": "node", "id": 2174335195, "lat": -33.7966026, "lon": 151.1801817}, {"type": "node", "id": 2174335204, "lat": -33.7965878, "lon": 151.1801986}, {"type": "node", "id": 2174335212, "lat": -33.7965663, "lon": 151.1802092}, {"type": "node", "id": 2174335213, "lat": -33.7965919, "lon": 151.1800842}, {"type": "node", "id": 2174335220, "lat": -33.7965106, "lon": 151.1800933}, {"type": "node", "id": 2174335255, "lat": -33.7965264, "lon": 151.1800777}, {"type": "node", "id": 2174335267, "lat": -33.7965671, "lon": 151.1800702}, {"type": "node", "id": 2174335270, "lat": -33.7966124, "lon": 151.1801566}, {"type": "node", "id": 2174554758, "lat": -33.7969271, "lon": 151.180506}, {"type": "node", "id": 2174554761, "lat": -33.796825, "lon": 151.1807591}, {"type": "node", "id": 2174554771, "lat": -33.79684, "lon": 151.1805264}, {"type": "node", "id": 2174554804, "lat": -33.7967694, "lon": 151.1807481}, {"type": "node", "id": 2174554815, "lat": -33.796772, "lon": 151.180464}, {"type": "node", "id": 2174554835, "lat": -33.7968348, "lon": 151.1804674}, {"type": "node", "id": 2190956435, "lat": -33.8141816, "lon": 151.0056524}, {"type": "node", "id": 2190956436, "lat": -33.8142004, "lon": 151.005734}, {"type": "node", "id": 2190956438, "lat": -33.814324, "lon": 151.005694, "tags": {"entrance": "main"}}, {"type": "node", "id": 2190956439, "lat": -33.8143396, "lon": 151.005674}, {"type": "node", "id": 2190956440, "lat": -33.8143428, "lon": 151.0056874}, {"type": "node", "id": 2190956441, "lat": -33.8143468, "lon": 151.0055957}, {"type": "node", "id": 2190956443, "lat": -33.8143631, "lon": 151.0056657}, {"type": "node", "id": 2262381841, "lat": -33.8685178, "lon": 151.220282, "tags": {"addr:housenumber": "4/6", "addr:postcode": "2011", "addr:street": "Cowper Wharf Road", "amenity": "restaurant", "cuisine": "asian", "name": "China Doll", "source": "02 9380 6744", "website": "https://www.chinadoll.com.au/"}}, {"type": "node", "id": 2262384570, "lat": -33.8694695, "lon": 151.2072559, "tags": {"addr:housenumber": "412-414", "addr:postcode": "2000", "addr:street": "George Street", "amenity": "restaurant", "cuisine": "italian", "name": "Pendolino", "source": "02 9231 6117", "website": "https://www.pendolino.com.au/"}}, {"type": "node", "id": 2284287878, "lat": -33.8177352, "lon": 151.004563, "tags": {"addr:housenumber": "159-175", "addr:street": "Church Street", "addr:suburb": "Parramatta", "amenity": "restaurant", "delivery": "yes", "name": "Max Brenners", "takeaway": "yes"}}, {"type": "node", "id": 2284287890, "lat": -33.8172418, "lon": 151.0038657, "tags": {"addr:city": "Sydney", "addr:housename": "Shop 2184 Westfield", "addr:housenumber": "159-175", "addr:postcode": "2150", "addr:street": "Church Street", "amenity": "restaurant", "name": "Toscani's Cafe Bar & Restaurant", "phone": "+61 2 9891 4978", "website": "http://www.toscanis.com.au/"}}, {"type": "node", "id": 2295333489, "lat": -33.8258253, "lon": 151.201075, "tags": {"addr:city": "Crows Nest", "addr:housenumber": "59", "addr:postcode": "2065", "addr:state": "NSW", "addr:street": "Willoughby Road", "addr:suburb": "Crows Nest", "amenity": "restaurant", "cuisine": "italian;ice_cream", "name": "Bravo Trattoria", "opening_hours": "Mo-Sa 08:00-21:00", "opening_hours:covid19": "same", "phone": "+61 2 9906 6630", "website": "http://www.bravotrattoria.com.au/", "wheelchair": "yes"}}, {"type": "node", "id": 2295383960, "lat": -33.8195242, "lon": 151.0091755, "tags": {"amenity": "restaurant", "cuisine": "indian", "name": "Spice of Life"}}, {"type": "node", "id": 2295393214, "lat": -33.870796, "lon": 151.26759, "tags": {"addr:housenumber": "624-634", "addr:street": "New South Head Road", "amenity": "restaurant", "cuisine": "japanese", "name": "Kami Japanese Restaurant", "phone": "+61 2 8315 7779"}}, {"type": "node", "id": 2296983780, "lat": -33.8709271, "lon": 151.2253851, "tags": {"amenity": "restaurant", "cuisine": "greek", "name": "The Apollo"}}, {"type": "node", "id": 2297983419, "lat": -34.0338867, "lon": 151.0713439, "tags": {"amenity": "restaurant", "cuisine": "japanese", "name": "Moim Japanese Kitchen", "outdoor_seating": "yes", "website": "https://www.moimkitchen.com/"}}, {"type": "node", "id": 2304507705, "lat": -33.8907025, "lon": 151.2102768, "tags": {"amenity": "restaurant", "cuisine": "international", "email": "enquiries@porteno.com.au", "name": "Porte\u00f1o", "phone": "+61 2 8399 1440"}}, {"type": "node", "id": 2310875907, "lat": -34.0347464, "lon": 151.0711697, "tags": {"amenity": "restaurant", "capacity": "20", "contact:facebook": "https://www.facebook.com/pg/mybangkokrestaurant/", "cuisine": "thai", "name": "My Bangkok", "outdoor_seating": "yes", "phone": "+61 2 9521 8500", "smoking": "no", "takeaway": "yes"}}, {"type": "node", "id": 2313591775, "lat": -34.0298993, "lon": 151.0605717, "tags": {"amenity": "restaurant", "cuisine": "japanese"}}, {"type": "node", "id": 2343303087, "lat": -33.9876199, "lon": 151.1005889, "tags": {"amenity": "restaurant", "name": "Peacock Trattoria"}}, {"type": "node", "id": 2365225493, "lat": -33.9022988, "lon": 151.1789523, "tags": {"amenity": "restaurant", "cuisine": "lebanese", "name": "Arabella", "phone": "+61 2 95501119", "website": "https://www.arabella.com.au/", "wheelchair": "yes"}}, {"type": "node", "id": 2365228807, "lat": -33.899227, "lon": 151.1776924, "tags": {"addr:city": "Newtown", "addr:housenumber": "379", "addr:postcode": "2042", "addr:street": "King Street", "amenity": "restaurant", "cuisine": "pizza", "diet:vegan": "only", "name": "Gigi Pizzeria", "phone": "+61 2 95572224", "website": "https://gigipizzeria.com.au/", "wheelchair": "yes"}}, {"type": "node", "id": 2365229319, "lat": -33.8991694, "lon": 151.1776688, "tags": {"addr:city": "Newtown", "addr:housenumber": "377", "addr:postcode": "2042", "addr:street": "King Street", "amenity": "restaurant", "cuisine": "tapas", "name": "Argie BarGee", "phone": "+61 2 95578884", "website": "http://www.argiebargee.com.au"}}, {"type": "node", "id": 2365233252, "lat": -33.89529, "lon": 151.18233, "tags": {"amenity": "restaurant", "cuisine": "pie", "name": "The Pie Tin", "payment:bitcoin": "no", "wheelchair": "limited"}}, {"type": "node", "id": 2365233679, "lat": -33.8941571, "lon": 151.1825524, "tags": {"addr:city": "Newtown", "addr:housenumber": "175", "addr:postcode": "2042", "addr:street": "King Street", "amenity": "restaurant", "branch": "Taqueria", "brand": "Guzman y Gomez", "brand:wikidata": "Q23019759", "brand:wikipedia": "en:Guzman y Gomez", "cuisine": "mexican", "delivery": "yes", "delivery:deliveroo": "yes", "drive_through": "no", "name": "Guzman y Gomez", "outdoor_seating": "yes", "takeaway": "yes", "wheelchair": "yes"}}, {"type": "node", "id": 2365252957, "lat": -33.897388, "lon": 151.178412, "tags": {"amenity": "restaurant", "cuisine": "mexican", "name": "Beach Burrito Company"}}, {"type": "node", "id": 2404311397, "lat": -33.7895809, "lon": 150.9962832, "tags": {"amenity": "restaurant"}}, {"type": "node", "id": 2412504112, "lat": -34.0244636, "lon": 151.0492597, "tags": {"amenity": "restaurant", "cuisine": "thai", "delivery": "yes", "name": "Thai Restaurant", "outdoor_seating": "yes", "smoking": "no", "takeaway": "yes"}}, {"type": "node", "id": 2424122152, "lat": -33.7956796, "lon": 151.122487}, {"type": "node", "id": 2424122153, "lat": -33.7957493, "lon": 151.1225732}, {"type": "node", "id": 2424122154, "lat": -33.7956989, "lon": 151.1226386}, {"type": "node", "id": 2424122155, "lat": -33.7957144, "lon": 151.122663}, {"type": "node", "id": 2424122156, "lat": -33.7956511, "lon": 151.1227343}, {"type": "node", "id": 2429541803, "lat": -33.8235728, "lon": 151.2006616, "tags": {"addr:city": "Crows Nest", "addr:housename": "Shop 4", "addr:housenumber": "136", "addr:street": "Willoughby Road", "amenity": "restaurant", "cuisine": "thai", "name": "The Tall Lemongrass"}}, {"type": "node", "id": 2445528991, "lat": -33.8642325, "lon": 151.0883882, "tags": {"amenity": "restaurant", "name": "Paradise Biryani House", "website": "http://www.biryani.com.au/"}}, {"type": "node", "id": 2447872383, "lat": -34.0580058, "lon": 151.0275198, "tags": {"amenity": "restaurant", "cuisine": "pizza", "name": "Pizza League"}}, {"type": "node", "id": 2493382923, "lat": -34.0510975, "lon": 151.1513669, "tags": {"amenity": "restaurant", "cuisine": "mexican", "name": "Mexican Scorpion", "source": "survey", "source:location": "extrapolation"}}, {"type": "node", "id": 2494793032, "lat": -33.8725229, "lon": 151.0303532}, {"type": "node", "id": 2494793033, "lat": -33.8726286, "lon": 151.0304126}, {"type": "node", "id": 2494793034, "lat": -33.8727938, "lon": 151.0303817}, {"type": "node", "id": 2494793035, "lat": -33.8728896, "lon": 151.030253}, {"type": "node", "id": 2494793036, "lat": -33.8728852, "lon": 151.0302047}, {"type": "node", "id": 2494793037, "lat": -33.8728462, "lon": 151.0302101}, {"type": "node", "id": 2494793038, "lat": -33.8728373, "lon": 151.0301189}, {"type": "node", "id": 2494793039, "lat": -33.8724932, "lon": 151.0301886}, {"type": "node", "id": 2521922484, "lat": -33.8763755, "lon": 151.2215154, "tags": {"addr:city": "Sydney", "addr:housenumber": "112", "addr:postcode": "2010", "addr:street": "Darlinghurst Road", "addr:suburb": "Darlinghurst", "amenity": "restaurant", "name": "Govindas"}}, {"type": "node", "id": 2522158184, "lat": -33.8780826, "lon": 151.2168021, "tags": {"amenity": "restaurant", "name": "Jazz City Milk Bar", "website": "http://www.jazzcitymilkbar.com"}}, {"type": "node", "id": 2522579363, "lat": -33.8782576, "lon": 151.2204773, "tags": {"addr:city": "Sydney", "addr:housenumber": "379", "addr:postcode": "2010", "addr:street": "Liverpool Street", "addr:suburb": "Darlinghurst", "amenity": "restaurant", "cuisine": "syrian", "name": "Almond", "website": "https://www.almondbar.com.au/"}}, {"type": "node", "id": 2522855596, "lat": -33.8138569, "lon": 151.009939}, {"type": "node", "id": 2522855600, "lat": -33.8138686, "lon": 151.0100268}, {"type": "node", "id": 2522855626, "lat": -33.8140468, "lon": 151.0100803}, {"type": "node", "id": 2522855628, "lat": -33.8140013, "lon": 151.0101687}, {"type": "node", "id": 2522855650, "lat": -33.8138275, "lon": 151.0099962}, {"type": "node", "id": 2522855656, "lat": -33.8138526, "lon": 151.010058}, {"type": "node", "id": 2524023946, "lat": -33.8082459, "lon": 151.0056463, "tags": {"amenity": "restaurant", "brand": "Nando's", "brand:wikidata": "Q3472954", "brand:wikipedia": "en:Nando's", "cuisine": "chicken;portuguese", "name": "Nando's", "website": "https://www.nandos.com.au/", "wheelchair": "yes"}}, {"type": "node", "id": 2524742470, "lat": -33.8683143, "lon": 151.2016924, "tags": {"addr:city": "Sydney", "addr:housename": "King Street Wharf Building", "addr:housenumber": "42-48", "addr:postcode": "2000", "addr:street": "Lime Street", "amenity": "restaurant", "changing_table": "yes", "changing_table:location": "yes", "cuisine": "italian", "highchair": "yes", "internet_access": "no", "name": "Casa di Nico", "phone": "+61 2 9279 4115", "toilets:wheelchair": "yes", "website": "https://lovecasa.com.au/", "wheelchair": "yes"}}, {"type": "node", "id": 2524810478, "lat": -33.8812301, "lon": 151.217858, "tags": {"amenity": "restaurant", "cuisine": "brazilian", "name": "Churras"}}, {"type": "node", "id": 2524810479, "lat": -33.8812111, "lon": 151.2178007, "tags": {"amenity": "restaurant", "name": "Balkan"}}, {"type": "node", "id": 2524990912, "lat": -33.8770209, "lon": 151.2098559, "tags": {"amenity": "restaurant", "name": "The Canopy", "website": "http://www.thecanopy.com.au/"}}, {"type": "node", "id": 2542570958, "lat": -33.8960854, "lon": 151.1797467, "tags": {"amenity": "restaurant", "cuisine": "burger", "internet_access": "no", "internet_access:fee": "no", "name": "Marys", "phone": "+61 2 4995 9550", "smoking": "no"}}, {"type": "node", "id": 2562317216, "lat": -33.9230498, "lon": 151.2573079}, {"type": "node", "id": 2562317217, "lat": -33.9230645, "lon": 151.257415}, {"type": "node", "id": 2562317218, "lat": -33.9232722, "lon": 151.2573778}, {"type": "node", "id": 2562317219, "lat": -33.9232546, "lon": 151.2572726}, {"type": "node", "id": 2574858380, "lat": -33.873102, "lon": 151.2246255, "tags": {"addr:city": "Sydney", "addr:housenumber": "1A", "addr:postcode": "2011", "addr:street": "Darlinghurst Road", "amenity": "restaurant", "cuisine": "ice_cream", "name": "Andersen's"}}, {"type": "node", "id": 2613244955, "lat": -34.0533298, "lon": 151.1523222, "tags": {"amenity": "restaurant", "contact:phone": "+61 02 9523 8620", "cuisine": "asian", "name": "Golden Sun", "source": "survey", "source:location": "bing"}}, {"type": "node", "id": 2613244976, "lat": -34.0555618, "lon": 151.1518707, "tags": {"amenity": "restaurant", "cuisine": "chinese", "name": "Lucky Dragon", "source": "survey", "source:location": "bing"}}, {"type": "node", "id": 2613244977, "lat": -34.0544853, "lon": 151.1518779, "tags": {"addr:housenumber": "95", "amenity": "restaurant", "contact:phone": "+61 02 9523 5163", "cuisine": "thai", "name": "Montien Tong", "source": "survey", "source:location": "bing"}}, {"type": "node", "id": 2613244997, "lat": -34.0512587, "lon": 151.1538836, "tags": {"amenity": "restaurant", "cuisine": "mexican", "source": "survey", "source:location": "extrapolation"}}, {"type": "node", "id": 2622991674, "lat": -33.8757518, "lon": 151.2157585, "tags": {"addr:city": "Darlinghurst", "addr:housenumber": "82", "addr:postcode": "2010", "addr:street": "Stanley Street", "amenity": "restaurant", "cuisine": "thai", "name": "Black Squid Thai", "website": "http://theblacksquid.com.au/", "wheelchair": "limited"}}, {"type": "node", "id": 2624086314, "lat": -33.8802122, "lon": 151.2151116}, {"type": "node", "id": 2624086316, "lat": -33.8802375, "lon": 151.2152892}, {"type": "node", "id": 2624093422, "lat": -33.8802768, "lon": 151.2150983}, {"type": "node", "id": 2624093426, "lat": -33.8802399, "lon": 151.2153097}, {"type": "node", "id": 2624141909, "lat": -33.8811065, "lon": 151.2149198}, {"type": "node", "id": 2624141910, "lat": -33.8811294, "lon": 151.2150894}, {"type": "node", "id": 2624142318, "lat": -33.8811564, "lon": 151.2149105}, {"type": "node", "id": 2624142319, "lat": -33.8811821, "lon": 151.2150784}, {"type": "node", "id": 2624157078, "lat": -33.8817096, "lon": 151.2145655}, {"type": "node", "id": 2624157079, "lat": -33.8816305, "lon": 151.214586}, {"type": "node", "id": 2624157080, "lat": -33.8816084, "lon": 151.2143367}, {"type": "node", "id": 2624157081, "lat": -33.8815458, "lon": 151.2143529}, {"type": "node", "id": 2624157082, "lat": -33.8815028, "lon": 151.2141117}, {"type": "node", "id": 2624157083, "lat": -33.8816232, "lon": 151.2140805}, {"type": "node", "id": 2625866793, "lat": -33.823457, "lon": 151.197109, "tags": {"addr:city": "St Leonards", "addr:country": "AU", "addr:housenumber": "599", "addr:postcode": "2065", "addr:state": "NSW", "addr:street": "Pacific Highway", "addr:unit": "1", "amenity": "restaurant", "cuisine": "chinese", "drive_in": "no", "name": "Szechuan Garden", "outdoor_seating": "no", "takeaway": "yes"}}, {"type": "node", "id": 2625869918, "lat": -33.8274585, "lon": 151.2006993, "tags": {"addr:city": "Crows Nest", "addr:country": "AU", "addr:postcode": "2065", "addr:state": "NSW", "amenity": "restaurant", "cuisine": "turkish", "drive_in": "no", "name": "Turka", "outdoor_seating": "yes"}}, {"type": "node", "id": 2625889814, "lat": -33.825988, "lon": 151.200778, "tags": {"amenity": "restaurant", "cuisine": "vietnamese", "name": "Chill"}}, {"type": "node", "id": 2626116990, "lat": -33.8172703, "lon": 151.0039089, "tags": {"addr:city": "Sydney", "addr:housename": "Sahara Turkish Restaurant", "addr:postcode": "2150", "addr:street": "Argyle Street, Level 2 Dining Precinct", "amenity": "restaurant", "cuisine": "turkish;middle_eastern;mediterranean", "name": "Sahara Turkish Restaurant", "note": "eating@sahararestaurant.com.au Driving in: Parking on Level 4 Westfield carpark off Campbell st. 3 hrs free parking, Open til 1am. Public Transport- Use the 131500.com.au trip planner & set destination 'Westfield Parramatta'. Walking- Located in the centr", "opening_hours": "10:00-01:00; PH off", "phone": "+612 9687 7898", "source:opening_hours": "note on node", "website": "http://sahararestaurant.com.au/#&slider1=2"}}, {"type": "node", "id": 2626381885, "lat": -33.823727, "lon": 151.198735, "tags": {"addr:city": "St Leonards", "addr:country": "AU", "addr:postcode": "2065", "addr:state": "NSW", "addr:street": "Albany Street", "amenity": "restaurant", "cuisine": "japanese", "drive_in": "no", "microbrewery": "no", "name": "Osaka Teppanyaki", "outdoor_seating": "no", "smoking": "no", "wheelchair": "yes"}}, {"type": "node", "id": 2644793711, "lat": -33.9165686, "lon": 151.2408378, "tags": {"amenity": "restaurant", "cuisine": "japanese", "name": "Sushi Inn"}}, {"type": "node", "id": 2655866151, "lat": -34.0170692, "lon": 151.0656101, "tags": {"addr:city": "Jannali", "addr:housename": "1/7-9", "addr:postcode": "2226", "addr:street": "White Street", "amenity": "restaurant", "cuisine": "pizza", "name": "Bella Cibo", "note": "Gourmet Takeaway & Home Delivery Gluten Free Experts", "opening_hours": "16:30+", "phone": "+61 2 95890066", "website": "https://www.bellacibo.com.au/"}}, {"type": "node", "id": 2699271907, "lat": -33.8276037, "lon": 151.2523792, "tags": {"amenity": "restaurant", "name": "Public Dining Room", "wheelchair": "yes"}}, {"type": "node", "id": 2701097422, "lat": -33.9156612, "lon": 151.0371047, "tags": {"amenity": "restaurant", "name": "Sabilla's Cafe and Restaurant", "source": "survey"}}, {"type": "node", "id": 2744252853, "lat": -33.8688298, "lon": 151.2251932, "tags": {"addr:city": "Potts Point", "addr:housenumber": "12-16", "addr:postcode": "2011", "addr:street": "Challis Avenue", "amenity": "restaurant", "cuisine": "italian", "name": "Fratelli Paradiso"}}, {"type": "node", "id": 2744297159, "lat": -33.866113, "lon": 151.2102798, "tags": {"addr:city": "Sydney", "addr:housenumber": "10", "addr:postcode": "2000", "addr:street": "Bligh Street", "amenity": "restaurant", "cuisine": "asian_fusion", "name": "Spice Temple"}}, {"type": "node", "id": 2744297165, "lat": -33.8660112, "lon": 151.2103603, "tags": {"addr:city": "Sydney", "addr:housenumber": "66", "addr:postcode": "2000", "addr:street": "Hunter Street", "amenity": "restaurant", "cuisine": "international", "name": "Rockpool Bar & Grill"}}, {"type": "node", "id": 2748944882, "lat": -33.874833, "lon": 151.2160555, "tags": {"addr:city": "Darlinghurst", "addr:housenumber": "97", "addr:postcode": "2010", "addr:street": "Crown Street", "amenity": "restaurant", "name": "The Owl House", "opening_hours": "Tu-Fr 17:00-23:59; Sa 18:00-23:59; Su,Mo off", "payment:bitcoin": "yes", "phone": "+61 2 9357 5060", "website": "https://www.theowlhouse.com.au/"}}, {"type": "node", "id": 2751747454, "lat": -33.8750488, "lon": 151.2217747, "tags": {"addr:city": "Potts Point", "addr:housenumber": "Shop 2, 238", "addr:postcode": "2011", "addr:street": "William Street", "amenity": "restaurant", "cuisine": "vietnamese", "name": "VietBowl", "phone": "+61 2 8065 7515", "smoking": "outside", "source": "http://www.vietbowl.com.au/", "website": "http://www.vietbowl.com.au/"}}, {"type": "node", "id": 2751836027, "lat": -33.8750012, "lon": 151.2215031, "tags": {"addr:city": "Potts Point", "addr:housenumber": "Shop 21, 230", "addr:postcode": "2011", "addr:street": "William Street", "amenity": "restaurant", "cuisine": "japanese;sushi", "name": "Sushi Bar @ William Street", "smoking": "no"}}, {"type": "node", "id": 2759887174, "lat": -33.8687873, "lon": 151.2201147, "tags": {"addr:housenumber": "2/6", "addr:postcode": "2011", "addr:street": "Cowper Wharf Roadway", "amenity": "restaurant", "cuisine": "italian", "name": "Il Pontile"}}, {"type": "node", "id": 2759887179, "lat": -33.8683607, "lon": 151.2203772, "tags": {"amenity": "restaurant", "name": "Manta"}}, {"type": "node", "id": 2759887180, "lat": -33.8681108, "lon": 151.220521, "tags": {"amenity": "restaurant", "cuisine": "seafood", "name": "Otto Ristorante"}}, {"type": "node", "id": 2759995335, "lat": -33.8699154, "lon": 151.2252697, "tags": {"addr:city": "Potts Point", "addr:housenumber": "77", "addr:postcode": "2011", "addr:street": "MacLeay Street", "amenity": "restaurant", "cuisine": "coffee_shop", "name": "ZINC"}}, {"type": "node", "id": 2759995337, "lat": -33.8695405, "lon": 151.2253515, "tags": {"amenity": "restaurant", "name": "Macleay Street Bistro"}}, {"type": "node", "id": 2759995338, "lat": -33.8694619, "lon": 151.2253675, "tags": {"addr:city": "Potts Point", "addr:housenumber": "73", "addr:postcode": "2011", "addr:street": "MacLeay Street", "amenity": "restaurant", "cuisine": "japanese", "name": "Cho Cho San", "opening_hours": "Mo-Th 17:30-23:00; Fr-Su 12:00-16:00,17:30-23:00", "phone": "+61 2 9331 6601", "smoking": "no", "source:date": "2014-07-13", "website": "https://chochosan.com.au/"}}, {"type": "node", "id": 2779039641, "lat": -33.8885528, "lon": 151.1766571}, {"type": "node", "id": 2779039642, "lat": -33.888422, "lon": 151.177114}, {"type": "node", "id": 2779039643, "lat": -33.8877333, "lon": 151.1768278}, {"type": "node", "id": 2779039644, "lat": -33.8878642, "lon": 151.1763709}, {"type": "node", "id": 2786716154, "lat": -33.9638173, "lon": 151.1323583, "tags": {"amenity": "restaurant", "cuisine": "fish_and_chips", "name": "Fish on Fire", "source": "local_knowledge"}}, {"type": "node", "id": 2786716157, "lat": -33.9636758, "lon": 151.1324195, "tags": {"amenity": "restaurant", "cuisine": "chinese", "name": "Hong Kong Noodle King", "source": "local_knowledge"}}, {"type": "node", "id": 2786716160, "lat": -33.9635676, "lon": 151.1337718, "tags": {"amenity": "restaurant", "brand": "Nando's", "brand:wikidata": "Q3472954", "cuisine": "chicken;portuguese", "name": "Nando's", "source": "local_knowledge"}}, {"type": "node", "id": 2786716163, "lat": -33.9634905, "lon": 151.1324782, "tags": {"amenity": "restaurant", "cuisine": "japanese", "name": "Tomo Sushi", "source": "local_knowledge"}}, {"type": "node", "id": 2786716169, "lat": -33.9635028, "lon": 151.1337171, "tags": {"amenity": "restaurant", "cuisine": "japanese", "name": "Yuu Sushi", "source": "local_knowledge"}}, {"type": "node", "id": 2786896037, "lat": -33.9655207, "lon": 151.1337554, "tags": {"amenity": "restaurant", "name": "Fusion", "source": "local_knowledge"}}, {"type": "node", "id": 2786896039, "lat": -33.9650406, "lon": 151.1330364, "tags": {"amenity": "restaurant", "cuisine": "thai", "source": "local_knowledge"}}, {"type": "node", "id": 2786896041, "lat": -33.965157, "lon": 151.1333898, "tags": {"amenity": "restaurant", "cuisine": "japanese", "source": "local_knowledge"}}, {"type": "node", "id": 2786896044, "lat": -33.965223, "lon": 151.1332651, "tags": {"amenity": "restaurant", "cuisine": "thai", "source": "local_knowledge"}}, {"type": "node", "id": 2789946879, "lat": -33.8912391, "lon": 151.1778286, "tags": {"addr:city": "Camperdown", "addr:housenumber": "176", "addr:postcode": "2050", "addr:street": "Salisbury Road", "amenity": "restaurant", "cuisine": "thai", "name": "Salisbury Spice Thai", "opening_hours": "17:30-21:30", "phone": "+61 2 9516 0708", "smoking": "no", "website": "http://www.salisburyspicethai.com.au/"}}, {"type": "node", "id": 2808210601, "lat": -33.9130687, "lon": 151.2405234, "tags": {"addr:housenumber": "187", "addr:postcode": "2031", "addr:state": "NSW", "addr:street": "Alison Road", "addr:suburb": "Randwick", "addr:unit": "Shop 1-3", "amenity": "restaurant", "cuisine": "lebanese", "description": "Free home delivery, minimum order $30", "name": "Lebanon and Beyond", "opening_hours": "Mo-Su 17:00-22:00", "takeaway": "yes", "website": "http://www.lebanonandbeyond.com.au"}}, {"type": "node", "id": 2815562381, "lat": -33.822704, "lon": 151.2194323, "tags": {"addr:city": "Cammeray", "addr:housenumber": "18", "addr:postcode": "2062", "addr:street": "Cammeray Road", "amenity": "restaurant", "cuisine": "japanese", "licensed": "yes", "name": "Toriciya", "opening_hours": "Tu-Su 18:00-22:00", "phone": "+61 2 9904 2277", "source": "survey", "website": "http://www.toriciya.com.au/"}}, {"type": "node", "id": 2832788529, "lat": -33.8235627, "lon": 151.1087874, "tags": {"addr:housenumber": "90", "addr:street": "Charles Street", "addr:unit": "4", "amenity": "restaurant", "cuisine": "mexican", "name": "Gringos Fresh Mexican Cantina", "phone": "+61 2 9807 2447", "website": "https://augringos.com/"}}, {"type": "node", "id": 2832791472, "lat": -33.8236045, "lon": 151.1088127, "tags": {"amenity": "restaurant", "cuisine": "thai", "name": "We"}}, {"type": "node", "id": 2839232501, "lat": -33.899559, "lon": 151.1777533, "tags": {"addr:city": "Newtown", "addr:housenumber": "391", "addr:postcode": "2042", "addr:street": "King Street", "amenity": "restaurant", "diet:vegan": "only", "name": "Lentil as Anything", "opening_hours": "Mo-Fr 12:00-15:00, 18:00-21:00; Sa-Su 10:00-15:00, 18:00-21:00", "opening_hours:signed": "no", "smoking": "no", "toilets:wheelchair": "no", "website": "https://www.lentilasanything.com/", "wheelchair": "limited"}}, {"type": "node", "id": 2839253033, "lat": -33.8705599, "lon": 151.2081234, "tags": {"amenity": "restaurant", "level": "-1", "name": "Cellini's Cafe"}}, {"type": "node", "id": 2857404101, "lat": -33.9197854, "lon": 151.2263263, "tags": {"amenity": "restaurant", "cuisine": "korean; japanese", "name": "Pinocchio", "source": "survey"}}, {"type": "node", "id": 2874264581, "lat": -33.8668408, "lon": 151.192878, "tags": {"amenity": "restaurant", "cuisine": "japanese", "diet:vegan": "yes", "diet:vegetarian": "yes", "name": "Yuzu", "opening_hours": "Mo-Fr 11:30-09:30, Sa 05:30-09:30; Su off", "source": "survey", "source:location": "extrapolation", "wheelchair": "yes"}}, {"type": "node", "id": 2879164401, "lat": -33.8950905, "lon": 151.2506377, "tags": {"amenity": "restaurant", "cuisine": "italian", "name": "Osteria Riva", "source": "survey"}}, {"type": "node", "id": 2886393717, "lat": -33.8959837, "lon": 151.1540038, "tags": {"addr:city": "Petersham", "addr:housenumber": "82", "addr:postcode": "2049", "addr:street": "Audley Street", "amenity": "restaurant", "cuisine": "portuguese", "name": "Gloria\u2019s Portuguese Restaurant", "opening_hours": "Mo-Fr 09:30-22:00; Sa 09:00-22:00; Su 10:00-15:00", "phone": "+61 2 9568 3966", "smoking": "no", "website": "http://www.gloriascafe.com.au/"}}, {"type": "node", "id": 2886393718, "lat": -33.8963819, "lon": 151.1540658, "tags": {"addr:city": "Petersham", "addr:housenumber": "82", "addr:postcode": "2049", "addr:street": "New Canterbury Road", "amenity": "restaurant", "cuisine": "portuguese", "name": "Silvas", "opening_hours": "Tu-Sa 11:00-21:00, Su 11:00-20:30", "phone": "+61 2 9572 9911", "smoking": "no"}}, {"type": "node", "id": 2886422810, "lat": -33.8958473, "lon": 151.1540128, "tags": {"addr:city": "Petersham", "addr:housenumber": "88", "addr:postcode": "2049", "addr:street": "Audley Street", "amenity": "restaurant", "cuisine": "greek", "name": "Seed Cuisine", "opening_hours": "Tu-Sa 17:30-24:00", "phone": "+61 2 9560 7798", "smoking": "no", "website": "http://seedcuisine.com.au/"}}, {"type": "node", "id": 2886422812, "lat": -33.8964964, "lon": 151.1534917, "tags": {"addr:city": "Petersham", "addr:housenumber": "98", "addr:postcode": "2049", "addr:street": "New Canterbury Road", "amenity": "restaurant", "cuisine": "portuguese", "name": "Frango Charcoal Chicken", "opening_hours": "Mo-Th 10:00-21:00, Fr-Sa 10:00-22:00, Su 10:00-20:00", "phone": "+61 2 9560 2369", "smoking": "no", "website": "http://frangos.com.au"}}, {"type": "node", "id": 2886422814, "lat": -33.8964733, "lon": 151.1536432, "tags": {"addr:city": "Petersham", "addr:housenumber": "88-94", "addr:postcode": "2049", "addr:street": "New Canterbury Road", "amenity": "restaurant", "cuisine": "pizza", "name": "Rocketboy", "opening_hours": "Mo-Su 12:00-14:30, Mo-Su 17:30-22:00", "phone": "+61 2 9550 9988", "smoking": "no", "website": "http://rocketboypizza.com/locations/petersham/"}}, {"type": "node", "id": 2896377732, "lat": -33.8923262, "lon": 151.1543646, "tags": {"addr:city": "Petersham", "addr:housenumber": "49", "addr:postcode": "2049", "addr:state": "NSW", "addr:street": "Palace Street", "addr:suburb": "Petersham", "amenity": "restaurant", "contact:twitter": "https://twitter.com/brighton_corner", "cuisine": "Modern_Australian", "name": "Brighton the Corner", "opening_hours": "Mo-Sa 07:00-15:00; Su 08:00-15:00", "phone": "+61 2 9572 6097", "smoking": "no", "website": "https://brightonthecorner.business.site/"}}, {"type": "node", "id": 2911988523, "lat": -33.8841748, "lon": 151.1967284, "tags": {"amenity": "restaurant", "name": "Wok Master"}}, {"type": "node", "id": 2911988525, "lat": -33.8839613, "lon": 151.196576, "tags": {"amenity": "restaurant", "cuisine": "vietnamese", "name": "Fast Pho"}}, {"type": "node", "id": 2911988526, "lat": -33.8839813, "lon": 151.1969354, "tags": {"amenity": "restaurant", "cuisine": "malaysian", "name": "Malacca Straits", "wheelchair": "yes"}}, {"type": "node", "id": 2917231076, "lat": -33.8399662, "lon": 151.088426, "tags": {"addr:postcode": "2138", "addr:suburb": "Concord West", "amenity": "restaurant", "name": "Casa Bella Pizza", "opening_hours": "Mo-Su 17:00-21:30", "wheelchair": "limited"}}, {"type": "node", "id": 2924574768, "lat": -33.8556694, "lon": 151.0915893, "tags": {"amenity": "restaurant", "cuisine": "chinese", "name": "Liu Rose Chinese Restaurant", "opening_hours": "Mo-Su 12:00-15:00, Su-Th 17:00-22:00, Fr,Sa 17:00-23:00", "website": "http://www.liurose.com/", "wheelchair": "yes"}}, {"type": "node", "id": 2938701609, "lat": -33.8928047, "lon": 151.1831147}, {"type": "node", "id": 2938701610, "lat": -33.8928848, "lon": 151.1831466}, {"type": "node", "id": 2938701611, "lat": -33.8929355, "lon": 151.1829598}, {"type": "node", "id": 2938701612, "lat": -33.8928559, "lon": 151.1829281}, {"type": "node", "id": 2947427487, "lat": -33.8572093, "lon": 151.208919, "tags": {"amenity": "restaurant", "brand": "Pancakes on the Rocks", "contact:website": "http://www.pancakesontherocks.com.au/", "name": "Pancakes on the Rocks", "name:en": "Pancakes on the Rocks", "opening_hours": "24/7", "source": "survey", "source:location": "extrapolation"}}, {"type": "node", "id": 2947427489, "lat": -33.9523618, "lon": 151.0830158, "tags": {"amenity": "restaurant", "brand": "Pancakes on the Rocks", "name": "Pancakes on the Rocks", "source": "survey", "source:location": "extrapolation"}}, {"type": "node", "id": 2955359298, "lat": -33.8909607, "lon": 151.1963449, "tags": {"amenity": "restaurant", "capacity": "20", "cuisine": "japanese", "name": "Jap's Table"}}, {"type": "node", "id": 2958284110, "lat": -33.8264174, "lon": 151.0504426, "tags": {"amenity": "restaurant", "name": "Dooleys"}}, {"type": "node", "id": 2959763867, "lat": -33.7720856, "lon": 151.0827146, "tags": {"amenity": "restaurant", "name": "Pent-thai", "source": "survey", "wheelchair": "no"}}, {"type": "node", "id": 2959763869, "lat": -33.7721196, "lon": 151.0827019, "tags": {"amenity": "restaurant", "cuisine": "vietnamese", "level": "0", "name": "Pho Sam Noodle House", "source": "survey", "wheelchair": "no"}}, {"type": "node", "id": 2959763870, "lat": -33.7721489, "lon": 151.0826892, "tags": {"addr:housenumber": "12", "addr:street": "Oxford Street", "amenity": "restaurant", "name": "Sum Bo Kitchen", "source": "survey", "wheelchair": "no"}}, {"type": "node", "id": 2959772980, "lat": -33.7785583, "lon": 151.0523342, "tags": {"addr:street": "Pennant Hills Road", "amenity": "restaurant", "name": "Jane's Kitchen", "source": "bing + survey"}}, {"type": "node", "id": 2971193947, "lat": -33.7965737, "lon": 151.1833217, "tags": {"addr:city": "Chatswood", "addr:housenumber": "376 Shop 8", "addr:postcode": "2067", "addr:street": "Victoria Avenue", "air_conditioning": "yes", "amenity": "restaurant", "capacity": "20", "cuisine": "taiwanese;chinese;beef_bowl;noodles", "indoor_seating": "yes", "name": "Bao Dao Taiwanese Kitchen", "name:zh": "\u5bf6\u5cf6", "opening_hours": "Mo-Su 11:00-21:00; Th-Sa 11:00-21:30", "outdoor_seating": "yes", "phone": "+61294196290", "smoking": "no", "source": "survey", "takeaway": "yes", "website": "http://baodao.com.au/", "wheelchair": "yes"}}, {"type": "node", "id": 2972865047, "lat": -33.8670957, "lon": 151.1952843, "tags": {"amenity": "restaurant", "name": "The Century", "source": "survey", "source:location": "extrapolation"}}, {"type": "node", "id": 2972878167, "lat": -33.8714234, "lon": 151.2044743, "tags": {"addr:housenumber": "1", "addr:shop": "2", "addr:street": "Market Street", "amenity": "restaurant", "brand": "Menya Noodle Bar", "contact:phone": "+61 2 9267 4649", "contact:website": "http://www.menya.com.au", "name": "Menya-City", "source": "survey", "source:location": "extrapolation", "wheelchair": "limited"}}, {"type": "node", "id": 2983950809, "lat": -33.8996347, "lon": 151.1777708, "tags": {"addr:city": "Newtown", "addr:housenumber": "395", "addr:postcode": "2042", "addr:street": "King Street", "amenity": "restaurant", "contact:facebook": "https://www.facebook.com/vinavegannewtown/", "contact:instagram": "https://www.instagram.com/vinaveganrestaurant/", "contact:phone": "+61 2 9557 0456", "contact:website": "http://www.vinavegan.com.au/", "diet:gluten_free": "yes", "diet:vegan": "only", "name": "Vina", "opening_hours": "Mo-Su 19:00-22:00", "reservation": "yes", "smoking": "no", "wheelchair": "yes"}}, {"type": "node", "id": 2993747419, "lat": -33.8319555, "lon": 151.0896126, "tags": {"amenity": "restaurant", "name": "Oliveto", "source": "survey"}}, {"type": "node", "id": 2998987211, "lat": -33.7988687, "lon": 151.2843827, "tags": {"addr:city": "Manly", "addr:housenumber": "5/54", "addr:postcode": "2095", "addr:street": "West Esplanade", "amenity": "restaurant", "name": "Miss Chu Tuckshop", "opening_hours": "11:00-22:00", "phone": "+61 2 9976 3682", "smoking": "no", "website": "http://www.misschu.com.au/Locations/ManlyTuckshop"}}, {"type": "node", "id": 3007602539, "lat": -33.8745892, "lon": 151.0940615, "tags": {"addr:street": "The Boulevarde", "amenity": "restaurant", "cuisine": "chinese", "name": "Arisun"}}, {"type": "node", "id": 3023984134, "lat": -33.861997, "lon": 151.08789, "tags": {"addr:city": "North Strathfield", "addr:country": "AU", "addr:housenumber": "9", "addr:postcode": "2137", "addr:state": "NSW", "addr:street": "George Street", "amenity": "restaurant", "cuisine": "korean", "drive_in": "no", "internet_access": "no", "microbrewery": "no", "name": "Bakehouse Garden", "organic": "no", "outdoor_seating": "yes", "phone": "+61 2 87460299", "smoking": "no", "website": "http://www.bakehousegarden.com.au", "wheelchair": "yes"}}, {"type": "node", "id": 3039274495, "lat": -33.867708, "lon": 151.2078305, "tags": {"addr:city": "Sydney", "addr:housenumber": "1", "addr:postcode": "2000", "addr:state": "NSW", "addr:street": "Martin Place", "amenity": "restaurant", "name": "Prime Steak Restaurant", "opening_hours": "Tu-Fr 12:00-15:00; Mo-Sa 18:00-22:00"}}, {"type": "node", "id": 3070021433, "lat": -33.9214771, "lon": 151.2266323, "tags": {"amenity": "restaurant", "cuisine": "chinese", "internet_access": "no", "name": "Delicious Chinese Cuisine", "name:zh": "\u5927\u5bb6\u6a02\u5c0f\u5eda", "outdoor_seating": "no", "smoking": "no"}}, {"type": "node", "id": 3090532909, "lat": -33.9396209, "lon": 151.2288076}, {"type": "node", "id": 3090532910, "lat": -33.9396354, "lon": 151.2289229}, {"type": "node", "id": 3090532911, "lat": -33.9396454, "lon": 151.2290047}, {"type": "node", "id": 3090532912, "lat": -33.9394674, "lon": 151.2290704}, {"type": "node", "id": 3090532913, "lat": -33.9394518, "lon": 151.2289685}, {"type": "node", "id": 3090532914, "lat": -33.9394507, "lon": 151.2288787}, {"type": "node", "id": 3114381835, "lat": -33.7975448, "lon": 151.004937, "tags": {"addr:housenumber": "19", "addr:postcode": "2151", "addr:street": "Iron Street", "addr:suburb": "North Parramatta", "amenity": "restaurant", "capacity": "10", "cuisine": "pizza", "delivery": "yes", "name": "Romano's Pizzeria", "phone": "+61 2 9890 4040", "source": "survey", "takeaway": "yes"}}, {"type": "node", "id": 3114381842, "lat": -33.7980105, "lon": 151.0050095, "tags": {"addr:housenumber": "1", "addr:postcode": "2151", "addr:street": "Iron Street", "addr:suburb": "North Parramatta", "amenity": "restaurant", "name": "Persian Cafe and Kebab House", "source": "survey"}}, {"type": "node", "id": 3116265707, "lat": -33.8000454, "lon": 151.0042716, "tags": {"addr:housenumber": "526", "addr:postcode": "2151", "addr:street": "Church Street", "addr:suburb": "North Parramatta", "amenity": "restaurant", "cuisine": "thai", "name": "Thai Garden House", "source": "survey", "website": "http://thaigardenhouse.com.au/", "wheelchair": "no"}}, {"type": "node", "id": 3136573362, "lat": -33.9449402, "lon": 151.141368}, {"type": "node", "id": 3136573363, "lat": -33.9450051, "lon": 151.1415786}, {"type": "node", "id": 3136573364, "lat": -33.9450749, "lon": 151.1415427}, {"type": "node", "id": 3136573365, "lat": -33.9449966, "lon": 151.1413391}, {"type": "node", "id": 3136643025, "lat": -33.9450447, "lon": 151.1414574}, {"type": "node", "id": 3147000543, "lat": -33.80377, "lon": 151.0060715, "tags": {"addr:city": "Parramatta", "addr:housenumber": "486", "addr:postcode": "2150", "addr:street": "Church Street", "amenity": "restaurant", "cuisine": "italian", "name": "Bertani", "source": "survey", "website": "http://www.bertani.com.au/"}}, {"type": "node", "id": 3147054965, "lat": -33.8709611, "lon": 151.2076591, "tags": {"amenity": "restaurant", "name": "Gowings Bar & Grill", "source": "survey", "source:location": "extrapolation"}}, {"type": "node", "id": 3147131043, "lat": -33.8045856, "lon": 151.0125037, "tags": {"addr:housenumber": "49", "addr:postcode": "2151", "addr:street": "Albert Street", "addr:suburb": "North Parramatta", "amenity": "restaurant", "cuisine": "chinese", "name": "Canton House", "phone": "+61296308668", "source": "knowledge", "wheelchair": "limited"}}, {"type": "node", "id": 3148275154, "lat": -33.8007674, "lon": 151.0042339, "tags": {"addr:housenumber": "517", "addr:postcode": "2151", "addr:street": "Church Street", "addr:suburb": "North Parramatta", "amenity": "restaurant", "cuisine": "indian", "name": "Standard Indian Restaurant", "phone": "+61296300319", "source": "knowledge", "toilets:wheelchair": "no", "wheelchair": "limited"}}, {"type": "node", "id": 3157395370, "lat": -34.0161831, "lon": 151.0666162, "tags": {"addr:city": "Jannali", "addr:housenumber": "1/523", "addr:postcode": "2226", "addr:street": "Box Road", "amenity": "restaurant", "cuisine": "indian", "name": "Moksha", "website": "http://moksha.com.au/"}}, {"type": "node", "id": 3189818296, "lat": -33.9913572, "lon": 151.0421879, "tags": {"addr:city": "Lugarno", "addr:housenumber": "1220", "addr:postcode": "2210", "addr:street": "Forest Road", "amenity": "restaurant", "cuisine": "seafood", "name": "Lugarno Seafood Restaurant", "opening_hours": "Mo-Su 12:00-00:00", "phone": "+61 2 9534 5136", "source": "survey", "website": "http://lugarnoseafood.com/"}},