{"version": 0.6, "generator": "Overpass API 0.7.60 f4c14d41", "osm3s": {"timestamp_osm_base": "2023-05-02T21:19:24Z", "copyright": "The data included in this document is from www.openstreetmap.org. The data is made available under ODbL."}, "elements": [{"type": "node", "id": 2277542657, "lat": 41.0191956, "lon": 28.6530734, "tags": {"addr:housename": "Karden Avenue Residence", "name": "Etik \u015eark\u00fcteri&Tekel", "shop": "alcohol"}}, {"type": "node", "id": 2277547610, "lat": 41.0188337, "lon": 28.6484007, "tags": {"name": "Ula\u015f Tekel \u015eark\u00fcteri", "shop": "alcohol"}}, {"type": "node", "id": 2277548310, "lat": 41.0185527, "lon": 28.6477996, "tags": {"name": "EFE-1", "shop": "alcohol"}}, {"type": "node", "id": 2282156394, "lat": 40.9998493, "lon": 28.6260934, "tags": {"name": "Tomba\u015f", "shop": "alcohol"}}, {"type": "node", "id": 2282193824, "lat": 41.0115227, "lon": 28.6551578, "tags": {"name": "Fidan Kuruyemi\u015f Tekel", "shop": "alcohol"}}, {"type": "node", "id": 4129048093, "lat": 41.0055612, "lon": 28.9581035, "tags": {"name": "Bakkal", "shop": "alcohol"}}, {"type": "node", "id": 4706163193, "lat": 40.961276, "lon": 28.8244055, "tags": {"addr:housenumber": "14", "addr:postcode": "34149", "addr:street": "Istasyon Caddesi", "name": "BuanoSera (Faik\u015eark\u00fcteri)", "shop": "alcohol"}}, {"type": "node", "id": 5667657741, "lat": 40.9875865, "lon": 28.8954963, "tags": {"addr:city": "Istanbul", "addr:district": "Zeytinburnu", "addr:street": "Merv Caddesi", "name": "E\u015fil Tekel Shop", "name:ar": "\u0625\u0634\u064a\u0644 \u062a\u064a\u0643\u0644 \u0634\u0648\u0628", "shop": "alcohol"}}, {"type": "node", "id": 5667658475, "lat": 40.9935099, "lon": 28.8967044, "tags": {"addr:city": "Istanbul", "addr:district": "Zeytinburnu", "addr:street": "74. Sokak", "name": "berna tekel \u015fak\u00fcteri", "name:ar": "\u0628\u064a\u0631\u0646\u0627 \u062a\u064a\u0643\u064a\u0644", "shop": "alcohol"}}, {"type": "node", "id": 5667660241, "lat": 40.9873546, "lon": 28.8972731, "tags": {"addr:city": "Istanbul", "addr:district": "Zeytinburnu", "addr:street": "Merv Caddesi", "name": "y\u0131lmaz tekel", "name:ar": "\u064a\u0644\u0645\u0627\u0632 \u062a\u064a\u0643\u064a\u0644", "shop": "alcohol"}}, {"type": "node", "id": 5667661419, "lat": 40.9855456, "lon": 28.9003205, "tags": {"addr:city": "Istanbul", "addr:district": "Zeytinburnu", "addr:street": "14. Sokak", "cuisine": "turkish", "name": "Seni Seviyorum Tekel", "name:ar": "\u0643\u062d\u0648\u0644 \u0623\u062d\u0628\u0643", "shop": "alcohol"}}, {"type": "node", "id": 5667673329, "lat": 41.0498248, "lon": 28.8588111, "tags": {"addr:city": "Istanbul", "addr:district": "Ba\u011fc\u0131lar", "addr:street": "Osmangazi Cadesi", "name": "Kaplan Tekel Bayii", "shop": "alcohol"}}, {"type": "node", "id": 5667686414, "lat": 41.0308309, "lon": 28.8299891, "tags": {"addr:city": "Istanbul", "addr:district": "Ba\u011fc\u0131lar", "addr:street": "Cumhuriyet Caddesi", "cuisine": "turkish", "name": "Ay Tekel Tobacco", "name:ar": "\u0643\u062d\u0648\u0644 \u0648\u062a\u0628\u063a \u0622\u064a", "shop": "alcohol"}}, {"type": "node", "id": 5667727248, "lat": 41.0415755, "lon": 28.8551446, "tags": {"addr:city": "Istanbul", "addr:street": "Fatih Caddesi", "name": "DO\u011eUKAN 3 TEKEL BAY\u0130", "phone": "05309263768", "shop": "alcohol"}}, {"type": "node", "id": 6535481385, "lat": 41.0140554, "lon": 28.8730631, "tags": {"name": "Kuruyemi\u015f&Tekel", "shop": "alcohol"}}, {"type": "node", "id": 6610722185, "lat": 40.9792449, "lon": 28.8833122, "tags": {"name": "\u015eahin Tekel", "name:en": "Sahin Tekel", "opening_hours": "Mo-Su 09:00-02:00", "shop": "alcohol"}}, {"type": "node", "id": 6685246885, "lat": 40.9818454, "lon": 28.8843837, "tags": {"shop": "alcohol"}}, {"type": "node", "id": 10414401133, "lat": 41.0030126, "lon": 28.6947532, "tags": {"addr:city": "\u0130stanbul", "addr:district": "Esenyurt", "addr:housenumber": "7/A", "addr:neighbourhood": "Turgut \u00d6zal Mahallesi", "addr:street": "64. Sokak", "name": "Karakulak Tekel Bayi", "shop": "alcohol"}}, {"type": "node", "id": 10537945344, "lat": 41.0011823, "lon": 28.6971542, "tags": {"addr:city": "\u0130stanbul", "addr:district": "Esenyurt", "addr:housenumber": "38C", "addr:neighbourhood": "Turgut \u00d6zal Mahallesi", "addr:street": "55. Sokak", "name": "Etiler B\u00fcfe", "shop": "alcohol"}}]}