{"version": 0.6, "generator": "Overpass API 0.7.60 f4c14d41", "osm3s": {"timestamp_osm_base": "2023-05-02T21:17:24Z", "copyright": "The data included in this document is from www.openstreetmap.org. The data is made available under ODbL."}, "elements": [{"type": "node", "id": 277139848, "lat": 41.0122714, "lon": 28.9551177, "tags": {"amenity": "restaurant", "created_by": "JOSM", "name": "Pizzeria", "name:ar": "\u0628\u064a\u0632\u0627\u0631\u064a\u0627", "wheelchair": "limited"}}, {"type": "node", "id": 909613346, "lat": 41.0130839, "lon": 28.9325437}, {"type": "node", "id": 909613347, "lat": 41.0130458, "lon": 28.9326251}, {"type": "node", "id": 909613349, "lat": 41.0131221, "lon": 28.9326942}, {"type": "node", "id": 909613351, "lat": 41.0131606, "lon": 28.9326135}, {"type": "node", "id": 911831996, "lat": 41.016039, "lon": 28.9299858, "tags": {"amenity": "restaurant"}}, {"type": "node", "id": 913571125, "lat": 41.0132362, "lon": 28.932247, "tags": {"addr:street": "Ba\u015fvekil Caddesi", "amenity": "restaurant", "name": "Marmara 3 D\u00f6ner&Kumru", "name:ar": "\u0645\u0637\u0639\u0645 \u0645\u0631\u0645\u0631\u0627 \u0627\u0648\u062a\u0634 \u0644\u0644\u0634\u0627\u0648\u0631\u0645\u0627"}}, {"type": "node", "id": 974678738, "lat": 41.0265461, "lon": 28.9580915, "tags": {"amenity": "restaurant", "name": "Le Ca\u00efque", "name:ar": "\u0643\u0627\u064a\u0643"}}, {"type": "node", "id": 974678786, "lat": 41.0266817, "lon": 28.9577591, "tags": {"amenity": "restaurant", "name": "Cibali", "name:ar": "\u062c\u064a\u0628\u0627\u0644\u064a"}}, {"type": "node", "id": 1027243649, "lat": 40.9587373, "lon": 28.8388209}, {"type": "node", "id": 1148604452, "lat": 40.9821806, "lon": 28.8909388, "tags": {"amenity": "restaurant", "cuisine": "turkish", "name": "Gelik", "name:ar": "\u0645\u0637\u0639\u0645 \u062c\u064a\u0644\u064a\u0643"}}, {"type": "node", "id": 1262447427, "lat": 41.0133469, "lon": 28.9610686}, {"type": "node", "id": 1262447452, "lat": 41.0133108, "lon": 28.9611282}, {"type": "node", "id": 1380962607, "lat": 40.9587572, "lon": 28.8391123}, {"type": "node", "id": 1380962642, "lat": 40.95846, "lon": 28.8391631}, {"type": "node", "id": 1380962647, "lat": 40.9584457, "lon": 28.8388611}, {"type": "node", "id": 1380962663, "lat": 40.9586557, "lon": 28.8389158, "tags": {"amenity": "restaurant"}}, {"type": "node", "id": 1581477111, "lat": 41.0296084, "lon": 28.8136185}, {"type": "node", "id": 1586627847, "lat": 40.9833314, "lon": 28.7313017, "tags": {"amenity": "restaurant", "cuisine": "regional", "name": "Azc\u0131", "name:ar": "\u0645\u0637\u0639\u0645 \u0627\u0632\u062c\u064a"}}, {"type": "node", "id": 1695088666, "lat": 40.9987829, "lon": 28.6983069, "tags": {"amenity": "restaurant", "name": "Koska"}}, {"type": "node", "id": 1741174687, "lat": 40.9739968, "lon": 28.87392, "tags": {"amenity": "restaurant", "name": "Gelik ET Atak\u00f6y Istanbul", "opening_hours": "Mo-Su 12:00-00:00", "website": "http://www.gelik.com.tr/EN/index.html"}}, {"type": "node", "id": 1785651799, "lat": 40.9789941, "lon": 28.8505814, "tags": {"amenity": "restaurant", "name": "Midpoint"}}, {"type": "node", "id": 1874213314, "lat": 40.9908575, "lon": 28.7142371, "tags": {"amenity": "restaurant", "name": "WestMix", "website": "http://www.westmix.com.tr/"}}, {"type": "node", "id": 1934747999, "lat": 40.978235, "lon": 28.8510293, "tags": {"addr:housename": "Atak\u00f6yplus AVM", "amenity": "restaurant", "cuisine": "international", "name": "Big Chef's"}}, {"type": "node", "id": 1935272831, "lat": 40.9773026, "lon": 28.8721529, "tags": {"amenity": "restaurant", "cuisine": "international", "name": "Midpoint"}}, {"type": "node", "id": 2277119144, "lat": 41.016631, "lon": 28.6442828, "tags": {"amenity": "restaurant", "name": "Hazal Esen Bah\u00e7e "}}, {"type": "node", "id": 2277552851, "lat": 41.0159842, "lon": 28.6493692, "tags": {"amenity": "restaurant", "name": "Saraykap\u0131 Sac Tava"}}, {"type": "node", "id": 2278243036, "lat": 41.0187063, "lon": 28.6882801, "tags": {"amenity": "restaurant"}}, {"type": "node", "id": 2278243047, "lat": 41.0172452, "lon": 28.6886771, "tags": {"amenity": "restaurant"}}, {"type": "node", "id": 2281078172, "lat": 41.0150135, "lon": 28.6734058, "tags": {"amenity": "restaurant", "name": "\u00c7iftlik Restoran"}}, {"type": "node", "id": 2282170634, "lat": 41.0173334, "lon": 28.6273188, "tags": {"amenity": "restaurant", "name": "Konya Oval\u0131 Mutfa\u011f\u0131"}}, {"type": "node", "id": 2282192676, "lat": 41.0158072, "lon": 28.6483156, "tags": {"amenity": "restaurant", "name": "Hac\u0131 Sayid Baklava Pasta Restaurant"}}, {"type": "node", "id": 2282194146, "lat": 41.0101384, "lon": 28.6586876, "tags": {"amenity": "restaurant", "name": "K\u00f6fteci Ramiz"}}, {"type": "node", "id": 2282194184, "lat": 41.0097536, "lon": 28.6585645, "tags": {"amenity": "restaurant", "name": "HD \u0130skender"}}, {"type": "node", "id": 2282194268, "lat": 41.0101384, "lon": 28.6586447, "tags": {"amenity": "restaurant", "name": "Edirne K\u0131rkp\u0131nar Lokantas\u0131"}}, {"type": "node", "id": 2282200937, "lat": 41.007761, "lon": 28.6607074, "tags": {"amenity": "restaurant", "name": "K\u00f6\u015feba\u015f\u0131"}}, {"type": "node", "id": 2282205441, "lat": 41.0190138, "lon": 28.646824, "tags": {"amenity": "restaurant", "name": "Osmanl\u0131 Kebap"}}, {"type": "node", "id": 2355250373, "lat": 41.0133231, "lon": 28.9610432}, {"type": "node", "id": 2355250374, "lat": 41.0132893, "lon": 28.9611067}, {"type": "node", "id": 2460942679, "lat": 41.0117796, "lon": 28.9493245, "tags": {"amenity": "restaurant", "cuisine": "turkish", "name": "Cigeristan", "name:ar": "\u062c\u064a\u0643\u064a\u0631\u0633\u062a\u0627\u0646"}}, {"type": "node", "id": 2482903872, "lat": 40.9885309, "lon": 28.7160837, "tags": {"amenity": "restaurant", "cuisine": "regional", "name": "Mola Ev Yemekleri"}}, {"type": "node", "id": 2661346357, "lat": 41.0203381, "lon": 28.6554054, "tags": {"amenity": "restaurant", "name": "Yaprak Tantuni"}}, {"type": "node", "id": 2661348752, "lat": 41.0042046, "lon": 28.6360964}, {"type": "node", "id": 2661350455, "lat": 41.0200357, "lon": 28.653419, "tags": {"amenity": "restaurant", "name": "K\u00f6z Kebap"}}, {"type": "node", "id": 2661389120, "lat": 41.0169172, "lon": 28.6530351, "tags": {"amenity": "restaurant", "name": "Adanal\u0131"}}, {"type": "node", "id": 2810573607, "lat": 40.9736694, "lon": 28.7938494}, {"type": "node", "id": 2810573608, "lat": 40.9730646, "lon": 28.7937877}, {"type": "node", "id": 2810573609, "lat": 40.9729715, "lon": 28.7939849}, {"type": "node", "id": 2810573610, "lat": 40.9736043, "lon": 28.7940712}, {"type": "node", "id": 2810573611, "lat": 40.9736322, "lon": 28.7939479}, {"type": "node", "id": 2852315045, "lat": 40.9741934, "lon": 28.6553041}, {"type": "node", "id": 2852315046, "lat": 40.9742065, "lon": 28.6554402}, {"type": "node", "id": 2852315047, "lat": 40.9742477, "lon": 28.6548142}, {"type": "node", "id": 2852315050, "lat": 40.9742701, "lon": 28.6549774}, {"type": "node", "id": 2852315058, "lat": 40.9743836, "lon": 28.6547814}, {"type": "node", "id": 2852315061, "lat": 40.9744061, "lon": 28.6549447}, {"type": "node", "id": 2852315063, "lat": 40.9744471, "lon": 28.6552614}, {"type": "node", "id": 2852315064, "lat": 40.9744602, "lon": 28.6553974}, {"type": "node", "id": 2894123844, "lat": 41.0080079, "lon": 28.9493367, "tags": {"amenity": "restaurant", "cuisine": "georgian", "name": "Giorgi", "name:ar": "\u0645\u0637\u0639\u0645 \u062c\u0648\u0631\u062c\u064a"}}, {"type": "node", "id": 2904303803, "lat": 41.005454, "lon": 28.655191, "tags": {"amenity": "restaurant", "brand": "Can-u Can", "cuisine": "turkish", "delivery": "yes", "internet_access": "wlan", "name": "Can-u Can", "outdoor_seating": "no", "phone": "02128010202", "smoking": "separated", "website": "www.canucankofte.com.tr"}}, {"type": "node", "id": 2969581337, "lat": 41.0262341, "lon": 28.9197024, "tags": {"amenity": "restaurant", "name": "Labella Premium Topkap\u0131"}}, {"type": "node", "id": 3107427533, "lat": 41.0468308, "lon": 28.9333407, "tags": {"amenity": "restaurant", "cuisine": "turkish", "name": "Ensar Tatlicisi"}}, {"type": "node", "id": 3127704555, "lat": 41.0151423, "lon": 28.8770633, "tags": {"amenity": "restaurant", "cuisine": "turkish", "name": "\u0130skenderun Kral D\u00fcr\u00fcm"}}, {"type": "node", "id": 3127704557, "lat": 41.0142336, "lon": 28.8779082, "tags": {"amenity": "restaurant", "cuisine": "turkish", "name": "G\u00fcm\u00fc\u015f Kanat"}}, {"type": "node", "id": 3127745598, "lat": 41.0062024, "lon": 28.8708781, "tags": {"amenity": "restaurant", "cuisine": "turkish", "name": "Pa\u015fa D\u00f6ner"}}, {"type": "node", "id": 3128904661, "lat": 41.0162574, "lon": 28.8774804, "tags": {"amenity": "restaurant", "cuisine": "turkish", "name": "Kale Restaurant"}}, {"type": "node", "id": 3132626162, "lat": 41.0011725, "lon": 28.88172, "tags": {"amenity": "restaurant", "cuisine": "turkish", "name": "D\u00fcr\u00fcm Durak", "outdoor_seating": "yes"}}, {"type": "node", "id": 3132679959, "lat": 41.0089447, "lon": 28.8865534, "tags": {"amenity": "restaurant", "cuisine": "turkish", "name": "G\u00fcven\u00e7 Konyal\u0131", "name:tr": "G\u00fcven\u00e7 Konyal\u0131 \u0445\u0430\u043a\u0430\u043d \u0432\u0441\u0442\u0440\u0435\u0447\u0430"}}, {"type": "node", "id": 3156382134, "lat": 41.0438965, "lon": 28.9467582}, {"type": "node", "id": 3156382135, "lat": 41.0437347, "lon": 28.9470747}, {"type": "node", "id": 3156382136, "lat": 41.0436214, "lon": 28.9469353}, {"type": "node", "id": 3156382137, "lat": 41.0437711, "lon": 28.9466241}, {"type": "node", "id": 3191142998, "lat": 41.0029232, "lon": 28.8656006, "tags": {"amenity": "restaurant", "name": "N10 Rest."}}, {"type": "node", "id": 3191146856, "lat": 40.9961097, "lon": 28.8635196, "tags": {"amenity": "restaurant"}}, {"type": "node", "id": 3227831354, "lat": 41.0364161, "lon": 28.779005}, {"type": "node", "id": 3227831355, "lat": 41.0363706, "lon": 28.7789594}, {"type": "node", "id": 3227831356, "lat": 41.0363251, "lon": 28.7789152}, {"type": "node", "id": 3227831357, "lat": 41.0363038, "lon": 28.7789058}, {"type": "node", "id": 3227831358, "lat": 41.0362796, "lon": 28.7789098}, {"type": "node", "id": 3227831359, "lat": 41.0362654, "lon": 28.7789246}, {"type": "node", "id": 3227831360, "lat": 41.0362441, "lon": 28.7789031}, {"type": "node", "id": 3227836761, "lat": 41.0361663, "lon": 28.7789822}, {"type": "node", "id": 3227836762, "lat": 41.036229, "lon": 28.7790855}, {"type": "node", "id": 3227836763, "lat": 41.0362502, "lon": 28.7790614}, {"type": "node", "id": 3227836764, "lat": 41.0362785, "lon": 28.7790842}, {"type": "node", "id": 3227836765, "lat": 41.0362907, "lon": 28.7790868}, {"type": "node", "id": 3227836766, "lat": 41.036317, "lon": 28.7790788}, {"type": "node", "id": 3227836767, "lat": 41.0363615, "lon": 28.7790547}, {"type": "node", "id": 3227836768, "lat": 41.0364151, "lon": 28.7790184}, {"type": "node", "id": 3460024716, "lat": 41.0098845, "lon": 28.9096582, "tags": {"amenity": "restaurant", "cuisine": "indonesian", "name": "Warung Nusantara"}}, {"type": "node", "id": 3492012960, "lat": 41.0000785, "lon": 28.7654307}, {"type": "node", "id": 3492012961, "lat": 40.9999828, "lon": 28.7654794}, {"type": "node", "id": 3495208215, "lat": 40.9999799, "lon": 28.765092}, {"type": "node", "id": 3495208216, "lat": 40.9999654, "lon": 28.7650422}, {"type": "node", "id": 3495208217, "lat": 40.9998345, "lon": 28.7651088}, {"type": "node", "id": 3495208218, "lat": 40.9998555, "lon": 28.7651791}, {"type": "node", "id": 3495208219, "lat": 40.9998079, "lon": 28.7652037}, {"type": "node", "id": 3495208220, "lat": 40.9998794, "lon": 28.7654493}, {"type": "node", "id": 3495208221, "lat": 40.999927, "lon": 28.7654247}, {"type": "node", "id": 3495208222, "lat": 40.9999479, "lon": 28.7654972}, {"type": "node", "id": 3498778647, "lat": 41.0125833, "lon": 28.9581656, "tags": {"amenity": "restaurant", "name": "G\u00fcler Restaurant", "wheelchair": "limited"}}, {"type": "node", "id": 3499035497, "lat": 41.0107701, "lon": 28.9453702}, {"type": "node", "id": 3499035498, "lat": 41.0107428, "lon": 28.9453608}, {"type": "node", "id": 3499035499, "lat": 41.0106973, "lon": 28.9455231}, {"type": "node", "id": 3499035500, "lat": 41.0107205, "lon": 28.9455325}, {"type": "node", "id": 3499035501, "lat": 41.0107327, "lon": 28.9454856}, {"type": "node", "id": 3499066057, "lat": 41.0120178, "lon": 28.9406465, "tags": {"amenity": "restaurant", "description": "Simit Salonu", "wheelchair": "yes"}}, {"type": "node", "id": 3499094105, "lat": 41.0222804, "lon": 28.9451092, "tags": {"amenity": "restaurant", "name": "Pa\u015fa D\u00f6ner", "wheelchair": "limited"}}, {"type": "node", "id": 3499232972, "lat": 41.0097279, "lon": 28.9549239, "tags": {"amenity": "restaurant", "name": "Sorriso Restaurant", "wheelchair": "limited"}}, {"type": "node", "id": 3499249055, "lat": 41.0154891, "lon": 28.9417592, "tags": {"addr:city": "Istanbul", "addr:district": "Fatih", "amenity": "restaurant", "name": "Son Osmanli Restaurant", "wheelchair": "limited"}}, {"type": "node", "id": 3499265415, "lat": 41.0152427, "lon": 28.9432847, "tags": {"amenity": "restaurant", "name": "Kebap\u00e7\u0131 Mahmut Restaurant", "wheelchair": "limited"}}, {"type": "node", "id": 3625630699, "lat": 40.9582467, "lon": 28.822703, "tags": {"amenity": "restaurant", "cuisine": "regional", "name": "Figaro's"}}, {"type": "node", "id": 3625630700, "lat": 40.9574417, "lon": 28.8311334, "tags": {"amenity": "restaurant", "cuisine": "mexican", "name": "Salve", "name:en": "Salve", "name:tr": "Salve"}}, {"type": "node", "id": 3658729750, "lat": 41.0139081, "lon": 28.945783, "tags": {"amenity": "restaurant", "name": "Akdeniz Hatay Sofrasi", "phone": "+902125313333", "wheelchair": "yes"}}, {"type": "node", "id": 3664765895, "lat": 40.9594698, "lon": 28.8211701, "tags": {"amenity": "restaurant", "cuisine": "turkish", "name": "D\u00fcr\u00fcmc\u00fc Baba", "smoking": "outside"}}, {"type": "node", "id": 3709002233, "lat": 40.9934231, "lon": 28.8387815, "tags": {"amenity": "restaurant", "name": "\u00d6z Suru\u00e7"}}, {"type": "node", "id": 3766105836, "lat": 41.0165996, "lon": 28.9546087}, {"type": "node", "id": 3766105837, "lat": 41.0166649, "lon": 28.9546735}, {"type": "node", "id": 3766105838, "lat": 41.0165997, "lon": 28.9547891}, {"type": "node", "id": 3766105839, "lat": 41.0165344, "lon": 28.9547244}, {"type": "node", "id": 3785353694, "lat": 41.0311566, "lon": 28.9362795, "tags": {"amenity": "restaurant", "name": "Sur Cafe", "outdoor_seating": "yes"}}, {"type": "node", "id": 3820674190, "lat": 41.0152843, "lon": 28.8964654, "tags": {"amenity": "restaurant", "name": "Lezzet Lokantas\u0131"}}, {"type": "node", "id": 3820674192, "lat": 41.0152175, "lon": 28.8964872, "tags": {"amenity": "restaurant", "name": "Tihame K\u00f6fte"}}, {"type": "node", "id": 3921034348, "lat": 40.9937037, "lon": 28.9112397, "tags": {"addr:housenumber": "4", "amenity": "restaurant", "name": "Kehribar", "source": "survey"}}, {"type": "node", "id": 3968165719, "lat": 40.9574195, "lon": 28.823667}, {"type": "node", "id": 3968165721, "lat": 40.9574681, "lon": 28.823832}, {"type": "node", "id": 3968165723, "lat": 40.9576156, "lon": 28.8235723}, {"type": "node", "id": 3968165725, "lat": 40.9576587, "lon": 28.8237373}, {"type": "node", "id": 3968165742, "lat": 40.9604346, "lon": 28.8390294, "tags": {"amenity": "restaurant", "name": "Balkon"}}, {"type": "node", "id": 4104860751, "lat": 40.9939598, "lon": 28.8702279, "tags": {"addr:city": "Bak\u0131rk\u00f6y/\u0130stanbul", "amenity": "restaurant", "name": "Kanat\u00e7\u0131 Birtat"}}, {"type": "node", "id": 4114125893, "lat": 40.9644374, "lon": 28.8374124, "tags": {"amenity": "restaurant", "name": "\u00d6z Konyali"}}, {"type": "node", "id": 4124679394, "lat": 41.0318262, "lon": 28.9489058, "tags": {"amenity": "restaurant", "name": "F\u0131nd\u0131k Kabu\u011fu Restoran"}}, {"type": "node", "id": 4145039606, "lat": 41.0335372, "lon": 28.946766, "tags": {"addr:city": "Fatih/\u0130stanbul", "addr:housenumber": "185", "addr:street": "M\u00fcrselpa\u015fa Cad.", "amenity": "restaurant", "cuisine": "regional", "name": "AGORA Meyhanesi 1890", "opening_hours": "12:00-01:00"}}, {"type": "node", "id": 4225464289, "lat": 41.0217289, "lon": 28.9445588, "tags": {"addr:street": "Bedrettin Simavi Sokak", "amenity": "restaurant", "name": "\u00d6zkilisli Lahmacun ve Kebap"}}, {"type": "node", "id": 4225492003, "lat": 41.0176623, "lon": 28.9504926, "tags": {"addr:street": "Aslanhane Sokak", "amenity": "restaurant", "name": "Fatih Sarmac\u0131s\u0131"}}, {"type": "node", "id": 4327986939, "lat": 41.0066531, "lon": 28.5402604, "tags": {"amenity": "restaurant", "cuisine": "kebab", "name": "Kebap\u00e7\u0131 \u00c7etin Usta"}}, {"type": "node", "id": 4330900705, "lat": 40.9933284, "lon": 28.8461371, "tags": {"addr:street": "Mare\u015fal Fevzi \u00c7akmak 3. Sk.", "amenity": "restaurant", "cuisine": "turkish", "name": "Mersin Tantuni"}}, {"type": "node", "id": 4335689789, "lat": 40.9825547, "lon": 28.7725571, "tags": {"amenity": "restaurant", "name": "Sohbet Aile \u00c7ay Bah\u00e7esi", "wheelchair": "limited"}}, {"type": "node", "id": 4349017704, "lat": 40.9642986, "lon": 28.8032579, "tags": {"amenity": "restaurant", "cuisine": "turkish", "internet_access": "wlan", "name": "K\u00f6ro\u011flu Pide", "start_date": "1966"}}, {"type": "node", "id": 4388879694, "lat": 40.9855868, "lon": 28.900412, "tags": {"addr:housenumber": "45a", "addr:street": "14 sk.", "amenity": "restaurant", "name:fr": "Darussalam Uygur Yemeklari"}}, {"type": "node", "id": 4390558697, "lat": 41.02591, "lon": 28.871231, "tags": {"amenity": "restaurant", "name": "Kebap\u00e7\u0131 \u00c7etin Usta", "name:tr": "Kebap\u00e7\u0131 \u00c7etin Usta"}}, {"type": "node", "id": 4392514591, "lat": 41.0158805, "lon": 28.876395, "tags": {"amenity": "restaurant", "name": "Hac\u0131beyim Kebap", "name:tr": "Hac\u0131beyim Kebap"}}, {"type": "node", "id": 4396015789, "lat": 40.9880822, "lon": 28.9048391, "tags": {"amenity": "restaurant", "name:en": "vatan restoran"}}, {"type": "node", "id": 4419254703, "lat": 41.0310384, "lon": 28.9394422, "tags": {"amenity": "restaurant", "name": "Fatih Belediyesi"}}, {"type": "node", "id": 4430465092, "lat": 41.0056308, "lon": 28.8593655, "tags": {"amenity": "restaurant", "name": "Helvac\u0131zade", "name:tr": "Helvac\u0131zade"}}, {"type": "node", "id": 4471394798, "lat": 41.0149281, "lon": 28.9570375, "tags": {"amenity": "restaurant", "name": "Kasap Osman"}}, {"type": "node", "id": 4494301077, "lat": 40.9776541, "lon": 28.8822207, "tags": {"amenity": "restaurant", "cuisine": "turkish", "name": "Efendim Fas\u0131l Rest.", "smoking": "isolated", "takeaway": "no"}}, {"type": "node", "id": 4509066090, "lat": 41.0196378, "lon": 28.9578938, "tags": {"amenity": "restaurant", "name:en": "Zeyrek Hane Restaurant"}}, {"type": "node", "id": 4514250191, "lat": 40.9623988, "lon": 28.8071983, "tags": {"amenity": "restaurant", "cuisine": "turkish", "name": "Develi Restaurant"}}, {"type": "node", "id": 4514352789, "lat": 41.0283763, "lon": 28.9571103, "tags": {"amenity": "restaurant", "name:en": "IBB Halic Sosyal Tesisleri"}}, {"type": "node", "id": 4518393589, "lat": 40.9746684, "lon": 28.8689403, "tags": {"amenity": "restaurant", "internet_access": "wlan", "name:en": "Cook Shop", "opening_hours": "Mo-Su 09:00-02:00", "website": "http://www.cookshop.com.tr/en"}}, {"type": "node", "id": 4545544999, "lat": 41.0079815, "lon": 28.5368164, "tags": {"amenity": "restaurant", "cuisine": "pizza", "name": "Domino Pizza"}}, {"type": "node", "id": 4545545046, "lat": 41.0080981, "lon": 28.5366011, "tags": {"amenity": "restaurant", "cuisine": "fish_and_chips", "name": "Duru Bal\u0131k"}}, {"type": "node", "id": 4545562074, "lat": 41.0077309, "lon": 28.5390591, "tags": {"amenity": "restaurant", "name": "An\u0131l Cafe B\u00f6rek"}}, {"type": "node", "id": 4545583420, "lat": 41.0089981, "lon": 28.5360142, "tags": {"amenity": "restaurant", "name": "Kokore\u00e7ci \u015e\u00fckr\u00fc Usta"}}, {"type": "node", "id": 4545596212, "lat": 41.0069254, "lon": 28.5385183, "tags": {"amenity": "restaurant", "cuisine": "turkish", "name": "Hac\u0131 Sayid Restaurant"}}, {"type": "node", "id": 4545597924, "lat": 41.0071976, "lon": 28.5379934, "tags": {"amenity": "restaurant", "cuisine": "kebab", "name": "Aska D\u00f6ner"}}, {"type": "node", "id": 4545610830, "lat": 41.0084078, "lon": 28.540004, "tags": {"amenity": "restaurant", "name": "Erciyes Anadolu Sofras\u0131"}}, {"type": "node", "id": 4545633327, "lat": 41.0073416, "lon": 28.5378952, "tags": {"amenity": "restaurant", "name": "Atmacalar Unlu Mam\u00fcller"}}, {"type": "node", "id": 4545743002, "lat": 41.0187123, "lon": 28.9480945, "tags": {"amenity": "restaurant", "name:ar": "\u0645\u0637\u0639\u0645 \u062e\u0627\u0646 \u0627\u0644\u0648\u0632\u064a\u0631 \u0645\u0646\u0637\u0642\u0629 \u0627\u0644\u0641\u0627\u062a\u062d"}}, {"type": "node", "id": 4557132274, "lat": 41.0076449, "lon": 28.5380787, "tags": {"amenity": "restaurant", "cuisine": "kebab", "name": "Tosuno\u011flu Kebab"}}, {"type": "node", "id": 4557189677, "lat": 41.0085347, "lon": 28.5366702, "tags": {"amenity": "restaurant", "cuisine": "kebab", "name": "Bursa Kebab Evi"}}, {"type": "node", "id": 4557189681, "lat": 41.008054, "lon": 28.536689, "tags": {"amenity": "restaurant", "cuisine": "kebab", "name": "Adress D\u00f6ner & Kumpir"}}, {"type": "node", "id": 4557318093, "lat": 41.0094991, "lon": 28.535883, "tags": {"amenity": "restaurant", "name": "\u015eampiyon Kokore\u00e7"}}, {"type": "node", "id": 4557318096, "lat": 41.0093291, "lon": 28.5359178, "tags": {"amenity": "restaurant", "name": "Tatl\u0131ses \u00c7i\u011f K\u00f6fte"}}, {"type": "node", "id": 4557318099, "lat": 41.0092077, "lon": 28.5359742, "tags": {"amenity": "restaurant", "name": "Alio\u011flu Bursa \u0130skender"}}, {"type": "node", "id": 4557318100, "lat": 41.0091368, "lon": 28.5359849, "tags": {"amenity": "restaurant", "name": "\u00c7i\u011f K\u00f6ftem"}}, {"type": "node", "id": 4557318104, "lat": 41.0094612, "lon": 28.5362712, "tags": {"amenity": "restaurant", "name": "A\u015fiyan \u0130\u015fkembe"}}, {"type": "node", "id": 4557330419, "lat": 41.0096163, "lon": 28.5362387, "tags": {"amenity": "restaurant", "cuisine": "kebab", "name": "Kebap\u00e7\u0131 \u00c7etin Usta"}}, {"type": "node", "id": 4557855791, "lat": 41.0116243, "lon": 28.9415305, "tags": {"amenity": "restaurant", "name:ar": "\u0645\u0637\u0639\u0645 \u0627\u0644\u064a\u0645\u0646"}}, {"type": "node", "id": 4558663630, "lat": 41.0064186, "lon": 28.5368337, "tags": {"amenity": "restaurant", "cuisine": "chicken", "name": "Oba Mangal"}}, {"type": "node", "id": 4558663632, "lat": 41.0065522, "lon": 28.5370912, "tags": {"amenity": "restaurant", "cuisine": "kebab", "name": "\u00dcnal Kebap Lahmacun"}}, {"type": "node", "id": 4558707685, "lat": 41.0052573, "lon": 28.5345585, "tags": {"amenity": "restaurant", "cuisine": "turkish", "name": "Y\u00f6rem Karadeniz Pidecisi"}}, {"type": "node", "id": 4558716183, "lat": 41.0034801, "lon": 28.5329787, "tags": {"amenity": "restaurant", "cuisine": "kebab", "name": "Gaziantepli \u00d6kke\u015f Usta"}}, {"type": "node", "id": 4564988390, "lat": 40.9859559, "lon": 28.7850478, "tags": {"amenity": "restaurant", "name:ar": "\u0645\u0637\u0639\u0645 Hac\u0131 Zahir  \u0641\u064a \u0641\u0644\u0648\u0631\u064a\u0627", "wheelchair": "limited"}}, {"type": "node", "id": 4564996589, "lat": 40.9860799, "lon": 28.7852218, "tags": {"amenity": "restaurant", "name:ar": "\u0645\u0637\u0639\u0645  Zahir \u0641\u064a \u0641\u0644\u0648\u0631\u064a\u0627", "wheelchair": "limited"}}, {"type": "node", "id": 4565029689, "lat": 40.9711413, "lon": 28.7909615, "tags": {"amenity": "restaurant", "name": "G\u00f6rkem Kilis Sofras\u0131", "name:ar": "\u0645\u0637\u0639\u0645 \u0641\u064a \u0641\u0644\u0648\u0631\u064a\u0627"}}, {"type": "node", "id": 4574402308, "lat": 41.0012045, "lon": 28.5375667}, {"type": "node", "id": 4574402309, "lat": 41.0012481, "lon": 28.537552}, {"type": "node", "id": 4574402310, "lat": 41.0012572, "lon": 28.5375748}, {"type": "node", "id": 4574402311, "lat": 41.0013159, "lon": 28.5375667}, {"type": "node", "id": 4574402312, "lat": 41.0013331, "lon": 28.5375949}, {"type": "node", "id": 4574402313, "lat": 41.0013442, "lon": 28.5375815}, {"type": "node", "id": 4574402314, "lat": 41.0013887, "lon": 28.5376539}, {"type": "node", "id": 4574402315, "lat": 41.0013918, "lon": 28.537737}, {"type": "node", "id": 4574402316, "lat": 41.0013523, "lon": 28.5377907}, {"type": "node", "id": 4574402317, "lat": 41.0013371, "lon": 28.5378068}, {"type": "node", "id": 4574402318, "lat": 41.0013068, "lon": 28.5377625}, {"type": "node", "id": 4574402319, "lat": 41.0012906, "lon": 28.5377773}, {"type": "node", "id": 4574402320, "lat": 41.0012693, "lon": 28.5377853}, {"type": "node", "id": 4574402321, "lat": 41.0012288, "lon": 28.5377826}, {"type": "node", "id": 4574402322, "lat": 41.0012005, "lon": 28.5377451}, {"type": "node", "id": 4574402323, "lat": 41.0011944, "lon": 28.5376834}, {"type": "node", "id": 4574402324, "lat": 41.0012187, "lon": 28.5376539}, {"type": "node", "id": 4574402325, "lat": 41.0011802, "lon": 28.5376029}, {"type": "node", "id": 4594063103, "lat": 40.9989022, "lon": 28.5465686, "tags": {"amenity": "restaurant", "name": "Bat\u0131 Garden Cafe&Restoran", "outdoor_seating": "yes"}}, {"type": "node", "id": 4599578273, "lat": 40.9873229, "lon": 28.8720542, "tags": {"amenity": "restaurant", "name": "Taksim Pide"}}, {"type": "node", "id": 4599578289, "lat": 40.9868541, "lon": 28.8720623, "tags": {"amenity": "restaurant", "name": "Dilek"}}, {"type": "node", "id": 4601423517, "lat": 41.017141, "lon": 28.9546538, "tags": {"amenity": "restaurant", "name": "G\u00fcneydo\u011fu Sofras\u0131"}}, {"type": "node", "id": 4605540417, "lat": 40.9838916, "lon": 28.8727381, "tags": {"addr:city": "Bak\u0131rk\u00f6y/\u0130stanbul", "addr:street": "\u0130ncirli Caddesi", "amenity": "restaurant", "name": "Konak Kebap"}}, {"type": "node", "id": 4605664675, "lat": 40.9882086, "lon": 28.8717746, "tags": {"addr:city": "Bak\u0131rk\u00f6y/\u0130stanbul", "amenity": "restaurant", "name": "K\u0131r\u00e7i\u00e7e\u011fi", "phone": "0212 466 26 52"}}, {"type": "node", "id": 4605664682, "lat": 40.9886705, "lon": 28.8720023, "tags": {"amenity": "restaurant", "name": "D\u00f6nerci"}}, {"type": "node", "id": 4605666198, "lat": 40.9886759, "lon": 28.8727666, "tags": {"amenity": "restaurant", "name": "Bursa \u0130skender"}}, {"type": "node", "id": 4614065046, "lat": 41.0060053, "lon": 28.8809265}, {"type": "node", "id": 4614065047, "lat": 41.0059286, "lon": 28.8809558}, {"type": "node", "id": 4614065048, "lat": 41.0059367, "lon": 28.881099}, {"type": "node", "id": 4614065049, "lat": 41.0059646, "lon": 28.8812207}, {"type": "node", "id": 4614065050, "lat": 41.0060774, "lon": 28.8811853}, {"type": "node", "id": 4634040989, "lat": 40.9785717, "lon": 28.8765102, "tags": {"amenity": "restaurant", "name:ar": "\u0645\u0637\u0639\u0645  abdulkadir"}}, {"type": "node", "id": 4678564590, "lat": 40.9994306, "lon": 28.8811049, "tags": {"amenity": "restaurant", "name:en": "2Hc Cafe & Restaurant"}}, {"type": "node", "id": 4679022807, "lat": 40.9990308, "lon": 28.5971043, "tags": {"amenity": "restaurant", "name:en": "Aruna A La Carte \u0645\u0637\u0639\u0645"}}, {"type": "node", "id": 4687760602, "lat": 41.0101797, "lon": 28.9477375, "tags": {"amenity": "restaurant", "name": "Serggea resturant", "name:ar": "\u0645\u0637\u0639\u0645 \u0633\u064a\u0631\u062c\u064a\u0647"}}, {"type": "node", "id": 4696956441, "lat": 41.0204638, "lon": 28.8270115, "tags": {"amenity": "restaurant", "cuisine": "regional_karadeniz_mutfa\u011f\u0131", "name": "Nalia", "name:tr": "nalia karadeniz mutfa\u011f\u0131"}}, {"type": "node", "id": 4710108149, "lat": 41.030577, "lon": 28.9459723, "tags": {"amenity": "restaurant"}}, {"type": "node", "id": 4828479030, "lat": 41.0432011, "lon": 28.6471142, "tags": {"amenity": "restaurant", "name": "Karadeniz pide", "name:tr": "Karadeniz pide"}}, {"type": "node", "id": 4857453902, "lat": 40.9745811, "lon": 28.8708576, "tags": {"amenity": "restaurant", "contact:website": "http://www.thefoodclantr.com/", "name": "The Food Clan"}}, {"type": "node", "id": 4874812823, "lat": 40.9961844, "lon": 28.9271148, "tags": {"amenity": "restaurant", "name": "\u0130mren", "name:en": "Imren", "opening_hours": "Mo-Su 09:00-21:00"}}, {"type": "node", "id": 4874834121, "lat": 40.9941385, "lon": 28.9226289, "tags": {"amenity": "restaurant", "name": "B\u00fcfe", "name:tr": "B\u00fcfe"}}, {"type": "node", "id": 4874840321, "lat": 40.9950527, "lon": 28.9256562, "tags": {"amenity": "restaurant", "name": "K\u00f6fteci", "name:tr": "K\u00f6fteci"}}, {"type": "node", "id": 4889905040, "lat": 41.0250309, "lon": 28.9501608, "tags": {"amenity": "restaurant", "name": "Sultan Sarni\u00e7 D\u00fcg\u00fcn & Davet Organizasyon", "name:en": "Sultan Sarni\u00e7 D\u00fcg\u00fcn & Davet Organizasyon", "name:tr": "Sultan Sarni\u00e7 D\u00fcg\u00fcn & Davet Organizasyon"}}, {"type": "node", "id": 4902467990, "lat": 41.0296721, "lon": 28.8135981}, {"type": "node", "id": 4902467993, "lat": 41.0298834, "lon": 28.8135333}, {"type": "node", "id": 4911194170, "lat": 41.0447308, "lon": 28.7967081}, {"type": "node", "id": 4911194171, "lat": 41.0446532, "lon": 28.7969123}, {"type": "node", "id": 4911194172, "lat": 41.0448973, "lon": 28.7970752}, {"type": "node", "id": 4911194173, "lat": 41.044923, "lon": 28.7970073}, {"type": "node", "id": 4911194174, "lat": 41.0448937, "lon": 28.7969877}, {"type": "node", "id": 4911194175, "lat": 41.0449091, "lon": 28.7969472}, {"type": "node", "id": 4911194176, "lat": 41.0448626, "lon": 28.7969161}, {"type": "node", "id": 4911194177, "lat": 41.0448989, "lon": 28.7968203}, {"type": "node", "id": 4913542021, "lat": 41.0358608, "lon": 28.7913446, "tags": {"amenity": "restaurant", "cuisine": "turkish;kebab", "delivery": "yes", "name": "Mavi Sofra", "name:tr": "Mavi Sofra", "outdoor_seating": "yes"}}, {"type": "node", "id": 4914653325, "lat": 40.9792571, "lon": 28.8743846, "tags": {"amenity": "restaurant", "name": "Bambi Cafe", "website": "http://www.bambicafe.com.tr"}}, {"type": "node", "id": 4915315522, "lat": 40.9779604, "lon": 28.8733179, "tags": {"amenity": "restaurant", "name": "Ala\u00e7at\u0131 Muhallebicisi", "name:en": "Alacati Muhallebicisi", "phone": "02125420044"}}, {"type": "node", "id": 4916592722, "lat": 40.9833092, "lon": 28.872453, "tags": {"amenity": "restaurant", "name": "\u00d6zs\u00fct"}}, {"type": "node", "id": 4916673222, "lat": 40.9812536, "lon": 28.7938515, "tags": {"amenity": "restaurant", "name": "Konya Mevlana"}}, {"type": "node", "id": 4920675021, "lat": 40.9784248, "lon": 28.8756555, "tags": {"amenity": "restaurant", "name": "Bak\u0131rk\u00f6y \u0130skender", "name:tr": "Bak\u0131rk\u00f6y \u0130skender"}}, {"type": "node", "id": 4927665321, "lat": 40.9766358, "lon": 28.7762561, "tags": {"amenity": "restaurant", "cuisine": "turkish;fish", "name": "Laggos Bal\u0131k Restaurant"}}, {"type": "node", "id": 4943336509, "lat": 41.0001076, "lon": 28.8001764, "tags": {"amenity": "restaurant", "cuisine": "regional", "name": "Hasci\u0121er"}}, {"type": "node", "id": 4943336510, "lat": 41.0001197, "lon": 28.8005787, "tags": {"amenity": "restaurant", "cuisine": "regional", "name": "\u00c7orba kebap"}}, {"type": "node", "id": 4943336512, "lat": 41.0010124, "lon": 28.8056427, "tags": {"amenity": "restaurant", "cuisine": "regional", "name": "Mediva", "outdoor_seating": "yes"}}, {"type": "node", "id": 4943532328, "lat": 40.9745982, "lon": 28.8702489, "tags": {"amenity": "restaurant", "name": "Happy Moon's", "phone": "02125595953"}}, {"type": "node", "id": 4950668933, "lat": 41.0320936, "lon": 28.8148511, "tags": {"addr:neighbourhood": "15 Temmuz Mahallesi", "addr:street": "G\u00fclbahar Caddesi", "amenity": "restaurant", "cuisine": "turkish;sandwich;tea", "name": "\u00c7olako\u011flu Simit", "opening_hours": "Mo-Su 07:00-17:00"}}, {"type": "node", "id": 4952639506, "lat": 41.0458287, "lon": 28.8960636, "tags": {"addr:city": "Istanbul", "addr:district": "Bayampa\u015fa", "addr:housenumber": "No:111", "addr:neighbourhood": "Kocatepe Mahallesi", "addr:postcode": "34045", "addr:street": "\u015eehir Park\u0131 Caddesi", "amenity": "restaurant", "name": "Cookshop", "outdoor_seating": "yes", "website": "http://www.cookshop.com.tr/tr"}}, {"type": "node", "id": 4954042227, "lat": 41.000838, "lon": 28.7990611, "tags": {"amenity": "restaurant", "cuisine": "regional", "name": "Sevinc cay evi", "outdoor_seating": "yes"}}, {"type": "node", "id": 4954042228, "lat": 41.0006981, "lon": 28.7991536, "tags": {"amenity": "restaurant", "cuisine": "regional", "name": "Felinta", "outdoor_seating": "yes"}}, {"type": "node", "id": 4956536927, "lat": 41.0300811, "lon": 28.8131429}, {"type": "node", "id": 4956536928, "lat": 41.0295531, "lon": 28.8133086}, {"type": "node", "id": 4956536929, "lat": 41.0301367, "lon": 28.8134541}, {"type": "node", "id": 4972799921, "lat": 41.0458033, "lon": 28.8967645, "tags": {"amenity": "restaurant", "name": "Midpoint", "name:en": "Midpoint", "name:tr": "Midpoint"}}, {"type": "node", "id": 4974882700, "lat": 40.9735777, "lon": 28.7941884}, {"type": "node", "id": 4986239145, "lat": 41.0021653, "lon": 28.7996789, "tags": {"amenity": "restaurant", "cuisine": "kebab", "name": "Palet Kebap"}}, {"type": "node", "id": 4992588943, "lat": 40.9779355, "lon": 28.8826677, "tags": {"amenity": "restaurant", "name": "\u0130zmir Bal\u0131k\u00e7\u0131s\u0131"}}, {"type": "node", "id": 4999665057, "lat": 41.0298009, "lon": 28.8150557, "tags": {"amenity": "restaurant", "name": "K\u00fcbban Gaziantep Mutfa\u011f\u0131"}}, {"type": "node", "id": 5016287521, "lat": 41.0101744, "lon": 28.9479964, "tags": {"amenity": "restaurant", "name": "2017", "name:en": "\u0645\u0637\u0639\u0645 \u0623\u0646\u0633", "name:tr": "2017"}}, {"type": "node", "id": 5024211326, "lat": 41.007635, "lon": 28.86083, "tags": {"addr:postcode": "34180", "addr:street": "Elvan Sokak", "amenity": "restaurant", "name": "Konya Mevlana", "phone": "02124417559", "website": "http://www.konyamevlana.com.tr"}}, {"type": "node", "id": 5024283521, "lat": 41.0079071, "lon": 28.8588353, "tags": {"addr:postcode": "34183", "addr:street": "Feritselimpa\u015fa Caddesi", "amenity": "restaurant", "cuisine": "turkish", "name": "Tarihi \u0130skender Kebap\u00e7\u0131s\u0131", "opening_hours": "Mo-Su 08:00-23:00", "phone": "02126442624"}}, {"type": "node", "id": 5026474506, "lat": 41.0102485, "lon": 28.9474069, "tags": {"addr:city": "Istanbul", "addr:district": "Fatih", "addr:street": "Muratpa\u015fa Sokak", "amenity": "restaurant", "cuisine": "turkish;kebab", "name": "Ewan Restaurant", "name:ar": "\u0645\u0637\u0639\u0645 \u0648\u0627\u0646", "opening_hours": "08:00-24:00"}}, {"type": "node", "id": 5026474512, "lat": 41.011683, "lon": 28.9472271, "tags": {"addr:city": "Istanbul", "addr:district": "Fatih", "addr:street": "Vatan Caddesi", "amenity": "restaurant", "cuisine": "dessert", "name": "Sallora Restaurant", "name:ar": "\u062d\u0644\u0648\u064a\u0627\u062a \u0633\u0644\u0648\u0631\u0629", "opening_hours": "10:00-22:00"}}, {"type": "node", "id": 5026474515, "lat": 41.013466, "lon": 28.94472, "tags": {"addr:city": "Istanbul", "addr:district": "Fatih", "addr:street": "Vatan Caddesi", "amenity": "restaurant", "cuisine": "turkish;kebab", "name": "Aksaray Restaurant", "name:ar": "\u0645\u0637\u0639\u0645 \u0623\u0643\u0633\u0627\u0631\u0627\u064a", "opening_hours": "08:00-24:00"}}, {"type": "node", "id": 5026474516, "lat": 41.0131801, "lon": 28.9446187, "tags": {"addr:city": "Istanbul", "addr:district": "Fatih", "addr:street": "Vatan Caddesi", "amenity": "restaurant", "cuisine": "turkish;kebab", "name": "Van Restaurant", "name:ar": "\u0645\u0637\u0639\u0645 \u0648\u0627\u0646", "opening_hours": "08:00-24:00"}}, {"type": "node", "id": 5026652711, "lat": 41.0110287, "lon": 28.9422637, "tags": {"addr:city": "Istanbul", "addr:district": "Fatih", "addr:street": "Turgut \u00d6zel Millet Caddesi", "amenity": "restaurant", "cuisine": "arab;syrian", "name": "Izgara Evi Restuarant", "name:ar": "\u0645\u0637\u0639\u0645 \u0628\u064a\u062a \u0627\u0644\u0645\u0634\u0627\u0648\u064a", "opening_hours": "08:00-24:00"}}, {"type": "node", "id": 5026696826, "lat": 41.0110945, "lon": 28.9416817, "tags": {"addr:city": "Istanbul", "addr:district": "Fatih", "addr:street": "Turgut \u00d6zel Millet Caddesi", "amenity": "restaurant", "cuisine": "turkish;kebab", "name": "Osmanli Konagi Restuarant", "name:ar": "\u0645\u0637\u0639\u0645 \u0639\u0635\u0645\u0644\u064a \u0643\u0648\u0646\u0627\u063a\u064a", "opening_hours": "08:00-24:00"}}, {"type": "node", "id": 5033681421, "lat": 40.9976238, "lon": 28.8952802, "tags": {"amenity": "restaurant"}}, {"type": "node", "id": 5036070490, "lat": 41.0460078, "lon": 28.8960983, "tags": {"addr:city": "Istanbul", "addr:district": "Bayampa\u015fa", "addr:housenumber": "No:111", "addr:neighbourhood": "Kocatepe Mahallesi", "addr:postcode": "34045", "addr:street": "\u015eehir Park\u0131 Caddesi", "amenity": "restaurant", "name": "Lunchbox", "outdoor_seating": "yes", "website": "http://www.cookshop.com.tr/tr"}}, {"type": "node", "id": 5040810722, "lat": 41.0317756, "lon": 28.9477735, "tags": {"addr:housenumber": "83/a", "addr:street": "Vodina Caddesi", "amenity": "restaurant", "cuisine": "turkish;arab", "name": "Domino Cafe", "phone": "02125334300"}}, {"type": "node", "id": 5075929024, "lat": 41.0129463, "lon": 28.9386867, "tags": {"addr:city": "Istanbul", "addr:district": "Fatih", "addr:street": "Turgut \u00d6zal Millet caddesi", "amenity": "restaurant", "name": "Fateh Alhayr resturant", "name:ar": "\u0645\u0637\u0639\u0645 \u0641\u0627\u062a\u062d \u0627\u0644\u062e\u064a\u0631"}}, {"type": "node", "id": 5075929032, "lat": 41.0116471, "lon": 28.9416063, "tags": {"addr:city": "Istanbul", "addr:district": "Fatih", "addr:street": "Turgut \u00d6zal Millet caddesi", "amenity": "restaurant", "name": "yemen resturant", "name:ar": "\u0627\u0644\u0645\u0637\u0639\u0645 \u0627\u0644\u064a\u0645\u0646\u064a", "phone": "05059999333"}}, {"type": "node", "id": 5075929033, "lat": 41.0115199, "lon": 28.942071, "tags": {"addr:city": "Istanbul", "addr:district": "Fatih", "addr:street": "Turgut \u00d6zal Millet caddesi", "amenity": "restaurant", "name": "Sallourao\u011flu halep sofras\u0131", "name:ar": "\u0645\u0637\u0639\u0645 \u0633\u0644\u0648\u0631\u0629 \u0644\u0644\u0637\u0628\u062e \u0627\u0644\u062d\u0644\u0628\u064a \u0648\u0627\u0644\u062d\u0644\u0648\u064a\u0627\u062a"}}, {"type": "node", "id": 5075929034, "lat": 41.0114969, "lon": 28.9421472, "tags": {"addr:city": "Istanbul", "addr:district": "Fatih", "addr:street": "Turgut \u00d6zal Millet caddesi", "amenity": "restaurant", "name": "\u015eam \u015ferif tatlas\u0131", "name:ar": "\u062d\u0644\u0648\u064a\u0627\u062a \u0633\u0646\u064a\u0648\u0631\u0629"}}, {"type": "node", "id": 5075929037, "lat": 41.011344, "lon": 28.9427297, "tags": {"addr:city": "Istanbul", "addr:district": "Fatih", "addr:street": "Turgut \u00d6zal Millet caddesi", "amenity": "restaurant", "name": "zirwe sultan resturant", "name:ar": "\u0645\u0637\u0639\u0645 \u0642\u0645\u0629 \u0633\u0644\u0637\u0627\u0646 \u0627\u0644\u0634\u0627\u0648\u0631\u0645\u0627", "phone": "05558886667"}}, {"type": "node", "id": 5075929039, "lat": 41.0110166, "lon": 28.9439989, "tags": {"addr:city": "Istanbul", "addr:district": "Fatih", "addr:street": "Turgut \u00d6zal Millet caddesi", "amenity": "restaurant", "name": "All\u00fc\u015f cafe", "name:ar": "\u0645\u0637\u0639\u0645 \u0639\u0644\u0648\u0634", "phone": "05343824972"}}, {"type": "node", "id": 5075929044, "lat": 41.0108884, "lon": 28.9450398, "tags": {"addr:city": "Istanbul", "addr:district": "Fatih", "addr:street": "Turgut \u00d6zal Millet caddesi", "amenity": "restaurant", "name": "Alnabelsi resturant", "name:ar": "\u0645\u0637\u0639\u0645 \u0627\u0644\u0646\u0627\u0628\u0644\u0633\u064a", "phone": "05345893463"}}, {"type": "node", "id": 5075929046, "lat": 41.0108447, "lon": 28.9449174, "tags": {"addr:city": "Istanbul", "addr:district": "Fatih", "addr:street": "Turgut \u00d6zal Millet caddesi", "amenity": "restaurant", "name": "Alqubtan resturants", "name:ar": "\u0645\u0637\u0627\u0639\u0645 \u0627\u0644\u0642\u0628\u0637\u0627\u0646", "phone": "05061211745"}}, {"type": "node", "id": 5075929048, "lat": 41.0105357, "lon": 28.9460091, "tags": {"addr:city": "Istanbul", "addr:district": "Fatih", "addr:street": "Turgut \u00d6zal Millet caddesi", "amenity": "restaurant", "name": "Layale \u015eamiye", "name:ar": "\u0645\u0637\u0639\u0645 \u0644\u064a\u0627\u0644\u064a \u0634\u0627\u0645\u064a\u0629", "phone": "02125322953"}}, {"type": "node", "id": 5075929049, "lat": 41.0104682, "lon": 28.9462858, "tags": {"addr:city": "Istanbul", "addr:district": "Fatih", "addr:street": "Turgut \u00d6zal Millet caddesi", "amenity": "restaurant", "name": "Tarbu\u015f Mutfa\u011f\u0131", "name:ar": "\u0645\u0637\u0639\u0645 \u0637\u0631\u0628\u0648\u0634 \u0627\u0644\u0633\u0648\u0631\u064a \u0627\u0644\u0639\u062b\u0645\u0627\u0646\u064a"}}, {"type": "node", "id": 5075929051, "lat": 41.0104498, "lon": 28.9463672, "tags": {"addr:city": "Istanbul", "addr:district": "Fatih", "addr:street": "Turgut \u00d6zal Millet caddesi", "amenity": "restaurant", "name": "Mahrusi resturant", "name:ar": "\u0645\u0637\u0639\u0645 \u0645\u0647\u0631\u0648\u0633\u0629"}}, {"type": "node", "id": 5075929053, "lat": 41.0102923, "lon": 28.9469842, "tags": {"addr:city": "Istanbul", "addr:district": "Fatih", "addr:street": "Turgut \u00d6zal Millet caddesi", "amenity": "restaurant", "name": "Elefendi resturant", "name:ar": "\u0645\u0637\u0639\u0645 \u0627\u0644\u0627\u0641\u0646\u062f\u064a", "opening_hours": "Mo-Su 07:00-02:30", "phone": "05373735757"}}, {"type": "node", "id": 5075929055, "lat": 41.0101917, "lon": 28.9472264, "tags": {"addr:district": "Fatih", "addr:street": "Turgut \u00d6zal Millet caddesi", "amenity": "restaurant", "name": "Zeyr ve Zater", "name:ar": "\u0645\u0637\u0639\u0645 \u0632\u064a\u062a \u0648\u0632\u0639\u062a\u0631 \u0644\u0644\u0641\u0637\u0627\u0626\u0631"}}, {"type": "node", "id": 5075929057, "lat": 41.0102466, "lon": 28.9475656, "tags": {"addr:city": "Istanbul", "addr:district": "Fatih", "addr:street": "Turgut \u00d6zal Millet caddesi", "amenity": "restaurant", "name": "\u0645\u0637\u0639\u0645 \u0645\u0646\u062f\u064a", "name:ar": "\u0645\u0637\u0639\u0645 \u0625\u064a\u0648\u0627\u0646", "phone": "05393035583"}}, {"type": "node", "id": 5075929058, "lat": 41.01021, "lon": 28.9475414, "tags": {"addr:city": "Istanbul", "addr:district": "Fatih", "addr:street": "Turgut \u00d6zal Millet caddesi", "amenity": "restaurant", "name": "Anas chicken", "name:ar": "\u0645\u0637\u0639\u0645 \u0623\u0646\u0633 \u0644\u0644\u0641\u0631\u0648\u062c", "phone": "02122449999"}}, {"type": "node", "id": 5075929059, "lat": 41.0101734, "lon": 28.9477351, "tags": {"addr:city": "Istanbul", "addr:district": "Fatih", "addr:street": "Turgut \u00d6zal Millet caddesi", "amenity": "restaurant", "name": "Serc\u0131ya \u0131stasyonu", "name:ar": "\u0645\u0637\u0639\u0645 \u0633\u064a\u0631\u062c\u064a\u0629 \u062d\u0644\u0628"}}, {"type": "node", "id": 5075929060, "lat": 41.0102009, "lon": 28.9477836, "tags": {"addr:city": "Istanbul", "addr:district": "Fatih", "addr:street": "Turgut \u00d6zal Millet caddesi", "amenity": "restaurant", "name": "Musul Mutfa\u011f\u0131", "name:ar": "\u0627\u0644\u0645\u0637\u0628\u062e \u0627\u0644\u0645\u0648\u0635\u0644\u064a", "phone": "02126210883"}}, {"type": "node", "id": 5075960988, "lat": 41.0121582, "lon": 28.9500565, "tags": {"addr:city": "Istanbul", "addr:district": "Fatih", "addr:street": "Horhor caddesi", "amenity": "restaurant", "name": "Sallorao\u011flu tatl\u0131s\u0131", "name:ar": "\u062d\u0644\u0648\u064a\u0627\u062a \u0633\u0644\u0648\u0631\u0629"}}, {"type": "node", "id": 5075962024, "lat": 41.0132862, "lon": 28.9482427, "tags": {"addr:city": "Istanbul", "addr:district": "Fatih", "addr:street": "Sofular caddesi", "amenity": "restaurant", "name": "Urfa kebap saray\u0131", "name:ar": "\u0645\u0637\u0639\u0645 \u0642\u0635\u0631 \u0627\u0648\u0631\u0641\u0627 \u0644\u0644\u0643\u0628\u0627\u0628", "phone": "02125231368"}}, {"type": "node", "id": 5075962026, "lat": 41.0127271, "lon": 28.9483876, "tags": {"addr:city": "Istanbul", "addr:district": "Fatih", "addr:street": "Sofular caddesi", "amenity": "restaurant", "name": "Halil ibrahim \u015fark sofras\u0131", "name:ar": "\u0645\u0637\u0639\u0645 \u0627\u0628\u0631\u0627\u0647\u064a\u0645 \u062e\u0644\u064a\u0644 \u0627\u0644\u0634\u0631\u0642"}}, {"type": "node", "id": 5075962034, "lat": 41.0121536, "lon": 28.9493344, "tags": {"addr:city": "Istanbul", "addr:district": "Fatih", "addr:street": "Rag\u0131p Bey sokak", "amenity": "restaurant", "name": "zarzor iraql\u0131 lokantas\u0131", "name:ar": "\u0645\u0637\u0639\u0645 \u0632\u0631\u0632\u0648\u0631 \u0627\u0644\u0639\u0631\u0627\u0642\u064a"}}, {"type": "node", "id": 5075962044, "lat": 41.0115907, "lon": 28.9500175, "tags": {"addr:city": "Istanbul", "addr:district": "Fatih", "addr:street": "Horhor caddesi", "amenity": "restaurant", "name": "Ac\u0131kt\u0131m d\u00fcr\u00fcm evi", "name:ar": "\u0645\u0637\u0639\u0645 \u0627\u062c\u064a\u0643\u062a\u064a\u0645 \u062f\u0648\u0631\u0648\u0645", "phone": "02125244832"}}, {"type": "node", "id": 5075962045, "lat": 41.0116884, "lon": 28.9500532, "tags": {"addr:city": "Istanbul", "addr:district": "Fatih", "addr:street": "Horhor caddesi", "amenity": "restaurant", "name": "Hatay medeniyetler sofras\u0131", "name:ar": "\u0645\u0637\u0639\u0645 \u0645\u062f\u0646\u064a\u0627\u062a \u0647\u0627\u062a\u0627\u064a", "phone": "02125233131"}}, {"type": "node", "id": 5075962046, "lat": 41.011615, "lon": 28.9496359, "tags": {"addr:city": "Istanbul", "addr:district": "Fatih", "addr:street": "Simit\u00e7i Sakir sokak", "amenity": "restaurant", "name": "Karde\u015fler lokantas\u0131", "name:ar": "\u0645\u0639\u0637\u0645 \u0627\u0644\u0627\u062e\u0648\u0629", "phone": "02125239894"}}, {"type": "node", "id": 5075962047, "lat": 41.011675, "lon": 28.9495555, "tags": {"addr:city": "Istanbul", "addr:district": "Fatih", "addr:street": "Simit\u00e7i Sakir sokak", "amenity": "restaurant", "name": "Ci\u011fer saray\u0131", "name:ar": "\u0645\u0637\u0639\u0645 \u0642\u0635\u0631 \u0627\u0644\u0633\u0648\u062f\u0629", "phone": "02126212122"}}, {"type": "node", "id": 5075962048, "lat": 41.0117262, "lon": 28.9494832, "tags": {"addr:city": "Istanbul", "addr:district": "Fatih", "addr:street": "Simit\u00e7i Sakir sokak", "amenity": "restaurant", "name": "ci\u011feristan", "name:ar": "\u0645\u0634\u0627\u0648\u064a \u0634\u0627\u063a\u064a\u0631\u0633\u062a\u0627\u0646", "phone": "05340575151"}}, {"type": "node", "id": 5075962049, "lat": 41.0117707, "lon": 28.9493957, "tags": {"addr:city": "Istanbul", "addr:district": "Fatih", "addr:street": "Simit\u00e7i Sakir sokak", "amenity": "restaurant", "name": "Urfal\u0131 hac\u0131 usta", "name:ar": "\u0645\u0637\u0639\u0645 \u062d\u062c \u0627\u0648\u0633\u062a\u0627 \u0627\u0644\u0627\u0648\u0631\u0641\u0644\u064a", "phone": "02125344340"}}, {"type": "node", "id": 5075962051, "lat": 41.0119305, "lon": 28.9491661, "tags": {"addr:city": "Istanbul", "addr:district": "Fatih", "addr:street": "Simit\u00e7i \u015eakir Sokak", "amenity": "restaurant", "name": "ta\u00e7 kebap", "name:ar": "\u0645\u0637\u0639\u0645 \u0627\u0644\u062a\u0627\u062c", "name:tr": "ta\u00e7 kebap \u0645\u0637\u0639\u0645 \u062a\u0627\u062c \u0627\u0644\u0639\u0631\u0627\u0642", "phone": "02125232644"}}, {"type": "node", "id": 5075962053, "lat": 41.0123322, "lon": 28.9483774, "tags": {"addr:city": "Istanbul", "addr:district": "Fatih", "addr:street": "Simit\u00e7i Sakir sokak", "amenity": "restaurant", "name": "sanliurfa zaman ciger ve kebap salonu", "name:ar": "\u0645\u0637\u0639\u0645 \u0634\u0627\u0646\u0644\u064a \u0627\u0648\u0641\u0627 \u0644\u0644\u0643\u0628\u0627\u0628 \u0648\u0627\u0644\u0633\u0648\u062f\u0629", "phone": "02125212206"}}, {"type": "node", "id": 5075993808, "lat": 41.01301, "lon": 28.9472683, "tags": {"addr:city": "Istanbul", "addr:district": "Fatih", "addr:street": "Ahmediye caddesi", "amenity": "restaurant", "name": "Gaza Vattan Felafel", "name:ar": "\u0641\u0644\u0627\u0641\u0644 \u063a\u0632\u0629 \u0648\u0637\u0646"}}, {"type": "node", "id": 5075993810, "lat": 41.0143606, "lon": 28.9460913, "tags": {"addr:city": "Istanbul", "addr:district": "Fatih", "addr:street": "Hissedar sokak", "amenity": "restaurant", "name": "Anadolu B\u00fcfe", "name:ar": "\u0628\u0648\u0641\u064a\u0647 \u0627\u0644\u0627\u0646\u0627\u0636\u0648\u0644"}}, {"type": "node", "id": 5075993816, "lat": 41.0130607, "lon": 28.947139, "tags": {"addr:city": "Istanbul", "addr:district": "Fatih", "addr:street": "Ahmediye caddesi", "amenity": "restaurant", "name": "Halep restaurant", "name:ar": "\u0645\u0637\u0639\u0645 \u062d\u0644\u0628", "operator": "\u0645\u062d\u0645\u0648\u062f \u062c\u0628\u0627\u0631\u0629"}}, {"type": "node", "id": 5075993817, "lat": 41.0133191, "lon": 28.9466563, "tags": {"addr:city": "Istanbul", "addr:district": "Fatih", "addr:street": "Ahmediye Caddesi", "amenity": "restaurant", "name": "Urfa zaman ci\u011fer ve kebep", "name:ar": "\u0645\u0637\u0639\u0645 \u0627\u0648\u0631\u0641\u0627 \u0632\u0645\u0627\u0646"}}, {"type": "node", "id": 5075994622, "lat": 41.0136626, "lon": 28.9460352, "tags": {"addr:city": "Istanbul", "addr:district": "Fatih", "addr:street": "Ahmediye caddesi", "amenity": "restaurant", "name": "Pilavc\u0131 Karde\u015fler", "name:ar": "\u0645\u0637\u0639\u0645 \u0627\u0644\u0623\u062e\u0648\u0629"}}, {"type": "node", "id": 5075994624, "lat": 41.0138303, "lon": 28.9457377, "tags": {"addr:city": "Istanbul", "addr:district": "Fatih", "addr:street": "Ahmediye caddesi", "amenity": "restaurant", "name": "Akdeniz Hatay Sofras\u0131", "name:ar": "\u0645\u0637\u0639\u0645 \u0647\u0627\u062a\u0627\u064a \u0627\u0643\u062f\u0646\u064a\u0632 - 4 \u0646\u062c\u0648\u0645", "phone": "4447247"}}, {"type": "node", "id": 5076114618, "lat": 40.9941424, "lon": 28.9257294, "tags": {"addr:city": "Istanbul", "addr:district": "Fatih", "addr:street": "Kuyulu bakkal sokagi", "amenity": "restaurant", "name": "Yesilkir pide bank", "name:ar": "\u064a\u0634\u064a\u0644\u0643\u0631 \u0628\u064a\u062f\u064a \u0628\u0646\u0643 \u0644\u0644\u0645\u0639\u062c\u0646\u0627\u062a", "phone": "02126796780"}}, {"type": "node", "id": 5076115923, "lat": 40.9959514, "lon": 28.927454, "tags": {"addr:city": "Istanbul", "addr:district": "Fatih", "addr:street": "Narlikapi \ufffdesmesi sokagi", "amenity": "restaurant", "name": "Kule k\u00f6fte", "name:ar": "\u0643\u0648\u0644\u064a \u0643\u0648\u0641\u062a\u0629", "phone": "05376916774"}}, {"type": "node", "id": 5076115938, "lat": 40.996348, "lon": 28.9277896, "tags": {"addr:city": "Istanbul", "addr:district": "Fatih", "addr:street": "Imam Asir Sokak", "amenity": "restaurant", "name": "Buryan Kebap Ve Izgara Salonu", "name:ar": "\u0645\u0637\u0639\u0645 \u0628\u064a\u0631\u0627\u0646 \u0644\u0644\u0643\u0628\u0627\u0628 \u0648 \u0627\u0644\u0645\u0634\u0648\u062a\u064a", "phone": "02125867703"}}, {"type": "node", "id": 5081264669, "lat": 41.0158344, "lon": 28.9396566, "tags": {"addr:city": "Istanbul", "addr:district": "Fatih", "addr:street": "Bezmialem Vak\u0131f \u00dcni Caddesi", "amenity": "restaurant", "name": "Evim Iskender Kebap", "name:ar": "\u0645\u0637\u0639\u0645 \u0627\u0633\u0643\u0646\u062f\u0631 \u0644\u0644\u0643\u0628\u0627\u0628", "phone": "02125249675"}}, {"type": "node", "id": 5081264670, "lat": 41.0157049, "lon": 28.9398336, "tags": {"addr:city": "Istanbul", "addr:district": "Fatih", "addr:street": "Bezmialem Vak\u0131f \u00dcni Caddesi", "amenity": "restaurant", "name": "Asmaalt\u0131 D\u00fcr\u00fcmc", "name:ar": "\u0645\u0637\u0639\u0645 \u0627\u0635\u0645\u0627\u0644\u062a\u064a"}}, {"type": "node", "id": 5081264682, "lat": 41.0102728, "lon": 28.9473224, "tags": {"addr:city": "Istanbul", "addr:district": "Fatih", "addr:street": "Muratpa\u015fa sokak", "amenity": "restaurant", "name": "\u015e\u00fckr\u00fco\u011flu Restaurant", "name:ar": "\u0645\u0637\u0639\u0645 \u0634\u0643\u0631\u064a \u0627\u0648\u063a\u0644\u0648"}}, {"type": "node", "id": 5081265935, "lat": 41.0122213, "lon": 28.9414554, "tags": {"addr:city": "Istanbul", "addr:district": "Fatih", "addr:street": "Molla G\u00fcrani caddesi", "amenity": "restaurant", "name": "Bizim Durum kebap Salonu", "name:ar": "\u0645\u0637\u0639\u0645 \u0628\u064a\u0632\u064a\u0645 \u0627\u0644\u062a\u0631\u0643\u064a", "phone": "02125315957"}}, {"type": "node", "id": 5081265952, "lat": 41.0128234, "lon": 28.9444674, "tags": {"addr:city": "Istanbul", "addr:district": "Fatih", "addr:street": "Softa Sinan Sokak", "amenity": "restaurant", "name": "D\u00fcr\u00fcmc\u00fc Ha\u015fim Usta", "name:ar": "\u0645\u0637\u0639\u0645 \u0627\u0644\u0645\u0639\u0644\u0645 \u0647\u0627\u0634\u0645 \u0644\u0644\u0645\u0634\u0627\u0648\u064a", "phone": "02125346452"}}, {"type": "node", "id": 5081265953, "lat": 41.0130227, "lon": 28.9444071, "tags": {"addr:city": "Istanbul", "addr:district": "Fatih", "addr:street": "Softa Sinan Sokak", "amenity": "restaurant", "name": "Kasem Abu Alkas Lokantas\u0131", "name:ar": "\u0645\u0637\u0639\u0645 \u0642\u0627\u0633\u0645 \u0627\u0628\u0648 \u0627\u0644\u0643\u0635 \u0627\u0644\u0639\u0631\u0627\u0642\u064a"}}, {"type": "node", "id": 5081265954, "lat": 41.0111352, "lon": 28.9476839, "tags": {"addr:city": "Istanbul", "addr:district": "Fatih", "addr:street": "Muratpa\u015fa sokak", "amenity": "restaurant", "name": "Sit El\u015fam Pasta", "name:ar": "\u0645\u0637\u0639\u0645 \u0633\u062a \u0627\u0644\u0634\u0627\u0645 \u0644\u0644\u0645\u0639\u062c\u0646\u0627\u062a", "phone": "02125230263"}}, {"type": "node", "id": 5081265956, "lat": 41.0116211, "lon": 28.9472787, "tags": {"addr:city": "Istanbul", "addr:district": "Fatih", "addr:street": "Vatan caddesi", "amenity": "restaurant", "name": "Saniyora Tatlas\u0131", "name:ar": "\u062d\u0644\u0648\u064a\u0627\u062a \u0633\u0646\u064a\u0648\u0631\u0629"}}, {"type": "node", "id": 5081265957, "lat": 41.0116469, "lon": 28.9472443, "tags": {"addr:city": "Istanbul", "addr:district": "Fatih", "addr:street": "Vatan caddesi", "amenity": "restaurant", "name": "\u00c7itir Lahmacun", "name:ar": "\u0645\u0637\u0639\u0645 \u062c\u064a\u062a\u064a\u0631 \u0644\u0644\u062d\u0645 \u0628\u0639\u062c\u064a\u0646"}}, {"type": "node", "id": 5081265959, "lat": 41.0116858, "lon": 28.9469698, "tags": {"addr:city": "Istanbul", "addr:district": "Fatih", "addr:street": "Vatan caddesi", "amenity": "restaurant", "name": "Deniz \u00dcr\u00fcnleri restoran\u0131", "name:ar": "\u0645\u0637\u0639\u0645 \u0648\u0645\u0642\u0647\u0649 \u062b\u0645\u0627\u0631 \u0627\u0644\u0628\u062d\u0631"}}, {"type": "node", "id": 5081265961, "lat": 41.0127272, "lon": 28.9452587, "tags": {"addr:city": "Istanbul", "addr:district": "Fatih", "addr:street": "Vatan caddesi", "amenity": "restaurant", "name": "Taehan Uygur Restoran\u0131", "name:ar": "\u0645\u0637\u0639\u0645 \u062a\u0627\u0631\u0647\u0627\u0646 \u0644\u0644\u0637\u0628\u062e \u0627\u0644\u0627\u064a\u063a\u0648\u0631\u064a", "phone": "02126214081"}}, {"type": "node", "id": 5081265963, "lat": 41.0134913, "lon": 28.944638, "tags": {"addr:city": "Istanbul", "addr:district": "Fatih", "addr:street": "Vatan caddesi", "amenity": "restaurant", "name": "Pilavci Resat", "name:ar": "\u0645\u0637\u0639\u0645 \u0631\u0634\u0627\u062f \u0644\u0644\u0631\u0632", "phone": "021253224429"}}, {"type": "node", "id": 5081265967, "lat": 41.0146401, "lon": 28.9428497, "tags": {"addr:city": "Istanbul", "addr:district": "Fatih", "addr:street": "Vatan caddesi", "amenity": "restaurant", "name": "Razzak resturan", "name:ar": "\u0645\u0637\u0639\u0645 \u0631\u0632\u0627\u0642", "phone": "05388593855"}}, {"type": "node", "id": 5081274098, "lat": 41.0156381, "lon": 28.9522576, "tags": {"addr:city": "Istanbul", "addr:district": "Fatih", "addr:street": "Macar karde\u015fler Caddesi", "amenity": "restaurant", "name": "Bereket D\u00f6ner", "name:ar": "\u0645\u0637\u0639\u0645 \u0628\u0631\u0643\u0627\u062a", "phone": "02126319997"}}, {"type": "node", "id": 5081274106, "lat": 41.0164274, "lon": 28.9508387, "tags": {"addr:city": "Istanbul", "addr:district": "Fatih", "addr:street": "Macar karde\u015fler Caddesi", "amenity": "restaurant", "name": "Pihlivan Lokantas\u0131", "name:ar": "\u0645\u0637\u0639\u0645 \u0628\u0647\u0644\u0648\u0627\u0646", "phone": "02126210062"}}, {"type": "node", "id": 5081274110, "lat": 41.0102566, "lon": 28.9467645, "tags": {"addr:city": "Istanbul", "addr:district": "Fatih", "addr:street": "Turgut \u00d6zal Millet caddesi", "amenity": "restaurant", "name": "Sultan Resturant", "name:ar": "\u0645\u0637\u0639\u0645 \u0642\u0645\u0629 \u0627\u0644\u0633\u0644\u0637\u0627\u0646"}}, {"type": "node", "id": 5081274321, "lat": 41.0106312, "lon": 28.9514236, "tags": {"addr:city": "Istanbul", "addr:district": "Fatih", "addr:street": "\u015eekerci Sokak", "amenity": "restaurant", "name": "Aksaray B\u00f6rek", "name:ar": "\u0641\u0637\u0627\u0626\u0631 \u0627\u0643\u0633\u0631\u0627\u064a", "phone": "05300624786"}}, {"type": "node", "id": 5081274323, "lat": 41.0105156, "lon": 28.9514409, "tags": {"addr:city": "Istanbul", "addr:district": "Fatih", "addr:street": "\u015eekerci Sokak", "amenity": "restaurant", "name": "63 Metro Pide", "name:ar": "\u0645\u0637\u0639\u0645 63\u0645\u062a\u0631\u0648 \u0644\u0644\u0645\u0639\u062c\u0646\u0627\u062a"}}, {"type": "node", "id": 5081274326, "lat": 41.0103477, "lon": 28.951465, "tags": {"addr:city": "Istanbul", "addr:district": "Fatih", "addr:street": "\u015eekerci Sokak", "amenity": "restaurant", "name": "Pa\u00e7ac\u0131 Hasan", "name:ar": "\u0645\u0637\u0639\u0645 \u062d\u0633\u0627\u0646", "phone": "02125316566"}}, {"type": "node", "id": 5081274327, "lat": 41.01029, "lon": 28.951453, "tags": {"addr:city": "Istanbul", "addr:district": "Fatih", "addr:street": "\u015eekerci Sokak", "amenity": "restaurant", "name": "Nergis Saray", "name:ar": "\u0642\u0635\u0631 \u0627\u0644\u0646\u0631\u062c\u0633", "phone": "02125341920"}}, {"type": "node", "id": 5081442452, "lat": 41.0225292, "lon": 28.9597418, "tags": {"addr:city": "Istanbul", "addr:district": "Fatih", "addr:street": "Salih Pa\u015fa Caddesi", "amenity": "restaurant", "name": "Y\u00fccel Unlu Mamulleri", "name:ar": "\u064a\u0648\u062c\u064a\u0644 \u0627\u0648\u0646\u0644\u0648 \u0645\u0639\u0645\u0648\u0644\u0644\u0627\u0631\u064a", "operator": "private"}}, {"type": "node", "id": 5081442453, "lat": 41.0225545, "lon": 28.9596867, "tags": {"addr:city": "Istanbul", "addr:district": "Fatih", "addr:street": "Salih Pa\u015fa Caddesi", "amenity": "restaurant", "name": "Salihpa\u015fa B\u00f6rek F\u0131r\u0131n\u0131", "name:ar": "\u0641\u0631\u0646 \u0628\u0648\u0631\u064a\u0643 \u0635\u0627\u0644\u062d \u0628\u0627\u0634\u0627", "operator": "private"}}, {"type": "node", "id": 5081442456, "lat": 41.0223129, "lon": 28.959875, "tags": {"addr:city": "Istanbul", "addr:district": "Fatih", "addr:street": "Salih Pa\u015fa Caddesi", "amenity": "restaurant", "name": "\u015eafak Et Lokantas\u0131", "name:ar": "\u0645\u0637\u0639\u0645 \u0644\u062d\u0645 \u0627\u0644\u0634\u0641\u0642", "operator": "private"}}, {"type": "node", "id": 5081442459, "lat": 41.0219404, "lon": 28.9598702, "tags": {"addr:city": "Istanbul", "addr:district": "Fatih", "addr:street": "Elvanzade Cami sokak", "amenity": "restaurant", "name": "Me\u015fhur Unkapan\u0131 Pilavc\u0131s\u0131", "name:ar": "\u0645\u0634\u0647\u0648\u0631 \u0627\u0648\u0646\u0643\u0627\u0628\u0627\u0646\u064a \u0628\u064a\u0644\u0627\u0648\u062c\u064a", "operator": "private"}}, {"type": "node", "id": 5081442470, "lat": 41.0190956, "lon": 28.9578128, "tags": {"addr:city": "Istanbul", "addr:district": "Fatih", "addr:street": "Zeyrek Mehmet Pa\u015fa Sokak", "amenity": "restaurant", "name": "Jing ya Tang Restaurant", "name:ar": "\u0645\u0637\u0639\u0645 \u062c\u064a\u0646\u063a \u064a\u0627 \u062a\u0627\u0646\u063a", "operator": "private"}}, {"type": "node", "id": 5081442474, "lat": 41.0202882, "lon": 28.9587595, "tags": {"addr:city": "Istanbul", "addr:district": "Fatih", "addr:street": "Atat\u00fcrk Boulevard", "amenity": "restaurant", "name": "Me\u015fhur Unkapan\u0131 Pilavc\u0131s\u0131", "name:ar": "\u0645\u0634\u0647\u0648\u0631 \u0627\u0648\u0646\u0643\u0627\u0628\u0627\u0646\u064a \u0628\u0644\u0627\u0648\u062c\u064a\u0633\u064a", "operator": "private"}}, {"type": "node", "id": 5081442476, "lat": 41.0205474, "lon": 28.9588929, "tags": {"addr:city": "Istanbul", "addr:district": "Fatih", "addr:street": "Atat\u00fcrk Boulevard", "amenity": "restaurant", "name": "Zeyrek Cafe Restaurant", "name:ar": "\u0645\u0637\u0639\u0645 \u0648\u0643\u0627\u0641\u064a \u0627\u064a\u0631\u064a\u0643", "operator": "private"}}, {"type": "node", "id": 5081442495, "lat": 41.0234677, "lon": 28.9604728, "tags": {"addr:city": "Istanbul", "addr:district": "Fatih", "addr:street": "Abd\u00fclezelpa\u015fa Caddesi", "amenity": "restaurant", "name": "Kumpir ve Waffle", "name:ar": "\u0643\u0648\u0645\u0628\u064a\u0631 \u0648 \u0648\u0627\u0641\u0641\u0644\u064a", "operator": "private"}}, {"type": "node", "id": 5081442496, "lat": 41.0235841, "lon": 28.9604911, "tags": {"addr:city": "Istanbul", "addr:district": "Fatih", "addr:street": "Abd\u00fclezelpa\u015fa Caddesi", "amenity": "restaurant", "name": "Osman Oglu Kebap", "name:ar": "\u0643\u0628\u0627\u0628 \u0639\u062b\u0645\u0627\u0646 \u0627\u0648\u063a\u0644\u0648", "operator": "private"}}, {"type": "node", "id": 5081442499, "lat": 41.0256976, "lon": 28.9589528, "tags": {"addr:city": "Istanbul", "addr:district": "Fatih", "addr:street": "Abd\u00fclezelpa\u015fa Caddesi", "amenity": "restaurant", "name": "Sur Bal\u0131k", "name:ar": "\u0633\u0648\u0631 \u0628\u0627\u0644\u0643", "operator": "private"}}, {"type": "node", "id": 5081442500, "lat": 41.0258428, "lon": 28.9589207, "tags": {"addr:city": "Istanbul", "addr:district": "Fatih", "addr:street": "Abd\u00fclezelpa\u015fa Caddesi", "amenity": "restaurant", "name": "Cibalikap\u0131 Bal\u0131k\u00e7\u0131s\u0131 Hali\u00e7", "name:ar": "\u062c\u064a\u0628\u0627\u0644\u064a \u0643\u0627\u0628\u064a \u0628\u0627\u0644\u0643\u062a\u0634\u064a", "operator": "private"}}, {"type": "node", "id": 5081442510, "lat": 41.0246293, "lon": 28.9585264, "tags": {"addr:city": "Istanbul", "addr:district": "Fatih", "addr:street": "Nal\u0131nc\u0131 Kas\u0131m Sokak", "amenity": "restaurant", "name": "Umut ev yemekleri", "name:ar": "\u0627\u0648\u0645\u0648\u062a \u0644\u0644\u0645\u0623\u0643\u0648\u0644\u0627\u062a \u0627\u0644\u0645\u0646\u0632\u0644\u064a\u0629", "operator": "private"}}, {"type": "node", "id": 5081442515, "lat": 41.0261438, "lon": 28.9585237, "tags": {"addr:city": "Istanbul", "addr:district": "Fatih", "addr:street": "Kadir Has Caddesi", "amenity": "restaurant", "name": "Balaturca", "name:ar": "\u0628\u0627\u0644\u0627\u062a\u0648\u0631\u062c\u0627", "operator": "private"}}, {"type": "node", "id": 5081442520, "lat": 41.0246903, "lon": 28.9580795, "tags": {"addr:city": "Istanbul", "addr:district": "Fatih", "addr:street": "\u00dcsk\u00fcpl\u00fc Caddesi", "amenity": "restaurant", "name": "\u00d6z D\u00fcr\u00fcm", "name:ar": "\u0645\u0637\u0639\u0645 \u0627\u0648\u0632 \u062f\u0648\u0631\u0648\u0645", "operator": "private"}}, {"type": "node", "id": 5081445031, "lat": 41.0277935, "lon": 28.9552412, "tags": {"addr:city": "Istanbul", "addr:district": "Fatih", "addr:street": "Miralay Naz\u0131mbey Caddesi", "amenity": "restaurant", "name": "Me\u015fhur Sar\u0131yer b\u00f6rek\u00e7isi", "name:ar": "\u0645\u0634\u0647\u0648\u0631 \u0633\u0627\u0631\u064a\u0627\u0631 \u0628\u0648\u064a\u0643\u062a\u0634\u064a", "operator": "private"}}, {"type": "node", "id": 5081445068, "lat": 41.0265797, "lon": 28.9580524, "tags": {"addr:city": "Istanbul", "addr:district": "Fatih", "addr:street": "Abd\u00fclezelpa\u015fa Caddesi", "amenity": "restaurant", "name": "Balcafe ve Restaurant", "name:ar": "\u0645\u0637\u0639\u0645 \u0628\u0627\u0644\u0643\u0627\u0641\u064a", "operator": "private"}}, {"type": "node", "id": 5081445069, "lat": 41.027285, "lon": 28.9570072, "tags": {"addr:city": "Istanbul", "addr:district": "Fatih", "addr:street": "Abd\u00fclezelpa\u015fa Caddesi", "amenity": "restaurant", "name": "Karag\u00f6z Zorba", "name:ar": "\u0645\u0637\u0639\u0645 \u0643\u0627\u0631\u0627 \u063a\u0648\u0632 \u0632\u0648\u0631\u0628\u0627", "operator": "private"}}, {"type": "node", "id": 5081445070, "lat": 41.0272774, "lon": 28.9569941, "tags": {"addr:city": "Istanbul", "addr:district": "Fatih", "addr:street": "Abd\u00fclezelpa\u015fa Caddesi", "amenity": "restaurant", "name": "Cibali Vasilis Bal\u0131k\u00e7\u0131s\u0131", "name:ar": "\u062c\u064a\u0628\u0627\u0644\u064a \u0641\u0627\u0633\u064a\u0644\u064a\u0627\u0633 \u0628\u0627\u0644\u0643\u062a\u0634\u064a", "operator": "private"}}, {"type": "node", "id": 5081445071, "lat": 41.0273859, "lon": 28.9569095, "tags": {"addr:city": "Istanbul", "addr:district": "Fatih", "addr:street": "Abd\u00fclezelpa\u015fa Caddesi", "amenity": "restaurant", "name": "Meyhani", "name:ar": "\u0645\u0637\u0639\u0645 \u0645\u064a\u0647\u0627\u0646\u064a", "operator": "private"}}, {"type": "node", "id": 5081445080, "lat": 41.0286531, "lon": 28.9530554, "tags": {"addr:city": "Istanbul", "addr:district": "Fatih", "addr:street": "Abd\u00fclezelpa\u015fa Caddesi", "amenity": "restaurant", "name": "Perispri", "name:ar": "\u0628\u064a\u0631\u064a\u0633\u0628\u0631\u064a \u0643\u0627\u0641\u064a", "operator": "private"}}, {"type": "node", "id": 5081445110, "lat": 41.0237137, "lon": 28.9546301, "tags": {"addr:city": "Istanbul", "addr:district": "Fatih", "addr:street": "Karadeniz Caddesi", "amenity": "restaurant", "name": "U\u011fur Pastaneleri", "name:ar": "\u0627\u0648\u063a\u0648\u0631 \u0644\u0644\u0628\u0627\u0633\u062a\u0627", "operator": "private"}}, {"type": "node", "id": 5081445111, "lat": 41.0237977, "lon": 28.9546597, "tags": {"addr:city": "Istanbul", "addr:district": "Fatih", "addr:street": "Karadeniz Caddesi", "amenity": "restaurant", "name": "Bah\u00e7ivan F\u0131r\u0131n\u0131", "name:ar": "\u0641\u0631\u0646 \u0628\u0627\u0647\u062a\u0634\u064a \u0641\u0627\u0646", "operator": "private"}}, {"type": "node", "id": 5081610907, "lat": 40.9932513, "lon": 28.9268568, "tags": {"addr:city": "Istanbul", "addr:district": "Fatih", "addr:street": "Eski kulluk soka\u011f\u0131", "amenity": "restaurant", "name": "G\u00fcnbilir bal\u0131k lokantas\u0131", "name:ar": "\u0645\u0637\u0639\u0645 \u0643\u0648\u0646\u0628\u064a\u0644\u064a\u0631 \u0644\u0644\u0633\u0645\u0643", "phone": "(0212) 529 26 45"}}, {"type": "node", "id": 5081610940, "lat": 40.9962706, "lon": 28.9241467, "tags": {"addr:city": "Istanbul", "addr:district": "Fatih", "addr:street": "Hac\u0131 evhaddin caddesi", "amenity": "restaurant", "name": "Engin Pastanesi", "name:ar": "\u0623\u0646\u063a\u064a\u0646 \u0644\u0644\u062d\u0644\u0648\u064a\u0627\u062a", "phone": "(0212) 589 70 72"}}, {"type": "node", "id": 5081610950, "lat": 40.9974298, "lon": 28.9240739, "tags": {"addr:city": "Istanbul", "addr:district": "Fatih", "addr:street": "Hac\u0131 evhaddin caddesi", "amenity": "restaurant", "name": "Sur Pide ve Lava\u015f Lahmacun Salonu", "name:ar": "\u0633\u0648\u0631 \u0644\u0644\u0645\u0639\u062c\u0646\u0627\u062a \u0648 \u0627\u0644\u0644\u062d\u0645 \u0628\u0639\u062c\u064a\u0646", "phone": "(0212) 632 65 31"}}, {"type": "node", "id": 5081610977, "lat": 40.9982146, "lon": 28.9295564, "tags": {"addr:city": "Istanbul", "addr:district": "Fatih", "addr:street": "Merhaba caddesi", "amenity": "restaurant", "name": "Mevlana kasap \u0131zgara salonu", "name:ar": "\u0645\u0648\u0644\u0627\u0646\u0627 \u0644\u0644\u0645\u0634\u0627\u0648\u064a", "phone": "(0212) 633 30 20"}}, {"type": "node", "id": 5084410726, "lat": 41.0118809, "lon": 28.9413003}, {"type": "node", "id": 5084410727, "lat": 41.011867, "lon": 28.941333}, {"type": "node", "id": 5084410728, "lat": 41.0119298, "lon": 28.941337}, {"type": "node", "id": 5084410729, "lat": 41.0117892, "lon": 28.9412747}, {"type": "node", "id": 5084410730, "lat": 41.0118387, "lon": 28.9411588}, {"type": "node", "id": 5084410731, "lat": 41.0119653, "lon": 28.9412539}, {"type": "node", "id": 5086061040, "lat": 41.0267429, "lon": 28.9558852, "tags": {"addr:city": "Istanbul", "addr:district": "Fatih", "addr:street": "Vak\u0131f Mektebi Sokak", "amenity": "restaurant", "name": "Rize Odun Ekme\u011fi", "name:ar": "\u0645\u0637\u0639\u0645 \u0631\u064a\u0632\u064a \u0627\u0648\u062f\u0648\u0646 \u0627\u064a\u0643\u0645\u064a\u064a", "operator": "private"}}, {"type": "node", "id": 5086061041, "lat": 41.0269097, "lon": 28.9553922, "tags": {"addr:city": "Istanbul", "addr:district": "Fatih", "addr:street": "Hara\u00e7\u00e7\u0131ba\u015f\u0131 Sokak", "amenity": "restaurant", "name": "G\u00f6kku\u015fa\u011f\u0131 Meze Ve Ev Yemekler", "name:ar": "\u063a\u0648\u0643\u0648\u0634\u0627\u063a\u064a \u0645\u064a\u0632\u064a \u0641\u064a \u0627\u064a\u0641 \u064a\u0645\u064a\u0643\u0644\u0627\u0631\u064a", "operator": "private"}}, {"type": "node", "id": 5086061053, "lat": 41.0264685, "lon": 28.9555457, "tags": {"addr:city": "Istanbul", "addr:district": "Fatih", "addr:street": "K\u00fc\u00e7\u00fck Mustafa Pa\u015fa Caddesi", "amenity": "restaurant", "name": "Hasan Usta", "name:ar": "\u0645\u0637\u0639\u0645 \u062d\u0633\u0646 \u0627\u0648\u0633\u0637\u0627", "operator": "private"}}, {"type": "node", "id": 5086061066, "lat": 41.0260565, "lon": 28.9555086, "tags": {"addr:city": "Istanbul", "addr:district": "Fatih", "addr:street": "Kara Sar\u0131kl\u0131 Sokak", "amenity": "restaurant", "name": "Yilmazlar Lokantasi", "name:ar": "\u0645\u0637\u0639\u0645 \u064a\u0644\u0645\u0632\u0644\u0627\u0631", "operator": "private"}}, {"type": "node", "id": 5086061067, "lat": 41.0260176, "lon": 28.9554409, "tags": {"addr:city": "Istanbul", "addr:district": "Fatih", "addr:street": "Kara Sar\u0131kl\u0131 Sokak", "amenity": "restaurant", "name": "A\u015fk\u0131n Restoran", "name:ar": "\u0645\u0637\u0639\u0645 \u0627\u0634\u0643\u0646", "operator": "private"}}, {"type": "node", "id": 5086061076, "lat": 41.0260343, "lon": 28.9561299, "tags": {"addr:city": "Istanbul", "addr:district": "Fatih", "addr:street": "M\u00fcstantik Caddesi", "amenity": "restaurant", "name": "K\u00f6m\u00fcr Lokantas\u0131", "name:ar": "\u0645\u0637\u0639\u0645 \u0643\u0648\u0645\u0648\u0631", "operator": "private"}}, {"type": "node", "id": 5086061079, "lat": 41.0259923, "lon": 28.9562445, "tags": {"addr:city": "Istanbul", "addr:district": "Fatih", "addr:street": "M\u00fcstantik Caddesi", "amenity": "restaurant", "name": "Tarihi B\u00f6rek", "name:ar": "\u062a\u0627\u0631\u064a\u062e\u064a \u0628\u0648\u0631\u064a\u0643", "operator": "private"}}, {"type": "node", "id": 5086061082, "lat": 41.0259178, "lon": 28.9568969, "tags": {"addr:city": "Istanbul", "addr:district": "Fatih", "addr:street": "M\u00fcstantik Caddesi", "amenity": "restaurant", "name": "\u00d6z Mostar", "name:ar": "\u0645\u0637\u0639\u0645 \u0627\u0648\u0632 \u0645\u0648\u0633\u062a\u0627\u0631", "operator": "private"}}, {"type": "node", "id": 5086061098, "lat": 41.0246941, "lon": 28.9548624, "tags": {"addr:city": "Istanbul", "addr:district": "Fatih", "addr:street": "A\u015f\u0131k Pa\u015fa Sokak", "amenity": "restaurant", "name": "Ensar Aile B\u00f6rek Salonu", "name:ar": "\u0627\u0646\u0633\u0627\u0631 \u0627\u064a\u0644\u064a \u0628\u0648\u0631\u064a\u0643 \u0633\u0627\u0644\u0648\u0646\u0648", "operator": "private"}}, {"type": "node", "id": 5087168296, "lat": 40.9942001, "lon": 28.9226072, "tags": {"addr:city": "Istanbul", "addr:district": "Fatih", "addr:street": "Yedikule Caddesi", "amenity": "restaurant", "name": "Yedikule kebap pilavc\u0131", "name:ar": "\u064a\u062f\u064a \u0643\u0648\u0644\u064a \u0644\u0644\u0631\u0632 \u0648 \u0627\u0644\u0643\u0628\u0627\u0628"}}, {"type": "node", "id": 5087168298, "lat": 40.9944004, "lon": 28.9235383, "tags": {"addr:city": "Istanbul", "addr:district": "Fatih", "addr:street": "Yedikule Caddesi", "amenity": "restaurant", "name": "Safir K\u00f6fte", "name:ar": "\u0633\u0641\u064a\u0631 \u0644\u0644\u0643\u0648\u0641\u062a\u0629", "phone": "02125886727"}}, {"type": "node", "id": 5087168314, "lat": 40.9951087, "lon": 28.9256333, "tags": {"addr:city": "Istanbul", "addr:district": "Fatih", "addr:street": "\u0130mrahor ilyasbey caddesi", "amenity": "restaurant", "name": "Trakya K\u00f6fte Salonu", "name:ar": "\u062a\u0631\u0627\u0643\u064a\u0627 \u0644\u0644\u0643\u0641\u062a\u0629", "phone": "0535 320 01 83"}}, {"type": "node", "id": 5087172331, "lat": 40.9965584, "lon": 28.9274728, "tags": {"addr:city": "Istanbul", "addr:district": "Fatih", "addr:street": "\u0130mrahor ilyasbey caddesi", "amenity": "restaurant", "name": "\u00c7i\u011fk\u00f6fteci \u00f6mer usta", "name:ar": "\u0639\u0645\u0631 \u0623\u0648\u0633\u0637\u0629 \u0644\u0644\u0643\u0628\u0629 \u0627\u0644\u0646\u064a\u0629"}}, {"type": "node", "id": 5087172333, "lat": 40.9967123, "lon": 28.9276693, "tags": {"addr:city": "Istanbul", "addr:district": "Fatih", "addr:street": "\u0130mrahor ilyasbey caddesi", "amenity": "restaurant", "name": "\u00dcmit B\u00f6rek Salonu", "name:ar": "\u0623\u0648\u0645\u064a\u062a \u0644\u0644\u0628\u0648\u0631\u0643", "phone": "(0212) 589 93 24"}}, {"type": "node", "id": 5087172338, "lat": 40.9969376, "lon": 28.9280756, "tags": {"addr:city": "Istanbul", "addr:district": "Fatih", "addr:street": "\u0130mrahor ilyasbey caddesi", "amenity": "restaurant", "name": "Ey\u00fcp Sultan Sofras\u0131", "name:ar": "\u0645\u0637\u0639\u0645 \u0633\u0641\u0631\u0629 \u0627\u0644\u0633\u0644\u0637\u0627\u0646 \u0623\u064a\u0648\u0628", "phone": "0530 385 77 33"}}, {"type": "node", "id": 5087179426, "lat": 40.9943336, "lon": 28.9238694, "tags": {"addr:city": "Istanbul", "addr:district": "Fatih", "addr:street": "Yedikule Caddesi", "amenity": "restaurant", "name": "Kebap\u00e7\u0131o\u011flu", "name:ar": "\u0643\u064a\u0628\u0627\u0628\u062c\u064a \u0623\u0648\u063a\u0644\u0648 \u0644\u0644\u0643\u0628\u0627\u0628", "phone": "(0212) 529 00 99"}}, {"type": "node", "id": 5087179431, "lat": 40.9944523, "lon": 28.9252534, "tags": {"addr:city": "Istanbul", "addr:district": "Fatih", "addr:street": "Yedikule Caddesi", "amenity": "restaurant", "name": "Farrujna", "name:ar": "\u0645\u0637\u0639\u0645 \u0641\u0631\u0648\u062c\u0646\u0627", "phone": "05366957504"}}, {"type": "node", "id": 5087179433, "lat": 40.9946853, "lon": 28.9254377, "tags": {"addr:city": "Istanbul", "addr:district": "Fatih", "addr:street": "\u0130mrahor ilyasbey caddesi", "amenity": "restaurant", "name": "H\u00fck\u00fcmran Sofras\u0131", "name:ar": "\u0645\u0637\u0639\u0645 \u0633\u0641\u0631\u0629 \u0647\u0648\u0643\u0648\u0645\u0631\u0627\u0646", "phone": "0532 620 21 27"}}, {"type": "node", "id": 5087179440, "lat": 40.9950321, "lon": 28.9258752, "tags": {"addr:city": "Istanbul", "addr:district": "Fatih", "addr:street": "\u0130mrahor ilyasbey caddesi", "amenity": "restaurant", "name": "Safa meyhanesi", "name:ar": "\u0645\u0637\u0639\u0645 \u0635\u0641\u0627", "phone": "(0212) 585 55 94"}}, {"type": "node", "id": 5087179441, "lat": 40.9950662, "lon": 28.9259049, "tags": {"addr:city": "Istanbul", "addr:district": "Fatih", "addr:street": "\u0130mrahor ilyasbey caddesi", "amenity": "restaurant", "name": "Yedikule kebap\u00e7\u0131s\u0131", "name:ar": "\u064a\u062f\u064a \u0643\u0648\u0644\u064a \u0644\u0644\u0643\u0628\u0627\u0628", "phone": "02125860334"}}, {"type": "node", "id": 5087179443, "lat": 40.9952577, "lon": 28.9261608, "tags": {"addr:city": "Istanbul", "addr:district": "Fatih", "addr:street": "\u0130mrahor ilyasbey caddesi", "amenity": "restaurant", "name": "Ayd\u0131n karde\u015fler k\u00f6fte salonu", "name:ar": "\u0623\u064a\u062f\u0646 \u0643\u0627\u0631\u062f\u064a\u0634\u0644\u0631 \u0644\u0644\u0643\u0641\u062a\u0629", "phone": "02125888401"}}, {"type": "node", "id": 5087179445, "lat": 40.9953584, "lon": 28.9262838, "tags": {"addr:city": "Istanbul", "addr:district": "Fatih", "addr:street": "\u0130mrahor ilyasbey caddesi", "amenity": "restaurant", "name": "Ayd\u0131n karde\u015fler b\u00f6rek\u00e7i", "name:ar": "\u0622\u064a\u062f\u0646 \u0643\u0627\u0631\u062f\u064a\u0634\u0644\u0631 \u0644\u0644\u0628\u0631\u0643", "phone": "(0212) 530 97 05"}}, {"type": "node", "id": 5087179448, "lat": 40.9955532, "lon": 28.9265918, "tags": {"addr:city": "Istanbul", "addr:district": "Fatih", "addr:street": "\u0130mrahor ilyasbey caddesi", "amenity": "restaurant", "name": "Oses \u00e7i\u011fk\u00f6fte", "name:ar": "\u0623\u0648\u0633\u064a\u0633 \u0644\u0644\u0643\u0628\u0629 \u0627\u0644\u0646\u064a\u0629", "phone": "(0212) 529 35 37"}}, {"type": "node", "id": 5087179456, "lat": 40.9959115, "lon": 28.9270813, "tags": {"addr:city": "Istanbul", "addr:district": "Fatih", "addr:street": "\u0130mrahor ilyasbey caddesi", "amenity": "restaurant", "name": "\u0130ncedal et lokantas\u0131", "name:ar": "\u0645\u0637\u0639\u0645 \u0625\u064a\u0646\u062c\u064a \u062f\u0627\u0644 \u0644\u0644\u062d\u0648\u0645", "phone": "(0212) 586 59 45"}}, {"type": "node", "id": 5087179461, "lat": 40.9961426, "lon": 28.9273472, "tags": {"addr:city": "Istanbul", "addr:district": "Fatih", "addr:street": "\u0130mrahor ilyasbey caddesi", "amenity": "restaurant", "name": "\u00d6z Anteplizade", "name:ar": "\u0623\u0648\u0632 \u0623\u0646\u062a\u064a\u0628\u0644\u064a \u0632\u0627\u062f\u0647 \u0644\u0644\u062d\u0644\u0648\u064a\u0627\u062a"}}, {"type": "node", "id": 5087179467, "lat": 40.9963869, "lon": 28.9275759, "tags": {"addr:city": "Istanbul", "addr:district": "Fatih", "addr:street": "\u0130mrahor ilyasbey caddesi", "amenity": "restaurant", "name": "Rumeli Tulumbac\u0131s\u0131", "name:ar": "\u0631\u0648\u0645\u064a\u0644\u064a \u0644\u0644\u062d\u0644\u0648\u064a\u0627\u062a"}}, {"type": "node", "id": 5088190860, "lat": 40.9995833, "lon": 28.9321787, "tags": {"addr:city": "Istanbul", "addr:district": "Fatih", "addr:street": "\u0130\u00e7kalpak\u00e7\u0131 Sokak", "amenity": "restaurant", "name": "Samatya \u00c7apana", "name:ar": "\u0633\u0645\u0627\u062a\u064a\u0627 \u062a\u0634\u0627\u0628\u0627\u0646\u0627", "phone": "02125861981"}}, {"type": "node", "id": 5088190861, "lat": 40.9996471, "lon": 28.9323429, "tags": {"addr:city": "Istanbul", "addr:district": "Fatih", "addr:street": "\u0130\u00e7kalpak\u00e7\u0131 Sokak", "amenity": "restaurant", "name": "\u00c7apana Et Bal\u0131k", "name:ar": "\u062a\u0634\u0627\u0628\u0627\u0646\u0627 \u0644\u0644\u062d\u0645 \u0648\u0627\u0644\u0633\u0645\u0643", "phone": "05321305661"}}, {"type": "node", "id": 5088190862, "lat": 40.9995802, "lon": 28.9324395, "tags": {"addr:city": "Istanbul", "addr:district": "Fatih", "addr:street": "\u0130\u00e7kalpak\u00e7\u0131 Sokak", "amenity": "restaurant", "name": "Samatya Mangalba\u015f\u0131", "name:ar": "\u0633\u0645\u0627\u062a\u064a\u0627 \u0644\u0644\u0645\u0634\u0627\u0648\u064a"}}, {"type": "node", "id": 5088190864, "lat": 40.9994619, "lon": 28.9322189, "tags": {"addr:city": "Istanbul", "addr:district": "Fatih", "addr:street": "B\u00fcy\u00fck Kuleli Sokak", "amenity": "restaurant", "name": "Samatya Bal\u0131k\u00e7\u0131s\u0131", "name:ar": "\u0633\u0645\u0627\u062a\u064a\u0627 \u0644\u0644\u0633\u0645\u0643", "phone": "02125298438"}}, {"type": "node", "id": 5088190865, "lat": 40.9994883, "lon": 28.9322028, "tags": {"addr:city": "Istanbul", "addr:district": "Fatih", "addr:street": "B\u00fcy\u00fck Kuleli Sokak", "amenity": "restaurant", "name": "Sarya", "name:ar": "\u0645\u0637\u0639\u0645 \u0633\u0627\u0631\u064a\u0627", "phone": "05389505929"}}, {"type": "node", "id": 5088190866, "lat": 40.9995206, "lon": 28.9321867, "tags": {"addr:city": "Istanbul", "addr:district": "Fatih", "addr:street": "B\u00fcy\u00fck Kuleli Sokak", "amenity": "restaurant", "name": "Antik Et Bal\u0131k", "name:ar": "\u0645\u0637\u0639\u0645 \u0623\u0646\u062a\u064a\u0643 \u0625\u064a\u062a \u0628\u0627\u0644\u064a\u0643", "phone": "05374592580"}}, {"type": "node", "id": 5088190867, "lat": 40.9995505, "lon": 28.9321861, "tags": {"addr:city": "Istanbul", "addr:district": "Fatih", "addr:street": "B\u00fcy\u00fck Kuleli Sokak", "amenity": "restaurant", "name": "Annemin Yeri", "name:ar": "\u0645\u0637\u0639\u0645 \u0623\u0646\u064a\u0645\u064a\u0646 \u064a\u0631\u064a"}}, {"type": "node", "id": 5088190868, "lat": 40.9996906, "lon": 28.9321271, "tags": {"addr:city": "Istanbul", "addr:district": "Fatih", "addr:street": "B\u00fcy\u00fck Kuleli Sokak", "amenity": "restaurant", "name": "Kucuk Ev", "name:ar": "\u0643\u0648\u062c\u0648\u0643 \u0625\u064a\u0641", "phone": "05359784003"}}, {"type": "node", "id": 5088190870, "lat": 40.9997827, "lon": 28.9320271, "tags": {"addr:city": "Istanbul", "addr:district": "Fatih", "addr:street": "Ak\u0131nc\u0131 Sokak", "amenity": "restaurant", "name": "Norjin Samatyon", "name:ar": "\u0645\u0637\u0639\u0645 \u0646\u0648\u0631\u062c\u064a\u0646 \u0633\u0627\u0645\u0627\u062a\u064a\u0648\u0646", "phone": "05452036273"}}, {"type": "node", "id": 5088190871, "lat": 40.9997992, "lon": 28.9319842, "tags": {"addr:city": "Istanbul", "addr:district": "Fatih", "addr:street": "Ak\u0131nc\u0131 Sokak", "amenity": "restaurant", "name": "Forsa Bal\u0131k", "name:ar": "\u0641\u0648\u0631\u0633\u0627 \u0644\u0644\u0633\u0645\u0643", "phone": "05339617677"}}, {"type": "node", "id": 5088190872, "lat": 40.9998567, "lon": 28.9319467, "tags": {"addr:city": "Istanbul", "addr:district": "Fatih", "addr:street": "B\u00fcy\u00fck Kuleli Sokak", "amenity": "restaurant", "name": "Meze", "name:ar": "\u0645\u0637\u0639\u0645 \u0645\u064a\u0632\u064a", "phone": "05324262624"}}, {"type": "node", "id": 5088190873, "lat": 40.9998966, "lon": 28.9319144, "tags": {"addr:city": "Istanbul", "addr:district": "Fatih", "addr:street": "G\u00fcm\u00fc\u015f Y\u00fcks\u00fck Sokak", "amenity": "restaurant", "name": "Matya K\u00f6m\u00fcrde Bal\u0131k", "name:ar": "\u0645\u0627\u062a\u064a\u0627 \u0644\u0644\u0633\u0645\u0643 \u0639\u0644\u0649 \u0627\u0644\u0641\u062d\u0645", "phone": "05305582231"}}, {"type": "node", "id": 5088190874, "lat": 40.999937, "lon": 28.9318822, "tags": {"addr:city": "Istanbul", "addr:district": "Fatih", "addr:street": "G\u00fcm\u00fc\u015f Y\u00fcks\u00fck Sokak", "amenity": "restaurant", "name": "Samatya Bal\u0131k Evi", "name:ar": "\u0645\u0637\u0639\u0645 \u0633\u0645\u0627\u062a\u064a\u0627 \u0644\u0644\u0633\u0645\u0643", "phone": "02125879565"}}, {"type": "node", "id": 5088190875, "lat": 40.9999832, "lon": 28.9318441, "tags": {"addr:city": "Istanbul", "addr:district": "Fatih", "addr:street": "B\u00fcy\u00fck Kuleli Sokak", "amenity": "restaurant", "name": "Develi", "name:ar": "\u062f\u064a\u0641\u064a\u0644\u064a", "phone": "02125290833"}}, {"type": "node", "id": 5088190876, "lat": 40.9999742, "lon": 28.931946, "tags": {"addr:city": "Istanbul", "addr:district": "Fatih", "addr:street": "G\u00fcm\u00fc\u015f Y\u00fcks\u00fck Sokak", "amenity": "restaurant", "name": "Ali Haydar \u0130kinci Bahar", "name:ar": "\u0645\u0637\u0639\u0645 \u0639\u0644\u064a \u062d\u064a\u062f \u0627\u0643\u0646\u062c\u064a \u0628\u0647\u0627\u0631", "phone": "05323819134"}}, {"type": "node", "id": 5088190907, "lat": 41.0041672, "lon": 28.9347612, "tags": {"addr:city": "Istanbul", "addr:district": "Fatih", "addr:street": "Sancaktar Tekkesi Sokak", "amenity": "restaurant", "name": "Yunca B\u00fcfe", "name:ar": "\u064a\u0648\u0646\u062c\u0627 \u0628\u0648\u0641\u064a\u0647"}}, {"type": "node", "id": 5088190917, "lat": 41.0033378, "lon": 28.9364192, "tags": {"addr:city": "Istanbul", "addr:district": "Fatih", "addr:street": "Etyemez Tekkesi Sokak", "amenity": "restaurant", "name": "Maydanoz", "name:ar": "\u0645\u0637\u0639\u0645 \u0645\u0627\u064a\u062f\u0627\u0646\u0648\u0632", "phone": "0212853038"}}, {"type": "node", "id": 5088192721, "lat": 41.0027462, "lon": 28.9367237, "tags": {"addr:city": "Istanbul", "addr:district": "Fatih", "addr:street": "Etyemez Tekkesi Sokak", "amenity": "restaurant", "name": "Can Pide B\u00f6rek", "name:ar": "\u062c\u0627\u0646 \u0644\u0644\u0628\u064a\u062f\u0627 \u0648\u0627\u0644\u0628\u0648\u0631\u0643", "phone": "02125881319"}}, {"type": "node", "id": 5088192722, "lat": 41.0028365, "lon": 28.9367131, "tags": {"addr:city": "Istanbul", "addr:district": "Fatih", "addr:street": "Etyemez Tekkesi Sokak", "amenity": "restaurant", "name": "Hasano\u011flu B\u00f6rek Pasta ve Cafe", "name:ar": "\u062d\u0633\u0646 \u0623\u0648\u063a\u0644\u0648 \u0644\u0644\u0628\u0631\u0643"}}, {"type": "node", "id": 5088192727, "lat": 41.0002548, "lon": 28.9327109, "tags": {"addr:city": "Istanbul", "addr:district": "Fatih", "addr:street": "B\u00fcy\u00fck Kuleli Sokak", "amenity": "restaurant", "name": "Samatya Ocakbasi", "name:ar": "\u0641\u0631\u0646 \u0633\u0645\u0627\u062a\u064a\u0627", "phone": "02126327589"}}, {"type": "node", "id": 5088192729, "lat": 41.0000585, "lon": 28.9322616, "tags": {"addr:city": "Istanbul", "addr:district": "Fatih", "addr:street": "Eski Kulluk\u00e7u Sokak", "amenity": "restaurant", "name": "G\u00fcnbilir Bal\u0131k Restaurant", "name:ar": "\u063a\u0648\u0646\u0628\u064a\u0644\u064a\u0631 \u0644\u0644\u0633\u0645\u0643"}}, {"type": "node", "id": 5088192730, "lat": 41.0000049, "lon": 28.9324695, "tags": {"addr:city": "Istanbul", "addr:district": "Fatih", "addr:street": "B\u00fcy\u00fck Kuleli Sokak", "amenity": "restaurant", "name": "Sedir Et ve Bal\u0131k", "name:ar": "\u0633\u064a\u062f\u0631 \u0644\u0644\u062d\u0645 \u0648\u0627\u0644\u0633\u0645\u0643", "phone": "02126634620"}}, {"type": "node", "id": 5088192731, "lat": 40.999777, "lon": 28.9323429, "tags": {"addr:city": "Istanbul", "addr:district": "Fatih", "addr:street": "B\u00fcy\u00fck Kuleli Sokak", "amenity": "restaurant", "name": "Deniz Bal\u0131k Restaurant", "name:ar": "\u0645\u0637\u0639\u0645 \u062f\u064a\u0646\u064a\u0632 \u0644\u0644\u0633\u0645\u0643", "phone": "05333474172"}}, {"type": "node", "id": 5088192732, "lat": 40.9996586, "lon": 28.932172, "tags": {"addr:city": "Istanbul", "addr:district": "Fatih", "addr:street": "B\u00fcy\u00fck Kuleli Sokak", "amenity": "restaurant", "name": "Cihan Derya Bal\u0131k", "name:ar": "\u062c\u064a\u0647\u0627\u0646 \u062f\u064a\u0631\u064a\u0627 \u0644\u0644\u0633\u0645\u0643", "phone": "02125880510"}}, {"type": "node", "id": 5088192733, "lat": 40.9996221, "lon": 28.9321452, "tags": {"addr:city": "Istanbul", "addr:district": "Fatih", "addr:street": "B\u00fcy\u00fck Kuleli Sokak", "amenity": "restaurant", "name": "\u00d6zt\u00fcrk Karde\u015fler Bal\u0131k Lokantas\u0131", "name:ar": "\u0645\u0637\u0639\u0645 \u0623\u0648\u0632\u062a\u0648\u0631\u0643 \u0643\u0627\u0631\u062f\u0634\u0644\u0627\u0631", "phone": "02125299903"}}, {"type": "node", "id": 5088192735, "lat": 41.000186, "lon": 28.931873, "tags": {"addr:city": "Istanbul", "addr:district": "Fatih", "addr:street": "Abdurrahman Nafiz G\u00fcrman Caddesi", "amenity": "restaurant", "name": "Helena \u00c7ak Stone", "name:ar": "\u0645\u0637\u0639\u0645 \u0647\u064a\u0644\u064a\u0646\u0627 \u062a\u0634\u0627\u0643 \u0633\u062a\u0648\u0646", "phone": "05413856363"}}, {"type": "node", "id": 5088192744, "lat": 41.0011764, "lon": 28.9337512, "tags": {"addr:city": "Istanbul", "addr:district": "Fatih", "addr:street": "Abdurrahman Nafiz G\u00fcrman Caddesi", "amenity": "restaurant", "name": "Mevlana Pide", "name:ar": "\u0645\u0648\u0644\u0627\u0646\u0627 \u0644\u0644\u0645\u0639\u062c\u0646\u0627\u062a \u0648\u0627\u0644\u0628\u064a\u062f\u0627", "phone": "02125300021"}}, {"type": "node", "id": 5088192750, "lat": 41.0020968, "lon": 28.9365274, "tags": {"addr:city": "Istanbul", "addr:district": "Fatih", "addr:street": "Abdurrahman Nafiz G\u00fcrman Caddesi", "amenity": "restaurant", "name": "Me\u015fhur Samatya pilavc\u0131s\u0131", "name:ar": "\u0628\u0627\u0626\u0639 \u0631\u0632 \u0633\u0645\u0627\u062a\u064a\u0627 \u0627\u0644\u0645\u0634\u0647\u0648\u0631", "phone": "05373911174"}}, {"type": "node", "id": 5088192752, "lat": 41.002036, "lon": 28.9363311, "tags": {"addr:city": "Istanbul", "addr:district": "Fatih", "addr:street": "Abdurrahman Nafiz G\u00fcrman Caddesi", "amenity": "restaurant", "name": "Tunyal\u0131 Ocakba\u015f\u0131 ve Kabab\u0131", "name:ar": "\u0643\u0628\u0627\u0628 \u062a\u0648\u0646\u064a\u0627\u0644\u064a", "phone": "02125890061"}}, {"type": "node", "id": 5088192754, "lat": 41.0019479, "lon": 28.9359644, "tags": {"addr:city": "Istanbul", "addr:district": "Fatih", "addr:street": "Abdurrahman Nafiz G\u00fcrman Caddesi", "amenity": "restaurant", "name": "Dostlar B\u00fcfe ve K\u00f6fte", "name:ar": "\u0628\u0648\u0641\u064a\u0647 \u0648\u0643\u0641\u062a\u0629 \u0627\u0644\u0627\u0635\u062f\u0642\u0627\u0621", "phone": "05313157093"}}, {"type": "node", "id": 5088192760, "lat": 41.0014535, "lon": 28.9349103, "tags": {"addr:city": "Istanbul", "addr:district": "Fatih", "addr:street": "Abdurrahman Nafiz G\u00fcrman Caddesi", "amenity": "restaurant", "name": "Me\u015fhur Tekirda\u011f K\u00f6ftecisi", "name:ar": "\u0643\u0641\u062a\u062c\u064a \u062a\u064a\u0643\u064a\u0631\u062f\u0627\u063a \u0627\u0644\u0634\u0647\u064a\u0631", "phone": "02125893000"}}, {"type": "node", "id": 5088192762, "lat": 41.001284, "lon": 28.9345079, "tags": {"addr:city": "Istanbul", "addr:district": "Fatih", "addr:street": "Abdurrahman Nafiz G\u00fcrman Caddesi", "amenity": "restaurant", "name": "Doyum Kebap Ve D\u00fcr\u00fcm Salonu", "name:ar": "\u0645\u0637\u0639\u0645 \u062f\u0648\u064a\u0648\u0645 \u0644\u0644\u0643\u0628\u0627\u0628 \u0648\u0627\u0644\u0633\u0646\u062f\u0648\u064a\u0634", "phone": "02125886527"}}, {"type": "node", "id": 5088192771, "lat": 41.0007418, "lon": 28.9328639, "tags": {"addr:city": "Istanbul", "addr:district": "Fatih", "addr:street": "Abdurrahman Nafiz G\u00fcrman Caddesi", "amenity": "restaurant", "name": "Me\u015fhur Samatya Bilavc\u0131s\u0131", "name:ar": "\u0628\u0627\u0626\u0639 \u0631\u0632 \u0633\u0645\u0627\u062a\u064a\u0627 \u0627\u0644\u0634\u0647\u064a\u0631", "phone": "02125875405"}}, {"type": "node", "id": 5088192772, "lat": 41.0019471, "lon": 28.9358029, "tags": {"addr:city": "Istanbul", "addr:district": "Fatih", "addr:street": "Abdurrahman Nafiz G\u00fcrman Caddesi", "amenity": "restaurant", "name": "Samatya b\u00f6rek ve pide", "name:ar": "\u0628\u0648\u0631\u0643 \u0648\u0628\u064a\u062f\u0627 \u0633\u0645\u0627\u062a\u064a\u0627"}}, {"type": "node", "id": 5088192773, "lat": 40.9996582, "lon": 28.9314324, "tags": {"addr:city": "Istanbul", "addr:district": "Fatih", "addr:street": "Abdurrahman Nafiz G\u00fcrman Caddesi", "amenity": "restaurant", "name": "Hem\u015ferim Durumcusu", "name:ar": "\u0628\u0627\u0626\u0639 \u0635\u0646\u062f\u0648\u064a\u0634 \u0647\u064a\u0645\u0634\u0631\u064a\u0645"}}, {"type": "node", "id": 5088192787, "lat": 41.0001381, "lon": 28.9318077, "tags": {"addr:city": "Istanbul", "addr:district": "Fatih", "addr:street": "Abdurrahman Nafiz G\u00fcrman Caddesi", "amenity": "restaurant", "name": "\u015e\u00f6len Ocakba\u015f\u0131", "name:ar": "\u0645\u0637\u0639\u0645 \u0634\u0648\u0644\u064a\u0646 \u0644\u0644\u0645\u0634\u0627\u0648\u064a", "phone": "02125852872"}}, {"type": "node", "id": 5088192790, "lat": 41.0022585, "lon": 28.936811, "tags": {"addr:city": "Istanbul", "addr:district": "Fatih", "addr:street": "Abdurrahman Nafiz G\u00fcrman Caddesi", "amenity": "restaurant", "name": "\u00d6z A\u011fam Kebap Lahmacun Salonu", "name:ar": "\u0623\u0648\u0632 \u0622\u063a\u0627\u0645 \u0644\u0644\u0643\u0628\u0627\u0628 \u0648\u0627\u0644\u0644\u062d\u0645 \u0628\u0639\u062c\u064a\u0646"}}, {"type": "node", "id": 5088192802, "lat": 41.0022341, "lon": 28.9367459, "tags": {"addr:city": "Istanbul", "addr:district": "Fatih", "addr:street": "Abdurrahman Nafiz G\u00fcrman Caddesi", "amenity": "restaurant", "name": "Me\u015fhur Sar\u0131yer B\u00f6rek\u00e7isi", "name:ar": "\u0633\u0631\u0627\u064a\u064a\u0631 \u0627\u0644\u0645\u0634\u0647\u0648\u0631 \u0644\u0644\u0628\u0648\u0631\u0643", "phone": "02125850191"}}, {"type": "node", "id": 5088194826, "lat": 40.9998242, "lon": 28.9315456, "tags": {"addr:city": "Istanbul", "addr:district": "Fatih", "addr:street": "Abdurrahman Nafiz G\u00fcrman Caddesi", "amenity": "restaurant", "name": "Kardesler Koftecisi", "name:ar": "\u0643\u0627\u0631\u062f\u0634\u0644\u0627\u0631 \u0644\u0644\u0643\u0648\u0641\u062a\u0629", "phone": "02125880960"}}, {"type": "node", "id": 5088194827, "lat": 40.9997534, "lon": 28.9314196, "tags": {"addr:city": "Istanbul", "addr:district": "Fatih", "addr:street": "Abdurrahman Nafiz G\u00fcrman Caddesi", "amenity": "restaurant", "name": "Saki Pub", "name:ar": "\u0633\u0627\u0643\u064a", "phone": "02125869742"}}, {"type": "node", "id": 5088194830, "lat": 40.9995421, "lon": 28.9312485, "tags": {"addr:city": "Istanbul", "addr:district": "Fatih", "addr:street": "Abdurrahman Nafiz G\u00fcrman Caddesi", "amenity": "restaurant", "name": "Me\u015fhur Sar\u0131yer B\u00f6rek\u00e7isi", "name:ar": "\u0628\u0648\u0631\u0643\u062c\u064a \u0633\u0631\u0627\u064a\u0631 \u0627\u0644\u0634\u0647\u064a\u0631", "phone": "05364195277"}}, {"type": "node", "id": 5088194847, "lat": 40.9981876, "lon": 28.9300296, "tags": {"addr:city": "Istanbul", "addr:district": "Fatih", "addr:street": "Abdurrahman Nafiz G\u00fcrman Caddesi", "amenity": "restaurant", "name": "K\u00f6\u015fem B\u00fcfe", "name:ar": "\u0628\u0648\u0641\u064a\u0647 \u0643\u0648\u0634\u064a\u0645", "phone": "05515531003"}}, {"type": "node", "id": 5088194848, "lat": 40.9982139, "lon": 28.9300671, "tags": {"addr:city": "Istanbul", "addr:district": "Fatih", "addr:street": "Abdurrahman Nafiz G\u00fcrman Caddesi", "amenity": "restaurant", "name": "\u00c7\u0131t\u0131r B\u00f6rek ve Pide", "name:ar": "\u0634\u064a\u062a\u0631 \u0644\u0644\u0628\u0648\u0631\u0643 \u0648\u0627\u0644\u0628\u064a\u062f\u0627", "phone": "02125291529"}}, {"type": "node", "id": 5088194861, "lat": 40.9994282, "lon": 28.9310555, "tags": {"addr:city": "Istanbul", "addr:district": "Fatih", "addr:street": "Abdurrahman Nafiz G\u00fcrman Caddesi", "amenity": "restaurant", "name": "Mesire kebap ve lahmacun salonu", "name:ar": "\u0645\u064a\u0633\u064a\u0631\u064a \u0643\u0628\u0627\u0628 \u0648\u0644\u062d\u0645 \u0628\u0639\u062c\u064a\u0646", "phone": "2125850766"}}, {"type": "node", "id": 5088194867, "lat": 40.9999655, "lon": 28.9315933, "tags": {"addr:city": "Istanbul", "addr:district": "Fatih", "addr:street": "Abdurrahman Nafiz G\u00fcrman Caddesi", "amenity": "restaurant", "name": "Tand\u0131r Ta\u015ff\u0131r\u0131n Pide Lahmacun Kebap Salonu", "name:ar": "\u0641\u0631\u0646 \u062a\u0627\u0646\u062f\u0631 \u0644\u0644\u062d\u0645 \u0628\u0639\u062c\u064a\u0646 \u0648\u0627\u0644\u0641\u0637\u0627\u0626\u0631", "phone": "02126336092"}}, {"type": "node", "id": 5088194872, "lat": 41.0033956, "lon": 28.9324967, "tags": {"addr:city": "Istanbul", "addr:district": "Fatih", "addr:street": "\u0130zci T\u00fcrk Sokak", "amenity": "restaurant", "name": "Y\u00f6rem urfa ta\u015f f\u0131rn\u0131", "name:ar": "\u0641\u0631\u0646 \u064a\u0648\u0631\u064a\u0645 \u0623\u0648\u0631\u0641\u0627 \u0644\u0644\u062d\u0645 \u0628\u0639\u062c\u064a\u0646", "phone": "02125871023"}}, {"type": "node", "id": 5088194884, "lat": 41.0036105, "lon": 28.9318834, "tags": {"addr:city": "Istanbul", "addr:district": "Fatih", "addr:street": "Cambaziye Mektebi Sokak", "amenity": "restaurant", "name": "\u00c7evre Kebap", "name:ar": "\u062a\u0634\u064a\u0641\u0631\u064a \u0644\u0644\u0643\u0628\u0627\u0628", "phone": "02125858918"}}, {"type": "node", "id": 5088194885, "lat": 41.0035214, "lon": 28.9318186, "tags": {"addr:city": "Istanbul", "addr:district": "Fatih", "addr:street": "Cambaziye Mektebi Sokak", "amenity": "restaurant", "name": "Valide Kebap ve Lahmacun Salonu", "name:ar": "\u0648\u0627\u0644\u062f\u0629 \u0644\u0644\u0643\u0628\u0627\u0628 \u0648\u0644\u062d\u0645 \u0628\u0639\u062c\u064a\u0646", "phone": "02125877380"}}, {"type": "node", "id": 5088194886, "lat": 41.0034806, "lon": 28.9318477, "tags": {"addr:city": "Istanbul", "addr:district": "Fatih", "addr:street": "Cambaziye Mektebi Sokak", "amenity": "restaurant", "name": "K\u0131r\u0131ml\u0131 \u00c7ib\u00f6rek", "name:ar": "\u0643\u0631\u0645\u0644\u064a \u062a\u0634\u064a\u0628\u0648\u0631\u0643", "phone": "05350775515"}}, {"type": "node", "id": 5088194890, "lat": 41.0034466, "lon": 28.931286, "tags": {"addr:city": "Istanbul", "addr:district": "Fatih", "addr:street": "Berber \u015eefik Sokak", "amenity": "restaurant", "name": "\u015eafak pide ve lahmacun", "name:ar": "\u0634\u0641\u0642 \u0644\u0644\u0645\u0639\u062c\u0646\u0627\u062a \u0648\u0644\u062d\u0645 \u0628\u0639\u062c\u064a\u0646", "phone": "02125891332"}}, {"type": "node", "id": 5088194893, "lat": 41.0035024, "lon": 28.9312611, "tags": {"addr:city": "Istanbul", "addr:district": "Fatih", "addr:street": "Berber \u015eefik Sokak", "amenity": "restaurant", "name": "Her Telden \u00c7\u0131lg\u0131n Kebap\u00e7\u0131", "name:ar": "\u0647\u064a\u0631 \u062a\u064a\u0644\u062f\u0646 \u062a\u0634\u064a\u0644\u063a\u0646 \u0644\u0644\u0643\u0628\u0627\u0628", "phone": "02125864572"}}, {"type": "node", "id": 5088194897, "lat": 41.0033044, "lon": 28.9307078, "tags": {"addr:city": "Istanbul", "addr:district": "Fatih", "addr:street": "Milli M\u00fcdafaa Caddesi", "amenity": "restaurant", "name": "Urfal\u0131 \u00e7\u0131t\u0131r kadir lahmacun pide", "name:ar": "\u0623\u0648\u0631\u0641\u0644\u064a \u062a\u0634\u064a\u062a\u0631 \u0644\u062d\u0645 \u0628\u0639\u062c\u064a\u0646", "phone": "02125882763"}}, {"type": "node", "id": 5088194899, "lat": 41.0032234, "lon": 28.9307352, "tags": {"addr:city": "Istanbul", "addr:district": "Fatih", "addr:street": "Milli M\u00fcdafaa Caddesi", "amenity": "restaurant", "name": "Aziz Urfa Kebap ve Lahmacun Salonu", "name:ar": "\u0639\u0632\u064a\u0632 \u0623\u0648\u0631\u0641\u0627 \u0644\u0644\u0643\u0628\u0627\u0628 \u0648\u0644\u062d\u0645 \u0628\u0639\u062c\u064a\u0646", "phone": "02125882763"}}, {"type": "node", "id": 5088194904, "lat": 41.0021616, "lon": 28.9306013, "tags": {"addr:city": "Istanbul", "addr:district": "Fatih", "addr:street": "M\u00fctesellim Sokak", "amenity": "restaurant", "name": "Karde\u015fler Yufkac\u0131s\u0131", "name:ar": "\u0645\u0637\u0639\u0645 \u0643\u0627\u0631\u062f\u0634\u0644\u0627\u0631", "phone": "02125886885"}}, {"type": "node", "id": 5088194907, "lat": 41.0018061, "lon": 28.9300276, "tags": {"addr:city": "Istanbul", "addr:district": "Fatih", "addr:street": "Mercan Bal\u0131\u011f\u0131 Sokak", "amenity": "restaurant", "name": "Ay B\u00fcfe", "name:ar": "\u0622\u064a \u0628\u0648\u0641\u064a\u0647", "phone": "05345446303"}}, {"type": "node", "id": 5088194918, "lat": 41.0002128, "lon": 28.9311876, "tags": {"addr:city": "Istanbul", "addr:district": "Fatih", "addr:street": "02125291020", "amenity": "restaurant", "name": "Ba\u015flang\u0131\u00e7 Lokantas\u0131", "name:ar": "\u0645\u0637\u0639\u0645 \u0628\u0627\u0634\u0644\u0627\u0646\u063a\u064a\u062a\u0634"}}, {"type": "node", "id": 5088197322, "lat": 41.0000479, "lon": 28.9313967, "tags": {"addr:city": "Istanbul", "addr:district": "Fatih", "addr:street": "Sarraf Tahsin Sokak", "amenity": "restaurant", "name": "\u00d6zgul b\u00f6rek", "name:ar": "\u0623\u0648\u0632\u063a\u0648\u0644 \u0644\u0644\u0628\u0648\u0631\u0643"}},