{"version": 0.6, "generator": "Overpass API 0.7.60 f4c14d41", "osm3s": {"timestamp_osm_base": "2023-05-02T21:21:23Z", "copyright": "The data included in this document is from www.openstreetmap.org. The data is made available under ODbL."}, "elements": [{"type": "node", "id": 1591335375, "lat": 41.0071385, "lon": 28.9439459, "tags": {"historic": "monument", "name": "Bulgur Palas", "name:ar": "\u0628\u0648\u0644\u0643\u0648\u0631 \u0628\u0627\u0644\u0627\u0633"}}, {"type": "node", "id": 1591432126, "lat": 41.0097733, "lon": 28.9559374, "tags": {"historic": "monument", "name": "III. Mustafa T\u00fcrbes\u00e4", "name:en": "Mausoleum Sultan Mustafa Pasha III and his son Sultan Selim 3", "name:ru": "\u041c\u0430\u0432\u0437\u043e\u043b\u0435\u0439 \u0421\u0443\u043b\u0442\u0430\u043d\u0430 \u041c\u0443\u0441\u0442\u0430\u0444\u0430 3 \u0438 \u0435\u0433\u043e \u0441\u044b\u043d\u0430 \u0421\u0443\u043b\u0442\u0430\u043d\u0430 \u0421\u0435\u043b\u0438\u043c\u0430 3", "website": "https://www.wikiwand.com/tr/III._Mustafa_T%C3%BCrbesi", "wikimedia_commons": "Category:Tomb of Mustafa III"}}, {"type": "node", "id": 2282062752, "lat": 41.0219982, "lon": 28.5757305, "tags": {"historic": "monument", "name": "B\u00fcy\u00fck\u00e7ekmece Kervansaray (Kur\u015funlu Han)"}}, {"type": "node", "id": 2282062787, "lat": 41.0223139, "lon": 28.5741537, "tags": {"historic": "monument", "name": "B\u00fcy\u00fck\u00e7ekmece Kanuni Sultan S\u00fcleyman K\u00f6pr\u00fcs\u00fc"}}, {"type": "node", "id": 3383039241, "lat": 41.0087737, "lon": 28.9423415, "tags": {"historic": "monument", "name": "Bayram Pa\u015fa K\u00fclliyesi"}}, {"type": "node", "id": 3384627300, "lat": 40.9961969, "lon": 28.9285033, "tags": {"historic": "monument"}}, {"type": "node", "id": 4303108295, "lat": 41.0374102, "lon": 28.8831962, "tags": {"historic": "monument", "name": "Atat\u00fcrk An\u0131t\u0131"}}, {"type": "node", "id": 4330819713, "lat": 40.9922809, "lon": 28.8453447, "tags": {"historic": "monument", "name": "Atat\u00fcrk", "name:tr": "Atat\u00fcrk An\u0131t\u0131"}}, {"type": "node", "id": 5184094322, "lat": 40.9812405, "lon": 28.8738949, "tags": {"historic": "monument", "name": "Cumhuriyet Meydan\u0131", "name:en": "Republic Square"}}, {"type": "node", "id": 7651602485, "lat": 41.0191302, "lon": 28.5832365, "tags": {"historic": "monument", "name": "B\u00fcy\u00fck\u00e7ekmece Atat\u00fcrk An\u0131t\u0131"}}, {"type": "node", "id": 7651620473, "lat": 41.0207103, "lon": 28.5859734, "tags": {"historic": "monument", "name": "\u015eampiyonlar An\u0131t\u0131"}}, {"type": "node", "id": 9732000517, "lat": 41.033268, "lon": 28.9463358, "tags": {"historic": "monument", "name": "Yanbol sinagog"}}, {"type": "node", "id": 10029601210, "lat": 41.0316657, "lon": 28.9101915, "tags": {"historic": "monument", "name": "\u00dcsk\u00fcp Saat Kulesi"}}]}