{"version": 0.6, "generator": "Overpass API 0.7.60 f4c14d41", "osm3s": {"timestamp_osm_base": "2023-05-02T21:17:24Z", "copyright": "The data included in this document is from www.openstreetmap.org. The data is made available under ODbL."}, "elements": [{"type": "node", "id": 262402714, "lat": 41.0171629, "lon": 28.9698993, "tags": {"amenity": "restaurant", "name": "Hamdi", "name:ar": "\u062d\u0645\u062f\u064a"}}, {"type": "node", "id": 269507766, "lat": 41.0309965, "lon": 28.9748683, "tags": {"amenity": "restaurant", "name": "Pera Antakya"}}, {"type": "node", "id": 583222546, "lat": 40.9976571, "lon": 29.1456398, "tags": {"amenity": "restaurant", "name": "D\u00f6nerci Celal Usta", "website": "https://www.donercicelalusta.com/"}}, {"type": "node", "id": 586452166, "lat": 40.8936126, "lon": 29.1708429, "tags": {"amenity": "restaurant", "cuisine": "turkish", "name": "K\u00f6z Kanat", "name:ar": "\u0645\u0637\u0639\u0645 \u0643\u0648\u0632 \u0643\u0627\u0646\u0627\u062a"}}, {"type": "node", "id": 803882299, "lat": 40.98107, "lon": 29.0235259, "tags": {"amenity": "restaurant", "cuisine": "turkish", "name": "Lita Mant\u0131", "name:ar": "\u0645\u0637\u0639\u0645 \u0644\u064a\u062a\u0627 \u0645\u0627\u0646\u062a\u064a"}}, {"type": "node", "id": 903438877, "lat": 41.013559, "lon": 28.9858813, "tags": {"amenity": "restaurant", "description": "Restaurant setting with a la carte and self serve. Extortionate prices.", "name": "Konyal\u0131 Restaurant", "wheelchair": "limited"}}, {"type": "node", "id": 932366015, "lat": 41.0347422, "lon": 28.9780262, "tags": {"amenity": "restaurant", "name": "Imroz", "name:ar": "\u0625\u0645\u0631\u0648\u0632"}}, {"type": "node", "id": 1000022806, "lat": 41.009905, "lon": 28.9788475, "tags": {"amenity": "restaurant", "name": "Sultan Mehmet Restaurant & Cafe"}}, {"type": "node", "id": 1000023064, "lat": 41.011978, "lon": 28.9782237, "tags": {"amenity": "restaurant", "name": "The Port Shield Pub & Restaurant", "wheelchair": "no"}}, {"type": "node", "id": 1000033499, "lat": 41.0338973, "lon": 28.9780052, "tags": {"addr:postcode": "34000", "addr:street": "\u0130stiklal Caddesi", "amenity": "restaurant", "name:en": "Mahzen", "phone": "+902122490329", "wheelchair": "no"}}, {"type": "node", "id": 1000040085, "lat": 41.0454284, "lon": 29.0071038, "tags": {"amenity": "restaurant", "cuisine": "pizza"}}, {"type": "node", "id": 1315366033, "lat": 40.9974053, "lon": 29.1454225, "tags": {"amenity": "restaurant", "name": "Sultanahmet k\u00f6ftecisi"}}, {"type": "node", "id": 1352469368, "lat": 41.0211236, "lon": 29.0040752, "tags": {"addr:city": "\u00dcsk\u00fcdar - Istanbul", "addr:street": "Salancak, \u00dcsk\u00fcdar", "amenity": "restaurant", "name": "K\u0131z Kulesi", "name:ar": "\u0628\u0631\u062c \u0627\u0644\u0628\u0646\u0627\u062a \u0627\u0644\u062a\u0627\u0631\u064a\u062e\u064a", "name:en": "Maiden's tower", "name:es": "Torre de la doncella", "name:ru": "\u0414\u0435\u0432\u0438\u0447\u044c\u044f \u0431\u0430\u0448\u043d\u044f", "phone": "0216 342 47 47", "website": "https://www.geziyerler.com/kiz-kulesi", "wheelchair": "no", "wheelchair:description": "Refakat\u00e7ili de olsa tekerlekli sandalyeli i\u00e7in uygun de\u011fildir."}}, {"type": "node", "id": 1379749504, "lat": 40.7895179, "lon": 29.3404269, "tags": {"amenity": "restaurant", "cuisine": "turkish", "name": "Arzum Ev Yemekleri"}}, {"type": "node", "id": 1381653076, "lat": 40.9781809, "lon": 29.1070318, "tags": {"amenity": "restaurant", "cuisine": "turkish", "name": "zeythin", "name:ar": "\u0645\u0637\u0639\u0645 \u0632\u064a\u062b\u064a\u0646"}}, {"type": "node", "id": 1394863081, "lat": 40.9819815, "lon": 29.0229913, "tags": {"addr:city": "\u0130stanbul", "addr:neighbourhood": "Cafera\u011fa", "addr:street": "Moda Caddesi", "amenity": "restaurant", "cuisine": "kebab", "name": "Kolombo Kebap", "name:ar": "\u0645\u0637\u0639\u0645 \u0643\u0648\u0644\u0648\u0645\u0628\u0648 \u0643\u0628\u0627\u0628", "phone": "0216 338 1508", "wheelchair": "limited", "wheelchair:description": "Giri\u015f d\u00fcz ayak, masa y\u00fcksekliklerinin tekerlekli kullan\u0131m\u0131na uygun lokantada engelli wc yoktur. 72 kapasiteli bir i\u015fletmedir."}}, {"type": "node", "id": 1457277891, "lat": 40.9789087, "lon": 29.0250932}, {"type": "node", "id": 1457277894, "lat": 40.978982, "lon": 29.0249967}, {"type": "node", "id": 1457277895, "lat": 40.9789977, "lon": 29.0252116}, {"type": "node", "id": 1457277896, "lat": 40.9790709, "lon": 29.0251151}, {"type": "node", "id": 1501426221, "lat": 40.9894114, "lon": 29.0243109, "tags": {"addr:postcode": "34710", "amenity": "restaurant", "cuisine": "turkish", "email": "info@ciya.com.tr", "fax": "(216) 349 19 02", "name": "\u00c7iya Kebap", "name:ar": "\u0645\u0637\u0639\u0645 \u062c\u064a\u0627 \u0643\u0628\u0627\u0628", "phone": "(216) 336 30 13", "website": "http://www.ciya.com.tr"}}, {"type": "node", "id": 1548537973, "lat": 40.90824, "lon": 29.0554, "tags": {"amenity": "restaurant", "cuisine": "regional;turkish"}}, {"type": "node", "id": 1578095840, "lat": 40.8781894, "lon": 29.0535953, "tags": {"addr:housenumber": "42", "addr:postcode": "34975", "addr:street": "Kalpazankaya Yolu sok.", "amenity": "restaurant", "cuisine": "turkish", "email": "info@kalpazankaya.com.tr", "name": "Kalpazankaya Restaurant", "name:ar": "\u0645\u0637\u0639\u0645 \u0643\u0627\u0644\u0627 \u0628\u0627\u0632\u0627\u0646\u0643\u0627\u064a\u0627", "opening_hours": "Mo-Su 12:00-00:00", "phone": "02163811111", "website": "http://www.kalpazankaya.com.tr"}}, {"type": "node", "id": 1651645640, "lat": 41.0242307, "lon": 28.9739726, "tags": {"amenity": "restaurant", "cuisine": "greek", "name": "Ege Rum Meyhanesi", "name:ar": "\u0645\u0637\u0639\u0645 \u0627\u064a\u062c \u0631\u0648\u0645 \u0645\u064a\u0647\u0627\u0646\u0633\u064a"}}, {"type": "node", "id": 1665037883, "lat": 41.0325552, "lon": 28.9757155, "tags": {"amenity": "restaurant", "cuisine": "turkish;fish", "name": "F\u0131cc\u0131n", "name:ar": "\u0645\u0637\u0639\u0645 \u0641\u064a\u062c\u0646 \u0644\u0644\u0627\u0633\u0645\u0627\u0643"}}, {"type": "node", "id": 1665037887, "lat": 41.0327089, "lon": 28.9751817, "tags": {"addr:housenumber": "51", "addr:street": "Me\u015frutiyet Caddesi", "amenity": "restaurant", "cuisine": "thai", "name": "\u00c7ok \u00c7ok Thai Restaurant", "name:ar": "\u0645\u0637\u0639\u0645 \u062a\u0634\u0648\u0643 \u062a\u0634\u0648\u0643", "opening_hours": "Mo 18:00-23:45; Tu-Su 12:00-23:45", "phone": "+90 212 292 64 96", "website": "https://www.cokcok.com.tr/", "wheelchair": "limited"}}, {"type": "node", "id": 1686930450, "lat": 41.0296393, "lon": 28.9750264, "tags": {"amenity": "restaurant", "name": "Ottaman Burger", "name:ar": "\u0628\u0631\u063a\u0631 \u0627\u0648\u062a\u0645\u0627\u0646"}}, {"type": "node", "id": 1686930451, "lat": 41.0290262, "lon": 28.9740554, "tags": {"amenity": "restaurant", "name": "Helvetia", "name:ar": "\u0645\u0637\u0639\u0645 \u0647\u064a\u0644\u0641\u064a\u062a\u064a\u0627"}}, {"type": "node", "id": 1697174881, "lat": 41.0439223, "lon": 29.002724, "tags": {"amenity": "restaurant", "brand": "Loving Hut", "brand:wikidata": "Q3491655", "brand:wikipedia": "en:Loving Hut", "cuisine": "international", "diet:vegan": "only", "diet:vegetarian": "only", "name": "Loving Hut"}}, {"type": "node", "id": 1727642226, "lat": 41.0317585, "lon": 29.2595179, "tags": {"amenity": "restaurant", "cuisine": "turkish", "name": "cOZy"}}, {"type": "node", "id": 1757620438, "lat": 40.985621, "lon": 29.0495079}, {"type": "node", "id": 1762077465, "lat": 41.0026967, "lon": 28.9742648, "tags": {"addr:city": "istanbul", "addr:housename": "Cheers", "addr:housenumber": "18", "addr:street": "\u00e7ay\u0131roglu Sk.", "amenity": "restaurant", "capacity": "40", "cuisine": "Turkish_and_International", "name": "Cheers Soul Kitchen", "name:ar": "\u0645\u0637\u0628\u062e \u062a\u0634\u064a\u0631 \u0633\u0648\u0644"}}, {"type": "node", "id": 1762082631, "lat": 41.0029302, "lon": 28.9755855, "tags": {"amenity": "restaurant", "name": "Boukoleon Fish Restaurant", "name:ar": "\u0645\u0637\u0639\u0645 \u0633\u0645\u0643 \u0628\u0648\u0643\u0648\u0644\u064a\u064a\u0646", "website": "http://www.boukoleon.com/"}}, {"type": "node", "id": 1762083460, "lat": 41.0031733, "lon": 28.9745331, "tags": {"amenity": "restaurant", "name": "Sultan\u2019s Inn", "name:ar": "\u0645\u0637\u0639\u0645 \u0633\u0644\u0637\u0627\u0646 \u0625\u0646", "tourism": "hotel", "website": "https://www.sultansinn.com/"}}, {"type": "node", "id": 1769514222, "lat": 41.0166939, "lon": 28.9625453, "tags": {"amenity": "restaurant", "cuisine": "regional", "name": "Daruzziyafe", "name:ar": "\u062f\u0627\u0631\u0648\u0632\u064a\u064a\u0627\u0641\u064a", "wheelchair": "limited"}}, {"type": "node", "id": 1784925344, "lat": 41.009299, "lon": 28.9810598, "tags": {"amenity": "restaurant", "cuisine": "turkish", "name": "Karakol Restaurant"}}, {"type": "node", "id": 1784925350, "lat": 41.0098698, "lon": 28.9795524, "tags": {"amenity": "restaurant", "name": "Sarnic Restaurant"}}, {"type": "node", "id": 1784925351, "lat": 41.0097888, "lon": 28.9794451, "tags": {"air_conditioning": "yes", "amenity": "restaurant", "indoor_seating": "yes", "name": "Sofia", "opening_hours": "Mo-Su 11:00-23:00", "outdoor_seating": "yes", "payment:credit_cards": "yes", "payment:debit_cards": "yes", "wheelchair": "no"}}, {"type": "node", "id": 1808533830, "lat": 41.0037672, "lon": 28.9808379, "tags": {"amenity": "restaurant", "cuisine": "turkish", "name": "Giritli", "name:ar": "\u0643\u0631\u064a\u062a\u0644\u0650\u064a"}}, {"type": "node", "id": 1832071149, "lat": 41.036163, "lon": 28.979663, "tags": {"amenity": "restaurant", "cuisine": "turkish", "name": "Mangal Keyfi"}}, {"type": "node", "id": 1863736121, "lat": 40.9490212, "lon": 29.1062056, "tags": {"amenity": "restaurant", "cuisine": "seafood", "name": "F\u0131rt\u0131na Restoran"}}, {"type": "node", "id": 1867006340, "lat": 40.977739, "lon": 29.0802212, "tags": {"amenity": "restaurant", "cuisine": "pizza", "name": "Murat Karadeniz Pide"}}, {"type": "node", "id": 1867006726, "lat": 40.9772048, "lon": 29.0792173, "tags": {"amenity": "restaurant", "cuisine": "turkish", "name": "C\u0131zb\u0131z K\u00f6fte"}}, {"type": "node", "id": 1895518914, "lat": 40.9756445, "lon": 29.1015305}, {"type": "node", "id": 1897247330, "lat": 40.9832314, "lon": 29.1063745}, {"type": "node", "id": 1897247331, "lat": 40.9833413, "lon": 29.1064106}, {"type": "node", "id": 1897247338, "lat": 40.9832977, "lon": 29.1066432}, {"type": "node", "id": 1897247415, "lat": 40.9831878, "lon": 29.1066071}, {"type": "node", "id": 1898334690, "lat": 41.0245922, "lon": 28.980028, "tags": {"amenity": "restaurant", "cuisine": "international;regional;michelin_starred", "name": "Karak\u00f6y Lokantas\u0131"}}, {"type": "node", "id": 1900626451, "lat": 41.004076, "lon": 28.9821362, "tags": {"amenity": "restaurant"}}, {"type": "node", "id": 1908677120, "lat": 41.0072661, "lon": 28.9791652, "tags": {"amenity": "restaurant", "cuisine": "turkish", "name": "Mihri", "wheelchair": "limited"}}, {"type": "node", "id": 1909658610, "lat": 41.0395558, "lon": 28.9847147, "tags": {"amenity": "restaurant", "cuisine": "chinese", "name": "Ming Garden"}}, {"type": "node", "id": 1912881340, "lat": 41.0395385, "lon": 28.9834201, "tags": {"amenity": "restaurant", "cuisine": "korean", "name": "Gaya"}}, {"type": "node", "id": 1912881345, "lat": 41.0397676, "lon": 28.985416, "tags": {"amenity": "restaurant", "cuisine": "korean", "name": "Taksim Karaoke"}}, {"type": "node", "id": 1912881346, "lat": 41.0405112, "lon": 28.9853334, "tags": {"amenity": "restaurant", "cuisine": "japanese", "name": "Udonya Japanese Restaurant", "opening_hours": "Mo-Su 12:00-22:00"}}, {"type": "node", "id": 1914160115, "lat": 41.0064234, "lon": 28.9808349, "tags": {"amenity": "restaurant", "cuisine": "mediterranean", "name": "Divella", "phone": "05334329863"}}, {"type": "node", "id": 1914160119, "lat": 41.0099971, "lon": 28.9794755, "tags": {"amenity": "restaurant", "name": "Cistern Restaurant"}}, {"type": "node", "id": 1914160123, "lat": 41.0030316, "lon": 28.9753442, "tags": {"amenity": "restaurant", "cuisine": "seafood", "name": "Karina Fish House", "name:ar": "\u0645\u0637\u0639\u0645 \u0643\u0627\u0631\u064a\u0646\u0627 \u0641\u0634 \u0647\u0627\u0648\u0633"}}, {"type": "node", "id": 1914160124, "lat": 41.0033965, "lon": 28.9742599, "tags": {"addr:housenumber": "10", "addr:street": "Cankurtaran Meydan\u0131", "amenity": "restaurant", "cuisine": "asian", "email": "hansarang.istanbul@gmail.com", "name": "Korean Chinese", "name:ar": "\u0645\u0637\u0639\u0643 \u0643\u0648\u0631\u064a \u0635\u064a\u0646\u064a", "phone": "+902125161128"}}, {"type": "node", "id": 1914160125, "lat": 41.0031267, "lon": 28.9743156, "tags": {"amenity": "restaurant", "cuisine": "italian", "name": "Nostra Casa", "name:ar": "\u0645\u0637\u0639\u0645 \u0646\u0648\u0633\u062a\u0631\u0627 \u0643\u0627\u0633\u0627"}}, {"type": "node", "id": 1914160126, "lat": 41.0053655, "lon": 28.9800889, "tags": {"amenity": "restaurant", "cuisine": "korean", "name": "Seoul II Restaurant"}}, {"type": "node", "id": 1915390150, "lat": 41.0278772, "lon": 28.9738042, "tags": {"amenity": "restaurant", "cuisine": "italian", "name": "Kom\u00fcn", "website": "https://www.komunistanbul.com/", "wheelchair": "no"}}, {"type": "node", "id": 1920239631, "lat": 40.9905661, "lon": 29.0247947, "tags": {"amenity": "restaurant", "name": "Pehlivan"}}, {"type": "node", "id": 1988225442, "lat": 40.9025075, "lon": 29.2159761, "tags": {"amenity": "restaurant", "cuisine": "turkish", "name": "Tepeli Restaturant"}}, {"type": "node", "id": 2048295680, "lat": 41.00513, "lon": 28.96371, "tags": {"amenity": "restaurant", "cuisine": "regional", "name": "Lokanta", "name:ar": "\u0644\u0648\u0643\u0627\u0646\u062a\u0627"}}, {"type": "node", "id": 2183038364, "lat": 41.0323733, "lon": 28.9808497, "tags": {"amenity": "restaurant", "cuisine": "turkish", "name": "\u00c7ukurcuma K\u00f6ftecisi"}}, {"type": "node", "id": 2246615303, "lat": 40.9892865, "lon": 29.0242302, "tags": {"addr:housenumber": "43", "addr:street": "Cafera\u011fa Mh.", "amenity": "restaurant", "cuisine": "turkish", "name": "\u00c7iya Sofras\u0131", "phone": "+90 216 330 3190 \u200e", "website": "http://www.ciya.com.tr/"}}, {"type": "node", "id": 2246639022, "lat": 41.0345169, "lon": 28.9824605, "tags": {"addr:housenumber": "2", "addr:street": "B\u00fcy\u00fckparmakkap\u0131 Tel Sokak", "amenity": "restaurant", "contact:phone": "+90 212 292 32 72", "diet:vegetarian": "only", "name": "Klemuri", "website": "http://www.klemuri.com/www.klemuri.com/ANASAYFA.html"}}, {"type": "node", "id": 2249787153, "lat": 41.0062489, "lon": 28.969526, "tags": {"amenity": "restaurant", "cuisine": "regional", "internet_access": "no", "name": "sultan's kitchen", "name:ar": "\u0645\u0637\u0639\u0645 \u0627\u0644\u0633\u0644\u0637\u0627\u0646", "smoking": "no"}}, {"type": "node", "id": 2258710184, "lat": 41.0279801, "lon": 29.1911301, "tags": {"amenity": "restaurant", "name": "Naml\u0131 Kebap"}}, {"type": "node", "id": 2260490070, "lat": 41.0268714, "lon": 29.1809375, "tags": {"amenity": "restaurant"}}, {"type": "node", "id": 2268490408, "lat": 41.0136856, "lon": 29.1900765}, {"type": "node", "id": 2268490409, "lat": 41.0135018, "lon": 29.1900781}, {"type": "node", "id": 2268490410, "lat": 41.0136048, "lon": 29.1903891}, {"type": "node", "id": 2271597481, "lat": 40.9873667, "lon": 29.1203645}, {"type": "node", "id": 2320228860, "lat": 40.8281544, "lon": 29.421967}, {"type": "node", "id": 2337866958, "lat": 41.0325098, "lon": 29.0261097}, {"type": "node", "id": 2337866960, "lat": 41.0325304, "lon": 29.0262355}, {"type": "node", "id": 2337866961, "lat": 41.0325459, "lon": 29.0260757}, {"type": "node", "id": 2337866962, "lat": 41.0325496, "lon": 29.0260983}, {"type": "node", "id": 2337866965, "lat": 41.0326056, "lon": 29.0260585}, {"type": "node", "id": 2337866967, "lat": 41.0326095, "lon": 29.0260822}, {"type": "node", "id": 2337866970, "lat": 41.0326425, "lon": 29.0260727}, {"type": "node", "id": 2337866971, "lat": 41.032663, "lon": 29.0261974}, {"type": "node", "id": 2380564071, "lat": 41.0357323, "lon": 28.9835307, "tags": {"amenity": "restaurant", "name": "Hatay Medeniyetler Sofrasi", "name:ar": "\u0645\u0637\u0639\u0645 \u0627\u0644\u0645\u062f\u064a\u0646\u0629", "website": "http://hataymedeniyetlersofrasi.com.tr/"}}, {"type": "node", "id": 2380579595, "lat": 40.8513286, "lon": 29.4005636, "tags": {"addr:city": "\u015eekerpinar K\u00f6y\u00fc", "addr:country": "TR", "addr:housenumber": "150", "addr:street": "Fevzi \u00c7akmak Caddesi", "amenity": "restaurant", "name": "Ser\u00e7e\u015fme"}}, {"type": "node", "id": 2386823975, "lat": 40.8635367, "lon": 28.9930671}, {"type": "node", "id": 2386823979, "lat": 40.8636203, "lon": 28.9933131}, {"type": "node", "id": 2386823980, "lat": 40.8637253, "lon": 28.9929551}, {"type": "node", "id": 2386823985, "lat": 40.8640313, "lon": 28.9938557}, {"type": "node", "id": 2398492562, "lat": 40.8571895, "lon": 29.1203034}, {"type": "node", "id": 2398492564, "lat": 40.8572833, "lon": 29.1204406}, {"type": "node", "id": 2398492566, "lat": 40.8573111, "lon": 29.1201581}, {"type": "node", "id": 2398492567, "lat": 40.8574049, "lon": 29.1202953}, {"type": "node", "id": 2401026441, "lat": 40.8906189, "lon": 29.2535639, "tags": {"addr:city": "\u0130stanbul", "addr:country": "TR", "addr:district": "Pendik", "addr:neighbourhood": "Dumlup\u0131nar Mahallesi", "addr:postcode": "34896", "addr:street": "G\u00f6zda\u011f\u0131 Caddesi", "amenity": "restaurant", "drive_in": "yes", "internet_access": "wlan", "internet_access:fee": "yes", "name": "G\u00f6zda\u011f\u0131 Sosyal Tesisleri", "outdoor_seating": "yes", "phone": "+90 216 444 10 34", "smoking": "yes", "website": "https://tesislerimiz.ibb.istanbul/gozdagi-sosyal-tesisi/"}}, {"type": "node", "id": 2433366990, "lat": 40.9851586, "lon": 29.0267607, "tags": {"amenity": "restaurant", "name": "Asmakat"}}, {"type": "node", "id": 2433366996, "lat": 40.9872396, "lon": 29.0277667, "tags": {"amenity": "restaurant", "brand": "Handmade Burger Co.", "brand:wikidata": "Q56154673", "brand:wikipedia": "en:Handmade Burger Co", "cuisine": "burger", "name": "Handmade Burger Co."}}, {"type": "node", "id": 2433367002, "lat": 40.986734, "lon": 29.0267759, "tags": {"amenity": "restaurant", "name": "Kimyon"}}, {"type": "node", "id": 2433367006, "lat": 40.9872627, "lon": 29.0275241, "tags": {"amenity": "restaurant", "name": "My Chef"}}, {"type": "node", "id": 2433367009, "lat": 40.987158, "lon": 29.027725, "tags": {"amenity": "restaurant", "name": "Pidenem"}}, {"type": "node", "id": 2433572998, "lat": 40.9812268, "lon": 29.0226592, "tags": {"amenity": "restaurant", "cuisine": "pizza", "name": "Rosa"}}, {"type": "node", "id": 2433671847, "lat": 40.9819366, "lon": 29.0229711, "tags": {"addr:street": "Moda Caddesi", "amenity": "restaurant", "cuisine": "turkish", "name": "K\u00f6y\u00fcm Pidecisi", "toilets:wheelchair": "no", "wheelchair": "limited"}}, {"type": "node", "id": 2433671856, "lat": 40.9873504, "lon": 29.0260508, "tags": {"addr:postcode": "34710", "air_conditioning": "yes", "amenity": "restaurant", "bar": "yes", "check_date": "2023-02-19", "contact:instagram": "viktorlevimoda", "cuisine": "steak_house;turkish", "name": "Viktor Levi \u015earap Evi", "name:en": "Viktor Levi Wine House", "outdoor_seating": "yes", "source": "survey", "start_date": "1914-01-01", "website": "http://viktorlevimoda.com", "wheelchair": "no"}}, {"type": "node", "id": 2434578193, "lat": 40.9642561, "lon": 29.0588068}, {"type": "node", "id": 2434578195, "lat": 40.9643433, "lon": 29.058576}, {"type": "node", "id": 2434578199, "lat": 40.9643947, "lon": 29.0588986}, {"type": "node", "id": 2434578201, "lat": 40.9644819, "lon": 29.0586678}, {"type": "node", "id": 2434610505, "lat": 40.9649076, "lon": 29.0658986, "tags": {"amenity": "restaurant", "name": "Havelka", "opening_hours": "PH,Mo-Su 09:00-14:00"}}, {"type": "node", "id": 2436912680, "lat": 40.9814605, "lon": 29.0372757, "tags": {"amenity": "restaurant", "name": "Khalkedon Kalam\u0131\u015f"}}, {"type": "node", "id": 2437539255, "lat": 40.9768494, "lon": 29.0411515}, {"type": "node", "id": 2437539256, "lat": 40.9769492, "lon": 29.0413915}, {"type": "node", "id": 2437539257, "lat": 40.9769539, "lon": 29.0410753}, {"type": "node", "id": 2437539258, "lat": 40.9770536, "lon": 29.0413153}, {"type": "node", "id": 2437947616, "lat": 40.9801377, "lon": 29.0244884}, {"type": "node", "id": 2440991470, "lat": 40.9802068, "lon": 29.0245925}, {"type": "node", "id": 2442359914, "lat": 40.9806759, "lon": 29.0360895}, {"type": "node", "id": 2442359917, "lat": 40.9807355, "lon": 29.0361864}, {"type": "node", "id": 2442359920, "lat": 40.980853, "lon": 29.0358982}, {"type": "node", "id": 2442359921, "lat": 40.9809106, "lon": 29.0359932}, {"type": "node", "id": 2445138826, "lat": 40.9911042, "lon": 29.023952, "tags": {"amenity": "restaurant", "name": "Chicken Last Stop"}}, {"type": "node", "id": 2445188954, "lat": 40.9904416, "lon": 29.0294732, "tags": {"amenity": "restaurant", "name": "K\u00f6fteci Ramiz"}}, {"type": "node", "id": 2445263836, "lat": 40.990307, "lon": 29.0239636, "tags": {"addr:housenumber": "13", "addr:postcode": "34710", "addr:street": "Muvakk\u0131thane Caddesi", "amenity": "restaurant", "name": "Ekspres \u0130neg\u00f6l K\u00f6ftecisi", "website": "https://www.ekspresinegolkoftecisi.com/index.cgi?sayfa=subeler"}}, {"type": "node", "id": 2445263859, "lat": 40.9890527, "lon": 29.024041, "tags": {"amenity": "restaurant", "name": "\u015eelale"}}, {"type": "node", "id": 2445278893, "lat": 40.9849205, "lon": 29.026631, "tags": {"amenity": "restaurant", "name": "T\u00f6rek"}}, {"type": "node", "id": 2447059821, "lat": 41.0392709, "lon": 29.0529601}, {"type": "node", "id": 2447059822, "lat": 41.0391134, "lon": 29.0529169}, {"type": "node", "id": 2447059823, "lat": 41.0390917, "lon": 29.0530682}, {"type": "node", "id": 2447059824, "lat": 41.039251, "lon": 29.0531186}, {"type": "node", "id": 2447545121, "lat": 40.9738135, "lon": 29.0353293}, {"type": "node", "id": 2447545124, "lat": 40.9738224, "lon": 29.0353777}, {"type": "node", "id": 2447545126, "lat": 40.9738249, "lon": 29.0352909}, {"type": "node", "id": 2447545128, "lat": 40.9738413, "lon": 29.0354161}, {"type": "node", "id": 2447545130, "lat": 40.9738488, "lon": 29.0352625}, {"type": "node", "id": 2447545136, "lat": 40.9738703, "lon": 29.0354395}, {"type": "node", "id": 2447545138, "lat": 40.9738766, "lon": 29.0359154}, {"type": "node", "id": 2447545142, "lat": 40.9738829, "lon": 29.0352552}, {"type": "node", "id": 2447545144, "lat": 40.9739018, "lon": 29.0352625}, {"type": "node", "id": 2447545147, "lat": 40.9739094, "lon": 29.0360657}, {"type": "node", "id": 2447545148, "lat": 40.9739283, "lon": 29.0357735}, {"type": "node", "id": 2447545149, "lat": 40.9739295, "lon": 29.0353109}, {"type": "node", "id": 2447545151, "lat": 40.9739585, "lon": 29.0357351}, {"type": "node", "id": 2447545153, "lat": 40.9739901, "lon": 29.0361542}, {"type": "node", "id": 2447545154, "lat": 40.974038, "lon": 29.036181}, {"type": "node", "id": 2447545156, "lat": 40.9740392, "lon": 29.0357351}, {"type": "node", "id": 2447545157, "lat": 40.9740771, "lon": 29.0361776}, {"type": "node", "id": 2447545159, "lat": 40.9740783, "lon": 29.0360607}, {"type": "node", "id": 2447545160, "lat": 40.9741023, "lon": 29.0361593}, {"type": "node", "id": 2447545162, "lat": 40.9741199, "lon": 29.0359422}, {"type": "node", "id": 2447545167, "lat": 40.9741767, "lon": 29.0359154}, {"type": "node", "id": 2447545170, "lat": 40.9741842, "lon": 29.0358436}, {"type": "node", "id": 2447545171, "lat": 40.9741918, "lon": 29.0358854}, {"type": "node", "id": 2447889136, "lat": 40.9756904, "lon": 29.0399012}, {"type": "node", "id": 2447889140, "lat": 40.9757492, "lon": 29.040156}, {"type": "node", "id": 2447889145, "lat": 40.9760462, "lon": 29.0411689}, {"type": "node", "id": 2447889146, "lat": 40.976043, "lon": 29.04126}, {"type": "node", "id": 2447889147, "lat": 40.9760338, "lon": 29.0399529}, {"type": "node", "id": 2447889148, "lat": 40.9760108, "lon": 29.0397722}, {"type": "node", "id": 2447889149, "lat": 40.9760237, "lon": 29.0400412}, {"type": "node", "id": 2447889150, "lat": 40.9761255, "lon": 29.0411751}, {"type": "node", "id": 2447889151, "lat": 40.976123, "lon": 29.0412648}, {"type": "node", "id": 2447889152, "lat": 40.9760395, "lon": 29.0399006}, {"type": "node", "id": 2449655755, "lat": 40.9855903, "lon": 29.0275689, "tags": {"amenity": "restaurant", "name": "Zevk Lokanta"}}, {"type": "node", "id": 2449858606, "lat": 40.9802151, "lon": 29.0243754}, {"type": "node", "id": 2449949823, "lat": 40.9802707, "lon": 29.024547}, {"type": "node", "id": 2450051863, "lat": 40.9863485, "lon": 29.0266732}, {"type": "node", "id": 2450051867, "lat": 40.9863877, "lon": 29.0265575}, {"type": "node", "id": 2450051871, "lat": 40.9864067, "lon": 29.0268763}, {"type": "node", "id": 2450051875, "lat": 40.9864383, "lon": 29.0267264}, {"type": "node", "id": 2450051878, "lat": 40.9864742, "lon": 29.0266826}, {"type": "node", "id": 2450075006, "lat": 40.9915565, "lon": 29.0313696, "tags": {"amenity": "restaurant", "name": "Pehlivan"}}, {"type": "node", "id": 2450994885, "lat": 40.9815478, "lon": 29.0219332, "tags": {"amenity": "restaurant", "name": "Casa di Moda"}}, {"type": "node", "id": 2452245667, "lat": 40.9759597, "lon": 29.0404093}, {"type": "node", "id": 2452245668, "lat": 40.9760705, "lon": 29.0401813}, {"type": "node", "id": 2452245670, "lat": 40.9761088, "lon": 29.0400929}, {"type": "node", "id": 2452245671, "lat": 40.9761608, "lon": 29.0400162}, {"type": "node", "id": 2452245672, "lat": 40.976053, "lon": 29.0407807}, {"type": "node", "id": 2452245674, "lat": 40.9762226, "lon": 29.0399174}, {"type": "node", "id": 2452245676, "lat": 40.9762825, "lon": 29.0398668}, {"type": "node", "id": 2452245677, "lat": 40.9762911, "lon": 29.0394323}, {"type": "node", "id": 2452245678, "lat": 40.9763101, "lon": 29.0406996}, {"type": "node", "id": 2452245680, "lat": 40.9763487, "lon": 29.0408705}, {"type": "node", "id": 2452245682, "lat": 40.9763958, "lon": 29.0399448}, {"type": "node", "id": 2452245683, "lat": 40.9764504, "lon": 29.0406456}, {"type": "node", "id": 2452245684, "lat": 40.9764466, "lon": 29.0406254}, {"type": "node", "id": 2452245686, "lat": 40.9764878, "lon": 29.0408182}, {"type": "node", "id": 2452245688, "lat": 40.976615, "lon": 29.0393026}, {"type": "node", "id": 2452245689, "lat": 40.97672, "lon": 29.0398167}, {"type": "node", "id": 2452939569, "lat": 40.9766916, "lon": 29.0416495}, {"type": "node", "id": 2452939570, "lat": 40.9767408, "lon": 29.0419051}, {"type": "node", "id": 2452939572, "lat": 40.9768287, "lon": 29.0416037}, {"type": "node", "id": 2452939573, "lat": 40.976883, "lon": 29.0418552}, {"type": "node", "id": 2453594560, "lat": 40.9908089, "lon": 29.026728, "tags": {"amenity": "restaurant", "name": "Pehlivan"}}, {"type": "node", "id": 2456302519, "lat": 40.9822358, "lon": 29.0370155}, {"type": "node", "id": 2456302522, "lat": 40.9823656, "lon": 29.0368457}, {"type": "node", "id": 2456302523, "lat": 40.982423, "lon": 29.0372417}, {"type": "node", "id": 2456302524, "lat": 40.9825339, "lon": 29.037074}, {"type": "node", "id": 2457359532, "lat": 41.0165944, "lon": 29.0105497}, {"type": "node", "id": 2457359534, "lat": 41.016644, "lon": 29.0106586}, {"type": "node", "id": 2457359535, "lat": 41.0167975, "lon": 29.0105436}, {"type": "node", "id": 2457359537, "lat": 41.0168347, "lon": 29.0103607}, {"type": "node", "id": 2457875192, "lat": 40.9860224, "lon": 29.049357}, {"type": "node", "id": 2459760381, "lat": 40.9815647, "lon": 29.0382383}, {"type": "node", "id": 2459760383, "lat": 40.9813791, "lon": 29.038077}, {"type": "node", "id": 2459760386, "lat": 40.9814905, "lon": 29.0378785}, {"type": "node", "id": 2459760388, "lat": 40.9816619, "lon": 29.0380345}, {"type": "node", "id": 2459942395, "lat": 40.9766474, "lon": 29.039494}, {"type": "node", "id": 2459942399, "lat": 40.9763261, "lon": 29.0396171}, {"type": "node", "id": 2459942402, "lat": 40.9763387, "lon": 29.0401297}, {"type": "node", "id": 2461026759, "lat": 40.9729054, "lon": 29.074449, "tags": {"amenity": "restaurant", "name": "\u015e\u00f6len", "website": "https://solendoner.com/"}}, {"type": "node", "id": 2465881545, "lat": 40.988153, "lon": 29.0282951, "tags": {"amenity": "restaurant", "name": "Happy Moon's Kad\u0131k\u00f6y"}}, {"type": "node", "id": 2469081645, "lat": 40.970003, "lon": 29.0387508}, {"type": "node", "id": 2469081647, "lat": 40.9702152, "lon": 29.0382543}, {"type": "node", "id": 2469081649, "lat": 40.9701282, "lon": 29.0388496}, {"type": "node", "id": 2469081650, "lat": 40.9703396, "lon": 29.0383472}, {"type": "node", "id": 2469081652, "lat": 40.971003, "lon": 29.0386272}, {"type": "node", "id": 2469081654, "lat": 40.971009, "lon": 29.0384325}, {"type": "node", "id": 2469081655, "lat": 40.971409, "lon": 29.038919}, {"type": "node", "id": 2469081657, "lat": 40.9713887, "lon": 29.0384389}, {"type": "node", "id": 2469162828, "lat": 40.952472, "lon": 29.0944644}, {"type": "node", "id": 2469162829, "lat": 40.9524741, "lon": 29.0945552}, {"type": "node", "id": 2469162831, "lat": 40.9524834, "lon": 29.094605}, {"type": "node", "id": 2469162833, "lat": 40.9525027, "lon": 29.094648}, {"type": "node", "id": 2469162834, "lat": 40.9525413, "lon": 29.0942947}, {"type": "node", "id": 2469162836, "lat": 40.9525443, "lon": 29.0947027}, {"type": "node", "id": 2469162847, "lat": 40.9526782, "lon": 29.0944016}, {"type": "node", "id": 2469886159, "lat": 40.9568872, "lon": 29.0875306, "tags": {"amenity": "restaurant", "name": "SushiCo Suadiye"}}, {"type": "node", "id": 2469886173, "lat": 40.9527134, "lon": 29.0962782, "tags": {"amenity": "restaurant", "name": "\u00c7\u0131naralt\u0131 Mangalba\u015f\u0131"}}, {"type": "node", "id": 2475512656, "lat": 40.9716441, "lon": 29.0384856, "tags": {"amenity": "restaurant", "barrier": "wall", "name": "Belv\u00fc Jardin Restaurant"}}, {"type": "node", "id": 2509855436, "lat": 41.0088964, "lon": 28.9696383, "tags": {"addr:housenumber": "4a", "addr:street": "Atik Alipasa Sokak", "amenity": "restaurant", "name": "Seyhmuz Kebap", "name:ar": "\u0643\u0628\u0627\u0628 \u0633\u064a\u0647\u0645\u0648\u0632", "name:ru": "\u0428\u0435\u0439\u0445\u043c\u0443\u0437 \u041a\u0435\u0431\u0430\u043f"}}, {"type": "node", "id": 2509855438, "lat": 41.0321847, "lon": 28.9830065, "tags": {"amenity": "restaurant", "name": "Otto Cihangir", "phone": "0212 293 96 17", "website": "http://www.ottotr.org"}}, {"type": "node", "id": 2514278413, "lat": 40.9980943, "lon": 29.1399781, "tags": {"amenity": "restaurant", "name": "Ku\u011fu Pastanesi", "website": "https://www.kugupastaneleri.com/"}}, {"type": "node", "id": 2514371514, "lat": 40.9998558, "lon": 29.1432449, "tags": {"amenity": "restaurant", "cuisine": "regional", "name": "Kalbur", "website": "https://kalburet.com/"}}, {"type": "node", "id": 2514379385, "lat": 41.00909, "lon": 29.1354605, "tags": {"amenity": "restaurant", "name": "E Balik"}}, {"type": "node", "id": 2514720615, "lat": 41.0108326, "lon": 29.1599858, "tags": {"amenity": "restaurant", "cuisine": "turkish;regional", "delivery": "no", "name": "Ziya \u015eark Sofras\u0131", "outdoor_seating": "yes", "smoking": "isolated"}}, {"type": "node", "id": 2514720616, "lat": 41.0112085, "lon": 29.1594796, "tags": {"amenity": "restaurant", "name": "Ziya \u015eark Sofras\u0131"}}, {"type": "node", "id": 2514747642, "lat": 41.0083361, "lon": 29.1383639, "tags": {"amenity": "restaurant", "name": "Hasan Usta"}}, {"type": "node", "id": 2514763937, "lat": 41.0277645, "lon": 29.1373818, "tags": {"amenity": "restaurant", "name": "Orman Cafe & Restaurant", "website": "www.ormancafe.net"}}, {"type": "node", "id": 2516606271, "lat": 40.9958688, "lon": 29.1474374, "tags": {"amenity": "restaurant", "name": "Damak \u0130skender Kebap\u00e7\u0131s\u0131", "website": "http://www.damakiskender.com.tr"}}, {"type": "node", "id": 2516606272, "lat": 40.995723, "lon": 29.1481241, "tags": {"amenity": "restaurant", "name": "Hanl\u0131 Mutfak"}}, {"type": "node", "id": 2516614770, "lat": 40.997215, "lon": 29.1044175, "tags": {"amenity": "restaurant", "cuisine": "chinese", "name": "Kudeta Chinese & Sushi"}}, {"type": "node", "id": 2516652949, "lat": 41.0049313, "lon": 29.1315253, "tags": {"amenity": "restaurant", "name": "Cafe Garage"}}, {"type": "node", "id": 2525724953, "lat": 41.0323979, "lon": 28.9847143, "tags": {"amenity": "restaurant", "name": "5. Kat", "name:tr": "\u0645\u0637\u0639\u0645 \u0643\u0627\u062a", "source": "local_knowledge", "website": "http://www.5kat.com/tr"}}, {"type": "node", "id": 2530524811, "lat": 40.9863738, "lon": 29.0269458}, {"type": "node", "id": 2531768246, "lat": 41.0320474, "lon": 28.9837075, "tags": {"amenity": "restaurant", "name": "Savoy Bal\u0131k"}}, {"type": "node", "id": 2543263557, "lat": 41.0320684, "lon": 28.9807668}, {"type": "node", "id": 2543263561, "lat": 41.0321458, "lon": 28.980663}, {"type": "node", "id": 2543263563, "lat": 41.0322353, "lon": 28.9807642}, {"type": "node", "id": 2543263565, "lat": 41.0321341, "lon": 28.9809157}, {"type": "node", "id": 2543263567, "lat": 41.0320471, "lon": 28.9808017}, {"type": "node", "id": 2543263573, "lat": 41.0321586, "lon": 28.980879}, {"type": "node", "id": 2547264076, "lat": 41.0338294, "lon": 28.9788816, "tags": {"amenity": "restaurant", "name": "Hayvore"}}, {"type": "node", "id": 2555650274, "lat": 41.034644, "lon": 28.9828737}, {"type": "node", "id": 2555650275, "lat": 41.0345852, "lon": 28.982933}, {"type": "node", "id": 2555650276, "lat": 41.034649, "lon": 28.98304}, {"type": "node", "id": 2555650277, "lat": 41.0346672, "lon": 28.9830159}, {"type": "node", "id": 2555650278, "lat": 41.034647, "lon": 28.9829797}, {"type": "node", "id": 2555650279, "lat": 41.0346836, "lon": 28.9829367}, {"type": "node", "id": 2590605090, "lat": 41.0268562, "lon": 28.9743784, "tags": {"amenity": "restaurant", "internet_access": "wlan", "internet_access:fee": "no", "name": "Nakka Bistro", "name:ru": "Nakka Galata"}}, {"type": "node", "id": 2590676538, "lat": 41.0231587, "lon": 29.1298469, "tags": {"amenity": "restaurant", "name": "Farika D\u00f6ner"}}, {"type": "node", "id": 2625801618, "lat": 40.9507569, "lon": 29.3915885}, {"type": "node", "id": 2625801619, "lat": 40.9509774, "lon": 29.3916004}, {"type": "node", "id": 2625801620, "lat": 40.9509554, "lon": 29.3920818}, {"type": "node", "id": 2625801621, "lat": 40.950775, "lon": 29.3920674}, {"type": "node", "id": 2641906726, "lat": 40.9752224, "lon": 29.1544603, "tags": {"amenity": "restaurant", "name": "Escape"}}, {"type": "node", "id": 2641906727, "lat": 40.9751859, "lon": 29.1543976, "tags": {"amenity": "restaurant", "cuisine": "pizza", "name": "Lucas Si"}}, {"type": "node", "id": 2683365497, "lat": 41.0099661, "lon": 28.9674129, "tags": {"amenity": "restaurant"}}, {"type": "node", "id": 2683365502, "lat": 41.0104318, "lon": 28.9686829, "tags": {"amenity": "restaurant"}}, {"type": "node", "id": 2683365508, "lat": 41.0112703, "lon": 28.967613, "tags": {"amenity": "restaurant"}}, {"type": "node", "id": 2741061948, "lat": 41.0300565, "lon": 28.9824119, "tags": {"addr:city": "Beyo\u011flu/\u0130stanbul", "addr:housenumber": "K\u0131l\u0131\u00e7ali Pa\u015fa Mah.Kasatura sokak No: 16/A Beyo\u011flu/Cihangir", "addr:postcode": "34433", "addr:street": "Kasatura Soka\u011f\u0131", "amenity": "restaurant", "cuisine": "Naturel_foods", "name": "Dogaciyiz.com gourmet \u015fark\u00fcteri", "opening_hours": "08:00-24:00", "phone": "+90212 243 8190", "website": "www.dogaciyiz.com", "wheelchair": "limited"}}, {"type": "node", "id": 2771801929, "lat": 41.0082975, "lon": 28.9743163, "tags": {"amenity": "restaurant", "cuisine": "turkish", "name:en": "Pasha", "name:ru": "\u041f\u0430\u0448\u0430"}}, {"type": "node", "id": 2771801931, "lat": 41.008332, "lon": 28.9740021, "tags": {"amenity": "restaurant", "cuisine": "turkish"}}, {"type": "node", "id": 2771801933, "lat": 41.0084113, "lon": 28.9743546, "tags": {"amenity": "restaurant", "cuisine": "turkish"}}, {"type": "node", "id": 2771801934, "lat": 41.0084724, "lon": 28.9739653, "tags": {"amenity": "restaurant", "cuisine": "turkish"}}, {"type": "node", "id": 2771801936, "lat": 41.0085811, "lon": 28.9740441, "tags": {"amenity": "restaurant", "cuisine": "turkish", "name": "ANTEB Kebab & Pizza", "name:ar": "\u0643\u0628\u0627\u0628 \u0648 \u0628\u064a\u062a\u0632\u0627 \u0639\u0646\u062a\u0627\u0628", "phone": "0212 514 16 47"}}, {"type": "node", "id": 2773225766, "lat": 41.0473665, "lon": 29.0254137, "tags": {"amenity": "restaurant", "name": "The House Cafe", "wheelchair": "limited"}}, {"type": "node", "id": 2821883370, "lat": 40.9881081, "lon": 29.0532635}, {"type": "node", "id": 2821883371, "lat": 40.9877455, "lon": 29.0531568}, {"type": "node", "id": 2821883372, "lat": 40.9877523, "lon": 29.0530048}, {"type": "node", "id": 2821883373, "lat": 40.9881184, "lon": 29.0530334}, {"type": "node", "id": 2850913391, "lat": 40.9598449, "lon": 29.1886761}, {"type": "node", "id": 2850913392, "lat": 40.959798, "lon": 29.1887924}, {"type": "node", "id": 2850913393, "lat": 40.959726, "lon": 29.1887414}, {"type": "node", "id": 2850913394, "lat": 40.959713, "lon": 29.1887737}, {"type": "node", "id": 2850913395, "lat": 40.9595673, "lon": 29.1886705}, {"type": "node", "id": 2850913396, "lat": 40.9595814, "lon": 29.1886355}, {"type": "node", "id": 2850913397, "lat": 40.9594695, "lon": 29.1885563}, {"type": "node", "id": 2850913398, "lat": 40.9595153, "lon": 29.1884429}, {"type": "node", "id": 2852671533, "lat": 40.9574481, "lon": 29.1833254}, {"type": "node", "id": 2852671534, "lat": 40.9574145, "lon": 29.1833067}, {"type": "node", "id": 2852671535, "lat": 40.9574011, "lon": 29.1833488}, {"type": "node", "id": 2852671536, "lat": 40.957313, "lon": 29.1832997}, {"type": "node", "id": 2852671537, "lat": 40.9573306, "lon": 29.1832445}, {"type": "node", "id": 2852671538, "lat": 40.9573035, "lon": 29.1832293}, {"type": "node", "id": 2852671539, "lat": 40.9573346, "lon": 29.1831315}, {"type": "node", "id": 2852671540, "lat": 40.9573644, "lon": 29.1831482}, {"type": "node", "id": 2852671541, "lat": 40.9573802, "lon": 29.1830984}, {"type": "node", "id": 2852671542, "lat": 40.9573868, "lon": 29.1831021}, {"type": "node", "id": 2852671543, "lat": 40.9574793, "lon": 29.1828119}, {"type": "node", "id": 2852671544, "lat": 40.9575633, "lon": 29.1828588}, {"type": "node", "id": 2852671545, "lat": 40.9574762, "lon": 29.1831321}, {"type": "node", "id": 2852671546, "lat": 40.957485, "lon": 29.183137}, {"type": "node", "id": 2852671547, "lat": 40.9574694, "lon": 29.1831861}, {"type": "node", "id": 2852671548, "lat": 40.957489, "lon": 29.183197}, {"type": "node", "id": 2855429037, "lat": 40.9577634, "lon": 29.1820467, "tags": {"amenity": "restaurant", "name": "W Cafe Brasserie;Nezih K\u0131rtasiye", "smoking": "outside"}}, {"type": "node", "id": 2876245610, "lat": 40.9996609, "lon": 29.0384683, "tags": {"addr:city": "\u0130stanbul", "addr:district": "kad\u0131k\u00f6y", "addr:postcode": "34740", "addr:street": "Ac\u0131badem Caddesi", "amenity": "restaurant", "capacity": "50", "cuisine": "international", "name": "Draft Gastropub", "opening_hours": "13:00 - 02:00", "phone": "+90 216 3250051", "smoking": "outside"}}, {"type": "node", "id": 2876256419, "lat": 41.0054361, "lon": 29.045525, "tags": {"addr:city": "\u0130stanbul", "amenity": "restaurant", "capacity": "200", "cuisine": "regional;kebab;turkish", "delivery": "yes", "name": "\u00c7anak Kebap", "outdoor_seating": "no", "phone": "+90 (216) 325 22 34", "smoking": "outside", "takeaway": "yes", "website": "http://www.canakkebap.com.tr/"}}, {"type": "node", "id": 2901761817, "lat": 41.0242836, "lon": 28.97408, "tags": {"amenity": "restaurant", "name": "ege rum meyhanesi cam ve ambalaj at\u0131k"}}, {"type": "node", "id": 2902932724, "lat": 41.0176785, "lon": 29.1253386, "tags": {"amenity": "restaurant", "cuisine": "turkish"}}, {"type": "node", "id": 2907479073, "lat": 41.0334062, "lon": 28.9813914, "tags": {"addr:housenumber": "49a", "addr:street": "Turnac\u0131ba\u015f\u0131 Sokak", "amenity": "restaurant", "cuisine": "pizza", "name": "49 \u00c7ukurcuma", "name:en": "49 Cukurcuma", "phone": "+902122490048"}}, {"type": "node", "id": 2917201461, "lat": 40.8240009, "lon": 29.2781919}, {"type": "node", "id": 2917201481, "lat": 40.8238727, "lon": 29.2782917}, {"type": "node", "id": 2917201482, "lat": 40.824019, "lon": 29.2785943}, {"type": "node", "id": 2917201484, "lat": 40.8240371, "lon": 29.2782752}, {"type": "node", "id": 2917201488, "lat": 40.8241219, "lon": 29.278209}, {"type": "node", "id": 2917201493, "lat": 40.8241327, "lon": 29.2784984}, {"type": "node", "id": 2917201495, "lat": 40.8241411, "lon": 29.2785079}, {"type": "node", "id": 2917201499, "lat": 40.8242258, "lon": 29.2784417}, {"type": "node", "id": 2984153151, "lat": 41.0155133, "lon": 28.9758964, "tags": {"addr:city": "Istanbul", "addr:district": "Fatih", "addr:street": "Ankara caddesi", "amenity": "restaurant", "cuisine": "italian;italian_pizza", "name": "Esmer Chef"}}, {"type": "node", "id": 2990366528, "lat": 40.9774225, "lon": 29.0412834, "tags": {"amenity": "restaurant", "name": "Remina"}}, {"type": "node", "id": 2990366529, "lat": 40.9773581, "lon": 29.0410433, "tags": {"addr:city": "\u0130stanbul", "addr:district": "Kad\u0131k\u00f6y", "addr:housenumber": "40", "addr:neighbourhood": "Fenerbah\u00e7e Mahallesi", "addr:postcode": "34726", "addr:street": "M\u00fcnir N\u00fcrettin Sel\u00e7uk Caddesi", "amenity": "restaurant", "cuisine": "thai;japanese", "name": "SushiCo Kalam\u0131\u015f", "opening_hours": "11:30-23:00", "website": "https://www.sushico.com.tr/en/subeler_detay.php?branch=1399712709"}}, {"type": "node", "id": 3053094828, "lat": 40.9736443, "lon": 29.0561887, "tags": {"addr:housenumber": "207", "addr:postcode": "34730", "addr:street": "Ba\u011fdat Caddesi", "amenity": "restaurant", "name": "Ekspres \u0130neg\u00f6l K\u00f6ftecisi", "website": "https://www.zomato.com/tr/istanbul/ekspres-i%CC%87neg%C3%B6l-k%C3%B6ftecisi-g%C3%B6ztepe-ba%C4%9Fdat-caddesi-istanbul"}}, {"type": "node", "id": 3053095489, "lat": 40.9717295, "lon": 29.0597759, "tags": {"amenity": "restaurant", "name": "\u00c7esta Mant\u0131"}}, {"type": "node", "id": 3053096306, "lat": 40.9738071, "lon": 29.0559637, "tags": {"amenity": "restaurant", "name": "Flamingo"}}, {"type": "node", "id": 3079823142, "lat": 41.0171446, "lon": 28.9711789, "tags": {"addr:housenumber": "1", "addr:postcode": "34435", "addr:street": "Misir \u00c7ar\u015f\u0131s\u0131", "amenity": "restaurant", "cuisine": "turkish", "name": "Pandeli", "website": "https://www.pandeli.com.tr/"}}, {"type": "node", "id": 3079823143, "lat": 41.0157745, "lon": 28.9717449, "tags": {"amenity": "restaurant", "cuisine": "turkish", "name": "Bab-\u0131 Hayat", "website": "http://www.babihayat.com/"}}, {"type": "node", "id": 3090798090, "lat": 41.0059801, "lon": 28.9809443, "tags": {"amenity": "restaurant", "name": "Siva Cafe Restaurant"}}, {"type": "node", "id": 3090798091, "lat": 41.0127256, "lon": 28.9773987, "tags": {"amenity": "restaurant", "name": "Pa\u015fazade", "name:tr": "Pasazade"}}, {"type": "node", "id": 3090816360, "lat": 41.0065767, "lon": 28.9795596, "tags": {"amenity": "restaurant", "name": "Med Cezir"}}, {"type": "node", "id": 3090816363, "lat": 41.004157, "lon": 28.9763532, "tags": {"amenity": "restaurant", "cuisine": "turkish", "name": "Sultan K\u00f6\u015fesi"}}, {"type": "node", "id": 3090816364, "lat": 41.0081919, "lon": 28.9768644, "tags": {"amenity": "restaurant", "name": "istanbul enjoyer", "wheelchair": "no"}}, {"type": "node", "id": 3090816365, "lat": 41.008704, "lon": 28.9778756, "tags": {"amenity": "restaurant", "name": "House of Medusa", "name:zh": "\u7f8e\u675c\u838e\u9910\u5385", "wheelchair": "yes"}}, {"type": "node", "id": 3090853853, "lat": 41.0063716, "lon": 28.9797148, "tags": {"addr:city": "\u0130stanbul", "addr:district": "Fatih", "addr:housenumber": "8", "addr:neighbourhood": "Cankurtaran Mahallesi", "addr:postcode": "34400", "addr:street": "Tevkifhane Sokak", "amenity": "restaurant", "capacity": "200", "cuisine": "fish", "email": "info@sevenhillsrestaurant.com", "fax": "+90 212 517 10 85", "name": "Seven Hills Restaurant", "opening_hours": "Mo-Su 07:30-23:00", "payment:cash": "yes", "payment:credit_cards": "yes", "phone": "+90 212 516 94 99", "website": "https://www.sevenhillsrestaurant.com/"}}, {"type": "node", "id": 3090853854, "lat": 41.0082304, "lon": 28.9765667, "tags": {"amenity": "restaurant", "name": "Masal", "wheelchair": "limited"}}, {"type": "node", "id": 3090853857, "lat": 41.0080927, "lon": 28.9775162, "tags": {"amenity": "restaurant", "name": "Palmiye", "wheelchair": "limited"}}, {"type": "node", "id": 3090853858, "lat": 41.0155142, "lon": 28.9632711, "tags": {"amenity": "restaurant", "name": "Erzincanl\u0131 Ali Baba Restoran", "wheelchair": "limited"}}, {"type": "node", "id": 3100037835, "lat": 41.0093039, "lon": 28.9768815, "tags": {"amenity": "restaurant", "name": "Barbecue House"}}, {"type": "node", "id": 3100037836, "lat": 41.0086103, "lon": 28.9738568, "tags": {"amenity": "restaurant", "name": "Erol"}}, {"type": "node", "id": 3100037837, "lat": 41.0122135, "lon": 28.9680717, "tags": {"addr:street": "T\u0131\u011fc\u0131lar Sokak no.48", "amenity": "restaurant", "cuisine": "turkish", "name": "Keyf-i Mekan"}}, {"type": "node", "id": 3100037838, "lat": 41.0062127, "lon": 28.9690802, "tags": {"addr:housenumber": "34", "addr:street": "Emin Sinan", "amenity": "restaurant", "name": "Mivan Restaurant Cafe", "opening_hours": "Mo-Su 08:00-01:30", "phone": "+902125179929"}}, {"type": "node", "id": 3100047495, "lat": 41.0038485, "lon": 28.972559, "tags": {"addr:housenumber": "3", "amenity": "restaurant", "name": "Spectra Cafe"}}, {"type": "node", "id": 3102593664, "lat": 41.0035022, "lon": 28.9759805, "tags": {"amenity": "restaurant", "cuisine": "turkish", "internet_access": "wlan", "internet_access:fee": "no", "name": "New Season"}}, {"type": "node", "id": 3104170591, "lat": 41.0031418, "lon": 28.9750059, "tags": {"amenity": "restaurant", "cuisine": "turkish", "name": "Little Havanna"}}, {"type": "node", "id": 3107414921, "lat": 41.0038097, "lon": 28.9760263, "tags": {"amenity": "restaurant", "cuisine": "turkish", "name": "Ayasofya Kebab House"}}, {"type": "node", "id": 3107720171, "lat": 41.0043065, "lon": 28.9768561, "tags": {"amenity": "restaurant", "cuisine": "turkish", "internet_access": "wlan", "internet_access:fee": "no", "name": "Serbethane Cafe & Restaurant"}}, {"type": "node", "id": 3137195629, "lat": 41.025723, "lon": 28.980903, "tags": {"amenity": "restaurant", "cuisine": "italian", "name": "Pim Kitchen & Patisserie"}}, {"type": "node", "id": 3179952672, "lat": 41.0297867, "lon": 28.9742766, "tags": {"amenity": "restaurant", "name": "\u015eehbender 14", "note": "Meyhane style restaurant. Lively place with delicious mezes, raki and wines", "phone": "+90 212 292 06 67", "website": "http://www.sehbender14.com/"}}, {"type": "node", "id": 3179969442, "lat": 41.0317438, "lon": 28.9749804, "tags": {"addr:housenumber": "65", "addr:street": "Me\u015frutiyet Caddesi", "amenity": "restaurant", "name": "Nuteras", "opening_hours": "18:00-01:00", "phone": "+90 212 245 60 70.", "website": "http://www.nupera.com.tr/restaurant/nuteras"}}, {"type": "node", "id": 3181221417, "lat": 41.0142314, "lon": 28.9710543, "tags": {"amenity": "restaurant"}}, {"type": "node", "id": 3184809998, "lat": 41.0053194, "lon": 28.9742023, "tags": {"addr:housenumber": "1", "addr:street": "\u00dc\u00e7ler sokak", "amenity": "restaurant", "check_date": "2022-11-12", "cuisine": "regional", "name": "Spectra Restaurant", "outdoor_seating": "yes"}}, {"type": "node", "id": 3186628316, "lat": 41.0050496, "lon": 28.9732228, "tags": {"amenity": "restaurant", "name": "tacita"}}, {"type": "node", "id": 3188737190, "lat": 41.0260178, "lon": 28.9745424, "tags": {"addr:housenumber": "2B", "addr:postcode": "34421", "addr:street": "Kuledibi \u015eah Kap\u0131s\u0131", "amenity": "restaurant", "cuisine": "turkish", "name": "Saltbae Nusret", "note": "Great view of the Galata tower, simple and good turkish food, wine, and drinks.", "opening_hours": "08:00-24:00", "phone": "+90 212249 03 93", "website": "http://www.guneyrestaurant.com/", "wheelchair": "yes"}}, {"type": "node", "id": 3188737192, "lat": 41.0281177, "lon": 28.9727155, "tags": {"amenity": "restaurant", "cuisine": "american", "name": "Big Chefs"}}, {"type": "node", "id": 3188737339, "lat": 41.0317028, "lon": 28.9750718, "tags": {"amenity": "restaurant", "name": "Nupera", "website": "http://www.nupera.com.tr/"}}, {"type": "node", "id": 3188738222, "lat": 41.0260402, "lon": 28.9742741, "tags": {"amenity": "restaurant", "name": "Galata Kiva"}}, {"type": "node", "id": 3188738241, "lat": 41.0286182, "lon": 28.9730564, "tags": {"addr:housenumber": "86A", "addr:street": "Me\u015frutiyet Caddesi", "amenity": "restaurant", "cuisine": "pizza", "name": "Miss Pizza \u015ei\u015fhane", "note": "Very cozy Italian restaurant run by three women serving pizza, pasta, and salads.", "phone": "+90 212 251 3234", "website": "http://www.misspizza.com.tr/en"}}, {"type": "node", "id": 3194787808, "lat": 41.0367707, "lon": 29.029473, "tags": {"addr:city": "Kuzguncuk - \u0130stanbul", "addr:housenumber": "1A", "addr:postcode": "34674", "addr:street": "\u00c7ar\u015f\u0131 Caddesi", "amenity": "restaurant", "cuisine": "seafood", "name": "Ismet Baba", "note": "Simple and traditional restaurant with excellent seafood", "phone": "+90 216 553 12 32", "website": "http://ismetbaba.com.tr/", "wikidata": "Q6085043"}}, {"type": "node", "id": 3194949812, "lat": 41.0331027, "lon": 28.9824135, "tags": {"addr:housenumber": "4", "amenity": "restaurant", "cuisine": "breakfast", "name": "Van Kahvalti Mufta\u011fi"}}, {"type": "node", "id": 3194950686, "lat": 41.0333208, "lon": 28.9808585, "tags": {"addr:city": "Istanbul", "addr:district": "Beyo\u011flu", "addr:housenumber": "41", "addr:postcode": "34433", "addr:street": "Turnac\u0131ba\u015f\u0131 Sokak", "amenity": "restaurant", "cuisine": "regional", "level": "7", "name": "Terrace 41", "note": "Stylish restaurant outdoor secluded terrace with a view of Bosperus, Topkapi, Hagia Sofie, Blue Mosque, etc.", "operator": "Corinne Hotel", "outdoor_seating": "yes", "phone": "+90 0212 293 94 94"}}, {"type": "node", "id": 3197916262, "lat": 41.0304609, "lon": 28.973918, "tags": {"addr:city": "Beyo\u011flu/\u0130stanbul", "addr:housenumber": "55", "addr:postcode": "34430", "addr:street": "Asmal\u0131 Mescit Sokak", "amenity": "restaurant", "cuisine": "regional", "name": "K\u00f6r Agop", "note": "Stylish restaurant with excellent mezze", "phone": "+90 212 249 51 33", "website": "http://www.koragop.com/index_pera.html"}}, {"type": "node", "id": 3254501300, "lat": 41.0196302, "lon": 29.1279848, "tags": {"addr:housenumber": "no:17", "addr:neighbourhood": "Ihlamurkuyu Mah. Tepe\u00fcst\u00fc", "addr:street": "Poyraz Caddesi", "amenity": "restaurant", "cuisine": "pide;salata", "name": "\u00c7C Lider Pide Tepe\u00fcst\u00fc Otoparkl\u0131 \u015eube", "opening_hours": "Mo-Su 09:00-21:00", "phone": "(0216) 526 63 61", "website": "https://www.liderpide.com.tr"}}, {"type": "node", "id": 3254514411, "lat": 41.0360476, "lon": 28.9891938, "tags": {"amenity": "restaurant", "name": "Hong Bin Lou", "website": "http://www.hongbinlou.net"}}, {"type": "node", "id": 3254527362, "lat": 41.0358603, "lon": 28.9828407, "tags": {"amenity": "restaurant", "name": "Borsa Lokantas\u0131", "wheelchair": "no"}}, {"type": "node", "id": 3261403273, "lat": 41.0299932, "lon": 28.9748275, "tags": {"addr:city": "Istanbul", "amenity": "restaurant", "cuisine": "turkish", "diet:vegetarian": "yes", "name": "Tavanaras\u0131"}}, {"type": "node", "id": 3266709049, "lat": 41.047228, "lon": 29.0274801, "tags": {"amenity": "restaurant", "name": "Belta\u015f Restoran Cafe", "note": "The people who are with wheelchair need help for toilet. / Tekerlekli sandalye kullanan ki\u015filer i\u00e7in tuvalet kullan\u0131m\u0131 yard\u0131m gerektirir.", "wheelchair": "yes"}}, {"type": "node", "id": 3273282246, "lat": 41.0328264, "lon": 28.9766652, "tags": {"addr:city": "\u0130stanbul", "addr:housenumber": "163a", "addr:street": "\u0130stiklal Caddesi", "amenity": "restaurant", "capacity": "300", "cuisine": "European", "name": "The House Cafe \u0130stiklal", "opening_hours": "Mo-Th 08:00-02:00; Fr-Sa 08:00-04:00; Su 08:00-01:00", "phone": "+90 0212 251 7991", "website": "http://www.thehousecafe.com/"}}, {"type": "node", "id": 3282470278, "lat": 41.0051693, "lon": 28.9698734, "tags": {"addr:housenumber": "85A", "addr:street": "Kad\u0131rga Liman\u0131 Caddesi", "amenity": "restaurant", "check_date": "2022-11-12", "name": "By Ferro"}}, {"type": "node", "id": 3282848666, "lat": 41.0362969, "lon": 28.9921797, "tags": {"amenity": "restaurant", "capacity": "20", "cuisine": "turkish", "name": "Sima Cafe", "phone": "+90 249 6060", "smoking": "outside"}}, {"type": "node", "id": 3299892863, "lat": 41.0393283, "lon": 28.9842801, "tags": {"addr:housenumber": "28/A", "addr:street": "\u015eehit Muhtar Caddesi", "amenity": "restaurant", "name": "Faros Kebap", "phone": "+90 212 250 3356", "website": "http://www.faroskebap.com/"}}, {"type": "node", "id": 3304415106, "lat": 41.0183471, "lon": 28.9722089, "tags": {"amenity": "restaurant", "name": "Cans\u0131n Restaurant"}}, {"type": "node", "id": 3304415108, "lat": 41.0185548, "lon": 28.9718521, "tags": {"amenity": "restaurant", "cuisine": "fish", "name": "Osmanl\u0131 Bal\u0131k\u00e7\u0131s\u0131"}}, {"type": "node", "id": 3304415109, "lat": 41.0194337, "lon": 28.972489, "tags": {"amenity": "restaurant", "name": "Ab-i Hayat"}}, {"type": "node", "id": 3325111908, "lat": 41.0329704, "lon": 28.9813499, "tags": {"addr:housenumber": "6", "addr:street": "Faik Pa\u015fa Caddesi", "amenity": "restaurant", "cuisine": "turkish", "diet:vegan": "yes", "name": "No:19 Dining", "website": "http://no19dining.com/"}}, {"type": "node", "id": 3371076620, "lat": 41.0247673, "lon": 29.0865411, "tags": {"amenity": "restaurant", "name": "G\u00fcll\u00fco\u011flu"}}, {"type": "node", "id": 3384735187, "lat": 40.9507968, "lon": 29.3915917}, {"type": "node", "id": 3407563408, "lat": 41.0253555, "lon": 29.0598568, "tags": {"amenity": "restaurant", "name": "Sazeli Restuarant"}}, {"type": "node", "id": 3452205486, "lat": 41.0293902, "lon": 28.9753473, "tags": {"addr:housenumber": "185", "addr:street": "\u0130stiklal Caddesi", "amenity": "restaurant", "name": "Armada Restaurant", "wheelchair": "no"}}, {"type": "node", "id": 3452205491, "lat": 41.0107321, "lon": 28.9748281, "tags": {"amenity": "restaurant", "cuisine": "turkish", "name": "Mr Cook Cafe & Restaurant"}}, {"type": "node", "id": 3453781937, "lat": 41.031145, "lon": 28.9824306, "tags": {"amenity": "restaurant", "name": "Kardesler Kebap & Cafe"}}, {"type": "node", "id": 3453781938, "lat": 41.028098, "lon": 28.9800177, "tags": {"amenity": "restaurant", "cuisine": "turkish", "name:en": "Kitchen's Academy"}}, {"type": "node", "id": 3455541975, "lat": 41.0301695, "lon": 28.9754487, "tags": {"amenity": "restaurant", "name": "Parole", "note": "This node was averaged over 5 minutes in a Garmin Montana GPS. It represents the extreme front north corner of the Parole Restaurant which is on a street corner. Bing imagery is offset quite a bit here."}}, {"type": "node", "id": 3456816265, "lat": 41.0347532, "lon": 28.9771463, "tags": {"addr:housenumber": "40", "addr:street": "Sahne Sokak", "amenity": "restaurant", "name": "Vera Restaurant Fish & Meat House", "website": "http://www.verarestaurant.com"}}, {"type": "node", "id": 3457390658, "lat": 41.0265104, "lon": 28.9744713, "tags": {"amenity": "restaurant", "name": "robin's"}}, {"type": "node", "id": 3457689622, "lat": 41.0105078, "lon": 28.978481, "tags": {"amenity": "restaurant", "name": "Le Safran Restaurant"}}, {"type": "node", "id": 3458733924, "lat": 41.0135097, "lon": 28.9774215, "tags": {"amenity": "restaurant", "internet_access": "wlan", "internet_access:fee": "no", "name": "Red River Pub", "website": "http://redriverpub.com/"}}, {"type": "node", "id": 3459046125, "lat": 41.0360826, "lon": 28.9832238, "tags": {"amenity": "restaurant", "name": "Ist Cafe", "name:en": "Ist Cafe", "opening_hours:signed": "no", "wheelchair": "limited"}}, {"type": "node", "id": 3459046126, "lat": 41.0352325, "lon": 28.9817456, "tags": {"amenity": "restaurant", "name": "M&N Cafe Brasserie"}}, {"type": "node", "id": 3461609142, "lat": 41.0181929, "lon": 28.9708018, "tags": {"amenity": "restaurant", "name": "Onur Bufe", "shop": "kiosk"}}, {"type": "node", "id": 3465378577, "lat": 40.8948044, "lon": 29.3750272}, {"type": "node", "id": 3465378578, "lat": 40.894865, "lon": 29.3752985}, {"type": "node", "id": 3465378579, "lat": 40.8945827, "lon": 29.3754088}, {"type": "node", "id": 3465378580, "lat": 40.8945221, "lon": 29.3751375}, {"type": "node", "id": 3465388636, "lat": 40.8947943, "lon": 29.3750311}, {"type": "node", "id": 3465388639, "lat": 40.8946784, "lon": 29.3750764}, {"type": "node", "id": 3465585305, "lat": 40.8914316, "lon": 29.3798733, "tags": {"amenity": "restaurant", "cuisine": "regional;sandwich;chicken", "name": "Dining Hall"}}, {"type": "node", "id": 3465585384, "lat": 40.8915734, "lon": 29.3814486, "tags": {"amenity": "restaurant", "cuisine": "turkish", "name": "Pigastro"}}, {"type": "node", "id": 3499040568, "lat": 41.0085084, "lon": 28.9752131, "tags": {"amenity": "restaurant", "cuisine": "regional", "name": "Sultan Saray", "wheelchair": "yes"}}, {"type": "node", "id": 3499094263, "lat": 40.9928912, "lon": 29.0300975, "tags": {"amenity": "restaurant", "cuisine": "regional", "name": "Kad\u0131 Lokantas\u0131"}}, {"type": "node", "id": 3499112751, "lat": 40.9954574, "lon": 29.0292277, "tags": {"amenity": "restaurant", "cuisine": "regional", "name": "An-gu-ye B\u00fcfe", "smoking": "outside", "takeaway": "yes"}}, {"type": "node", "id": 3499179004, "lat": 41.0086571, "lon": 28.9735549, "tags": {"amenity": "restaurant", "name": "Antep Kebab", "wheelchair": "yes"}}, {"type": "node", "id": 3499179007, "lat": 41.0096179, "lon": 28.9738849, "tags": {"amenity": "restaurant", "name": "Kofteci Ramiz", "wheelchair": "limited"}}, {"type": "node", "id": 3499179012, "lat": 41.0102604, "lon": 28.9745328, "tags": {"amenity": "restaurant", "name": "Sefa Restaurant", "name:zh": "Sefa\u9910\u5385", "wheelchair": "yes"}}, {"type": "node", "id": 3499179015, "lat": 41.0140481, "lon": 28.9806118, "tags": {"amenity": "restaurant", "name": "Belta\u015f Cafe and Restaurant", "wheelchair": "yes"}}, {"type": "node", "id": 3499247692, "lat": 41.0138038, "lon": 28.977028, "tags": {"amenity": "restaurant", "name": "Ikram D\u00f6ner Kebap", "wheelchair": "limited"}}, {"type": "node", "id": 3499251104, "lat": 41.0138402, "lon": 28.9769931, "tags": {"amenity": "restaurant", "name": "Onba\u015f\u0131lar Restaurant", "wheelchair": "yes"}}, {"type": "node", "id": 3499273566, "lat": 41.0099538, "lon": 28.9759447, "tags": {"amenity": "restaurant", "name": "Sultan Ahmet Fish House"}}, {"type": "node", "id": 3499293120, "lat": 41.0090642, "lon": 28.9755015, "tags": {"addr:city": "Istanbul", "addr:housenumber": "10", "addr:postcode": "34410", "addr:street": "Ticarethane Sokak", "amenity": "restaurant", "name": "Yarenler Restaurant", "wheelchair": "yes"}}, {"type": "node", "id": 3522200909, "lat": 41.0040452, "lon": 29.1438064, "tags": {"amenity": "restaurant", "cuisine": "kebab", "name": "Saray D\u00f6ner \u0130skender ve Et Lokantas\u0131"}}, {"type": "node", "id": 3657230221, "lat": 41.0220527, "lon": 29.0170168}, {"type": "node", "id": 3657230222, "lat": 41.0218014, "lon": 29.0169975}, {"type": "node", "id": 3657230223, "lat": 41.0218435, "lon": 29.0175282}, {"type": "node", "id": 3657230224, "lat": 41.0219376, "lon": 29.0175712}, {"type": "node", "id": 3657230225, "lat": 41.0220219, "lon": 29.0175991}, {"type": "node", "id": 3657241282, "lat": 41.0100921, "lon": 29.0408598}, {"type": "node", "id": 3657241283, "lat": 41.0102428, "lon": 29.0410807}, {"type": "node", "id": 3657241284, "lat": 41.0100224, "lon": 29.0412929}, {"type": "node", "id": 3657241285, "lat": 41.0098934, "lon": 29.0410707}, {"type": "node", "id": 3657260975, "lat": 40.9943661, "lon": 29.074287}, {"type": "node", "id": 3657260976, "lat": 40.9942481, "lon": 29.074265}, {"type": "node", "id": 3657260977, "lat": 40.9942326, "lon": 29.0744113}, {"type": "node", "id": 3657260978, "lat": 40.9943506, "lon": 29.0744333}, {"type": "node", "id": 3660872705, "lat": 41.0295272, "lon": 28.9754514, "tags": {"amenity": "restaurant", "name": "Yeni Lokanta"}}, {"type": "node", "id": 3673466091, "lat": 40.9822913, "lon": 29.1093436}, {"type": "node", "id": 3673466092, "lat": 40.9821141, "lon": 29.109239}, {"type": "node", "id": 3673466097, "lat": 40.9821161, "lon": 29.1098264}, {"type": "node", "id": 3702768863, "lat": 41.0244276, "lon": 28.9766419, "tags": {"amenity": "restaurant", "check_date:opening_hours": "2022-12-10", "name": "Sarihan", "opening_hours:signed": "no"}}, {"type": "node", "id": 3702768865, "lat": 41.0301449, "lon": 28.9744773, "tags": {"amenity": "restaurant", "name": "Yare Meyhane"}}, {"type": "node", "id": 3702768866, "lat": 41.0301078, "lon": 28.974515, "tags": {"amenity": "restaurant", "name": "Yakup 2"}}, {"type": "node", "id": 3709002234, "lat": 41.0314448, "lon": 28.9786429, "tags": {"amenity": "restaurant", "check_date": "2023-02-22", "name": "Limonlu bah\u00e7e"}}, {"type": "node", "id": 3709697720, "lat": 40.8791751, "lon": 29.2351484, "tags": {"amenity": "restaurant", "name": "Uzunlar Kebap"}}, {"type": "node", "id": 3785307179, "lat": 40.9901815, "lon": 29.0249696, "tags": {"addr:housenumber": "10A", "addr:street": "Serasker Caddesi", "amenity": "restaurant", "cuisine": "fish", "name": "Kadi Nimet Bal\u0131k\u00e7\u0131l\u0131k", "shop": "seafood", "website": "http://www.kadinimet.com/"}}, {"type": "node", "id": 3802258150, "lat": 41.0364506, "lon": 28.9842221, "tags": {"amenity": "restaurant", "capacity": "20", "cuisine": "turkish", "name": "\u015eim\u0219ekler Karadeniz Pide Salonu"}}, {"type": "node", "id": 3810855325, "lat": 41.0298314, "lon": 28.97997, "tags": {"amenity": "restaurant", "name": "Peymane"}}, {"type": "node", "id": 3877230351, "lat": 41.0301791, "lon": 28.974439, "tags": {"amenity": "restaurant", "cuisine": "turkish", "name": "Mavi Melek"}}, {"type": "node", "id": 3877230352, "lat": 41.0306201, "lon": 28.973433, "tags": {"amenity": "restaurant", "name": "Konsolos", "wheelchair": "limited"}}, {"type": "node", "id": 3877233899, "lat": 41.0302477, "lon": 28.9745586, "tags": {"amenity": "restaurant", "name": "Gritti restaurant"}}, {"type": "node", "id": 3877233900, "lat": 41.0302691, "lon": 28.9730794, "tags": {"addr:housenumber": "56", "addr:street": "Me\u015frutiyet Caddesi", "amenity": "restaurant", "name": "Cecconis", "website": "http://www.cecconisistanbul.com/"}}, {"type": "node", "id": 3880755031, "lat": 41.0291193, "lon": 28.9730776, "tags": {"amenity": "restaurant", "name": "Aheste", "wheelchair": "limited"}}, {"type": "node", "id": 3880777357, "lat": 41.0292951, "lon": 28.9730703, "tags": {"amenity": "restaurant", "check_date": "2022-08-24", "name": "Baylo", "wheelchair": "no"}}, {"type": "node", "id": 3881152130, "lat": 40.9401389, "lon": 29.1426663}, {"type": "node", "id": 3881152131, "lat": 40.9401029, "lon": 29.1425898}, {"type": "node", "id": 3881152132, "lat": 40.9400251, "lon": 29.1426352}, {"type": "node", "id": 3881152133, "lat": 40.9400725, "lon": 29.1427329}, {"type": "node", "id": 3884925257, "lat": 41.0306143, "lon": 28.9736131, "tags": {"addr:housenumber": "85", "addr:street": "Me\u015frutiyet Caddesi", "amenity": "restaurant", "cuisine": "turkish", "ele": "130", "level": "7", "name": "Duble Meze", "toilets:wheelchair": "no", "website": "http://www.dublemezebar.com/", "wheelchair": "yes"}}, {"type": "node", "id": 3905961583, "lat": 41.0408587, "lon": 28.9882667, "tags": {"addr:city": "\u0130stanbul", "addr:housenumber": "1", "addr:postcode": "34367", "addr:street": "Ta\u015fk\u0131\u015fla Caddesi", "amenity": "restaurant", "cuisine": "regional", "internet_access": "wlan", "name": "34 Restaurant", "opening_hours": "Mo-Fr 06:30-10:30,12:00-23:00; Sa-Su 6:30-11:00, 12:00-23:00", "phone": "+90 (212) 368 11 78", "website": "https://www.hyattrestaurants.com/en/dining/turkey/istanbul/turkish-restaurant-in-harbiye-34-restaurant-istanbul"}}, {"type": "node", "id": 4036810893, "lat": 41.0352842, "lon": 29.030375, "tags": {"amenity": "restaurant", "cuisine": "kebab", "name": "Met-et D\u00f6ner", "takeaway": "yes"}}, {"type": "node", "id": 4038465418, "lat": 40.878126, "lon": 29.0535691, "tags": {"addr:housenumber": "42", "addr:postcode": "34975", "addr:street": "Kalpazankaya Yolu", "amenity": "restaurant", "cuisine": "seafood", "email": "info@kalpazankaya.com.tr", "name": "Kalpazankaya Restaurant", "opening_hours": "Mo-Su 12:00-00:00", "phone": "+902163811111", "website": "http://www.kalpazankaya.com.tr"}}, {"type": "node", "id": 4100479626, "lat": 40.9760107, "lon": 29.0509596, "tags": {"addr:housenumber": "2", "addr:postcode": "34730", "addr:street": "Mustafa Mazharbey Soka\u011f\u0131", "amenity": "restaurant", "cuisine": "turkish", "name": "Sultanahmet K\u00f6ftecisi", "phone": "+902163609030", "website": "https://sultanahmetkoftesi.com/subelerimiz/"}}, {"type": "node", "id": 4103576917, "lat": 40.9456105, "lon": 29.1044666, "tags": {"addr:street": "Turgut \u00d6zal Bulvar\u0131", "amenity": "restaurant", "name": "Pinhan Cafe & Restaurant"}}, {"type": "node", "id": 4111163118, "lat": 41.0408809, "lon": 28.9869964, "tags": {"amenity": "restaurant", "cuisine": "japanese", "name": "Maromi"}}, {"type": "node", "id": 4143689098, "lat": 40.9341015, "lon": 29.115103, "tags": {"amenity": "restaurant", "cuisine": "turkish", "name": "Beltur Restoran"}}, {"type": "node", "id": 4157059692, "lat": 41.0246729, "lon": 28.9791132, "tags": {"amenity": "restaurant", "cuisine": "italian", "name": "Paps"}}, {"type": "node", "id": 4159236194, "lat": 41.0047012, "lon": 28.980572, "tags": {"addr:street": "\u015eehit Hasan Kuyu Sokak", "amenity": "restaurant", "cuisine": "fish;turkish", "name": "Bal\u0131k\u00e7\u0131 Sabahattin", "website": "https://www.balikcisabahattin.com/"}}, {"type": "node", "id": 4159562856, "lat": 41.0481259, "lon": 29.0247891, "tags": {"amenity": "restaurant"}}, {"type": "node", "id": 4159564963, "lat": 41.0479199, "lon": 29.0263245}, {"type": "node", "id": 4159564964, "lat": 41.047928, "lon": 29.0263594}, {"type": "node", "id": 4159564965, "lat": 41.0478956, "lon": 29.0263621}, {"type": "node", "id": 4159564966, "lat": 41.0478532, "lon": 29.0263621}, {"type": "node", "id": 4159564967, "lat": 41.0478532, "lon": 29.0263218}, {"type": "node", "id": 4159564968, "lat": 41.0478855, "lon": 29.0263218}, {"type": "node", "id": 4159564969, "lat": 41.0477298, "lon": 29.0258565}, {"type": "node", "id": 4159564970, "lat": 41.0477419, "lon": 29.0259369}, {"type": "node", "id": 4159564971, "lat": 41.0478147, "lon": 29.0259128}, {"type": "node", "id": 4159564972, "lat": 41.0478026, "lon": 29.0258323}, {"type": "node", "id": 4159564973, "lat": 41.0477136, "lon": 29.0258458}, {"type": "node", "id": 4159564974, "lat": 41.0477055, "lon": 29.0259477}, {"type": "node", "id": 4159564975, "lat": 41.0476752, "lon": 29.0259638}, {"type": "node", "id": 4159564976, "lat": 41.0476549, "lon": 29.0259477}, {"type": "node", "id": 4159564977, "lat": 41.0476569, "lon": 29.0258887}, {"type": "node", "id": 4159564978, "lat": 41.0476549, "lon": 29.0258297}, {"type": "node", "id": 4159564979, "lat": 41.0477785, "lon": 29.0257252}, {"type": "node", "id": 4159564980, "lat": 41.0477967, "lon": 29.0258137}, {"type": "node", "id": 4159564981, "lat": 41.0477299, "lon": 29.0258352}, {"type": "node", "id": 4159564982, "lat": 41.04774, "lon": 29.0257333}, {"type": "node", "id": 4161519271, "lat": 41.0479765, "lon": 29.0268711, "tags": {"amenity": "restaurant", "name": "Sultan Kebap", "wheelchair": "no"}}, {"type": "node", "id": 4161519273, "lat": 41.0487361, "lon": 29.0271801, "tags": {"amenity": "restaurant", "name": "K\u0131r\u00e7i\u00e7e\u011fi", "wheelchair": "yes"}}, {"type": "node", "id": 4161519275, "lat": 41.0486229, "lon": 29.0265249, "tags": {"amenity": "restaurant", "name": "Golden Kebap", "note": "The people who are with wheelchair need help for toilet. / Tekerlekli sandalye kullanan ki\u015filer i\u00e7in tuvalet kullan\u0131m\u0131 yard\u0131m gerektirir.", "wheelchair": "yes"}}, {"type": "node", "id": 4161524049, "lat": 41.0484632, "lon": 29.0260665, "tags": {"amenity": "restaurant", "name": "Konyali", "wheelchair": "limited"}}, {"type": "node", "id": 4162021184, "lat": 41.0490341, "lon": 29.0265437, "tags": {"amenity": "restaurant", "cuisine": "regional", "name": "Yemen 2 Ocakbasi", "wheelchair": "limited"}}, {"type": "node", "id": 4162021185, "lat": 41.0489821, "lon": 29.0265807, "tags": {"amenity": "restaurant", "name": "Cengelk\u00f6y B\u00f6rekcisi", "wheelchair": "no"}}, {"type": "node", "id": 4165094905, "lat": 41.0490662, "lon": 29.0262514, "tags": {"addr:housenumber": "19/A", "addr:street": "Dereboyu Caddesi", "amenity": "restaurant", "cuisine": "turkish", "name": "Kumrucu Doyum", "opening_hours": "24/7", "phone": "02122600398"}}, {"type": "node", "id": 4165094906, "lat": 41.0491071, "lon": 29.0262243, "tags": {"amenity": "restaurant", "name": "Adnan'in In Yeri"}}, {"type": "node", "id": 4171760289, "lat": 40.9779091, "lon": 29.0466095, "tags": {"addr:housenumber": "132", "addr:street": "Egemen Sokak", "amenity": "restaurant", "cuisine": "turkish", "email": "rezzanbirol@gmail.com", "name": "Morello Cafe", "opening_hours": "Mo-Sa 08:30-19:30", "phone": "02163487852", "website": "morellocafe.com"}}, {"type": "node", "id": 4195110891, "lat": 41.0127558, "lon": 28.9776379, "tags": {"addr:housenumber": "13", "addr:street": "Ibn-I-Kemal Caddesi", "amenity": "restaurant", "cuisine": "turkish", "name": "Constantine's Ark", "opening_hours": "Mo-Su 10:00-00:00", "phone": "+90 212 522 34 21", "website": "http://www.constantinesark.com/"}}, {"type": "node", "id": 4195127490, "lat": 41.0046271, "lon": 28.9712651, "tags": {"addr:housenumber": "113", "addr:street": "Kad\u0131rga Liman\u0131 Caddesi", "amenity": "restaurant", "name": "Arch Bistro"}}, {"type": "node", "id": 4198818002, "lat": 41.0304618, "lon": 28.9746567, "tags": {"addr:city": "Beyo\u011flu/\u0130stanbul", "addr:housenumber": "6", "addr:postcode": "34430", "addr:street": "Gon\u00fcl Soka\u011f\u0131", "amenity": "restaurant", "capacity": "30", "cuisine": "pizzeria,pizza,italian", "delivery": "no", "name": "Pizzeria Pera", "opening_hours": "10:30-22:30", "smoking": "outside", "takeaway": "yes", "website": "https://www.pizzeriapera.com/"}}, {"type": "node", "id": 4200197689, "lat": 41.0318041, "lon": 28.9820472, "tags": {"amenity": "restaurant", "cuisine": "local", "internet_access": "wlan", "name": "Cihangir Lokantasi"}}, {"type": "node", "id": 4200197789, "lat": 41.0315808, "lon": 28.9826322, "tags": {"amenity": "restaurant", "cuisine": "fish", "name": "Cihangir Balik"}}, {"type": "node", "id": 4202069694, "lat": 41.0473791, "lon": 28.9799119, "tags": {"addr:housenumber": "222", "addr:street": "Kurtulu\u015f Caddesi", "amenity": "restaurant", "name": "Nazar Profiterol", "phone": "02122252746"}}, {"type": "node", "id": 4209023791, "lat": 41.0310866, "lon": 28.9740165, "tags": {"addr:housenumber": "15", "addr:street": "Me\u015frutiyet Caddesi", "amenity": "restaurant", "name": "Mikla - Turkey fusion ", "phone": "(0212)2935656"}}, {"type": "node", "id": 4210579697, "lat": 41.04323, "lon": 29.0037887, "tags": {"addr:housenumber": "02122610374", "addr:street": "Sinanpa\u015fa K\u00f6pr\u00fcs\u00fc Soka\u011f\u0131", "amenity": "restaurant", "cuisine": "turkish", "name": "Sinop Mant\u0131", "opening_hours": "24/7", "website": "www.sinopmanti.com"}}, {"type": "node", "id": 4221218564, "lat": 40.9917079, "lon": 29.0336631, "tags": {"addr:city": "Istanbul", "addr:housenumber": "11", "addr:postcode": "34710", "addr:street": "Osmanaga Mah. Mahmut Baba Cad.", "amenity": "restaurant", "cuisine": "turkish", "name": "D\u00fcr\u00fcmc\u00fc Emmi", "opening_hours": "24/7"}}, {"type": "node", "id": 4246243526, "lat": 41.009257, "lon": 28.976993, "tags": {"amenity": "restaurant", "name": "Kybele", "website": "www.kybelehotel.com"}}, {"type": "node", "id": 4246253011, "lat": 41.0249318, "lon": 28.9734437, "tags": {"addr:housenumber": "10", "addr:street": "Galata Kulesi Soka\u011f\u0131", "amenity": "restaurant", "name": "Nola"}}, {"type": "node", "id": 4259961158, "lat": 41.0060608, "lon": 28.9815934, "tags": {"amenity": "restaurant", "name": "Tria Elegans"}}, {"type": "node", "id": 4260630364, "lat": 40.9817871, "lon": 29.1424635, "tags": {"amenity": "restaurant", "name": "Pa\u015fa D\u00f6ner"}}, {"type": "node", "id": 4296564091, "lat": 40.9798883, "lon": 29.0670661, "tags": {"amenity": "restaurant", "name": "Binbir Tad\u0131m D\u00f6ner"}}, {"type": "node", "id": 4316720990, "lat": 41.043355, "lon": 28.9944181, "tags": {"amenity": "restaurant", "name": "Fua"}}, {"type": "node", "id": 4343584752, "lat": 41.0032004, "lon": 28.9809106, "tags": {"amenity": "restaurant", "name": "Kalyon Restaurant"}}, {"type": "node", "id": 4352698395, "lat": 40.9109214, "lon": 29.1962729, "tags": {"amenity": "restaurant", "cuisine": "fish", "name": "Mavi Sandal Balikcisi"}}, {"type": "node", "id": 4356826701, "lat": 40.9389761, "lon": 29.112943, "tags": {"addr:housenumber": "0216 489 78 00", "amenity": "restaurant", "cuisine": "fine_dining", "email": "villaadalar@gmail.com", "name": "VILLA ADALAR", "name:tr": "VILLA ADALAR", "opening_hours": "24/7", "operator": "YASAR KECECI", "phone": "05334532248"}}, {"type": "node", "id": 4357186591, "lat": 41.0494876, "lon": 29.002199, "tags": {"addr:housenumber": "134/A", "addr:street": "Ihlamurdere Caddesi", "amenity": "restaurant", "cuisine": "turkish", "name": "Pidepark", "name:tr": "Pidepark", "opening_hours": "Mo-Su 08:00-23:00", "phone": "02122583031"}}, {"type": "node", "id": 4367577789, "lat": 41.0039882, "lon": 28.9760214, "tags": {"amenity": "restaurant", "name": "Tamara"}}, {"type": "node", "id": 4367630390, "lat": 40.8140857, "lon": 29.2886654, "tags": {"amenity": "restaurant", "name": "Hungry Ghost"}}, {"type": "node", "id": 4367630392, "lat": 40.8201544, "lon": 29.2728791, "tags": {"addr:street": "Cafer Bey Sokagi", "amenity": "restaurant", "cuisine": "fish", "name": "Manastir Balik"}}, {"type": "node", "id": 4373920189, "lat": 41.0079808, "lon": 28.9772457, "tags": {"addr:housenumber": "6", "addr:postcode": "34400", "amenity": "restaurant", "cuisine": "soba;turkish", "email": "pudding@puddingshop.com", "name:en": "Pudding Shop Lale Restaurant", "opening_hours": "Mo-Su 07:00-23:00", "website": "http://www.puddingshop.com"}}, {"type": "node", "id": 4375403789, "lat": 41.028279, "lon": 29.1891658, "tags": {"amenity": "restaurant", "name": "Chinese & Sushi Express", "name:en": "sushi express"}}, {"type": "node", "id": 4384312011, "lat": 40.8120325, "lon": 29.2668628}, {"type": "node", "id": 4384312012, "lat": 40.8122479, "lon": 29.2669401}, {"type": "node", "id": 4384312013, "lat": 40.8122479, "lon": 29.2668954}, {"type": "node", "id": 4384312014, "lat": 40.8123186, "lon": 29.2669198}, {"type": "node", "id": 4384312015, "lat": 40.8123894, "lon": 29.2665986}, {"type": "node", "id": 4384312016, "lat": 40.8121432, "lon": 29.2665051}, {"type": "node", "id": 4384312017, "lat": 40.8121186, "lon": 29.2666027}, {"type": "node", "id": 4384312018, "lat": 40.8120848, "lon": 29.2665864}, {"type": "node", "id": 4395605989, "lat": 40.8843519, "lon": 29.0922757, "tags": {"amenity": "restaurant"}}, {"type": "node", "id": 4395618790, "lat": 40.9826932, "lon": 29.0391803, "tags": {"addr:housenumber": "24A", "addr:street": "Itri Dede Soka\u011f\u0131", "amenity": "restaurant", "name": "Fatel", "name:tr": "Fatel"}}, {"type": "node", "id": 4395621790, "lat": 40.9826383, "lon": 29.0393573, "tags": {"amenity": "restaurant", "name": "Kom\u015fu", "name:tr": "Kom\u015fu"}}, {"type": "node", "id": 4395626689, "lat": 40.9825808, "lon": 29.0394996, "tags": {"addr:housenumber": "22", "addr:street": "Itri Dede Soka\u011f\u0131", "amenity": "restaurant", "name": "Nane Gastropub", "name:tr": "Nane"}}, {"type": "node", "id": 4395626790, "lat": 40.9733793, "lon": 29.0413025, "tags": {"amenity": "restaurant", "name": "Fit House sa\u011fl\u0131kl\u0131 yemek", "name:tr": "Fit House sa\u011fl\u0131kl\u0131 yemek"}}, {"type": "node", "id": 4407344289, "lat": 40.9658698, "lon": 29.0667298, "tags": {"addr:street": "\u0130skele Sokak", "amenity": "restaurant", "cuisine": "burger", "name": "Mano Burger", "name:tr": "Mano Burger"}}, {"type": "node", "id": 4413353333, "lat": 41.0495765, "lon": 28.9874046, "tags": {"amenity": "restaurant", "cuisine": "regional", "delivery": "yes", "name": "Nizam Pide", "phone": "+90 212 241 10 34", "website": "https://www.nizampide.com/"}}, {"type": "node", "id": 4416248797, "lat": 40.9510856, "lon": 29.1023587, "tags": {"amenity": "restaurant", "name": "Konyal\u0131m Etli Ekmek", "name:tr": "Konyal\u0131m Etli Ekmek"}}, {"type": "node", "id": 4416261601, "lat": 40.952137, "lon": 29.0970467, "tags": {"amenity": "restaurant", "name": "G\u00fcnayd\u0131n Steakhouse", "name:tr": "G\u00fcnayd\u0131n Steakhouse"}}, {"type": "node", "id": 4416261603, "lat": 40.967445, "lon": 29.1067175, "tags": {"addr:city": "\u0130stanbul", "addr:district": "Ata\u015fehir", "addr:housenumber": "103", "addr:neighbourhood": "\u0130\u00e7erenk\u00f6y Mahallesi", "addr:postcode": "34752", "addr:street": "Prof. Dr. Ali Nihat Tarlan Caddesi", "amenity": "restaurant", "name": "Nalia Karadeniz Mutfa\u011f\u0131", "website": "https://www.nalia.com.tr/subelerimiz/#bostanci"}}, {"type": "node", "id": 4419254603, "lat": 41.0261257, "lon": 28.9746926, "tags": {"amenity": "restaurant", "name": "Tadim Bufe", "wheelchair": "limited"}}, {"type": "node", "id": 4419254702, "lat": 41.0084807, "lon": 28.9750561, "tags": {"amenity": "restaurant", "name": "Karadeniz", "name:zh": "Karadeniz Aile Pide Ve\u70e4\u8089\u9910\u5385"}}, {"type": "node", "id": 4419335124, "lat": 40.9861508, "lon": 29.1097694, "tags": {"amenity": "restaurant", "cuisine": "turkish", "name": "Tatar Salim"}}, {"type": "node", "id": 4419335543, "lat": 40.9866979, "lon": 29.1097422, "tags": {"addr:city": "\u0130stanbul", "amenity": "restaurant", "name": "Beyaz F\u0131r\u0131n Ata\u015fehir"}}, {"type": "node", "id": 4419337509, "lat": 40.9844461, "lon": 29.1098745, "tags": {"addr:city": "istanbul", "addr:housenumber": "9", "addr:postcode": "34774", "addr:street": "Ahmet Muhip Dranas Sokak", "amenity": "restaurant", "capacity": "20", "cuisine": "italian", "delivery": "no", "name": "Fauna", "takeaway": "no"}}, {"type": "node", "id": 4425687570, "lat": 41.0082844, "lon": 28.9755302, "tags": {"amenity": "restaurant", "name": "Aras (scam place)"}}, {"type": "node", "id": 4425691979, "lat": 41.019297, "lon": 28.9728911, "tags": {"amenity": "restaurant", "name": "Aruna Cafe & Restaurant"}}, {"type": "node", "id": 4427329097, "lat": 41.025386, "lon": 28.9746171, "tags": {"amenity": "restaurant", "name": "Pepo"}}, {"type": "node", "id": 4428225489, "lat": 41.0306243, "lon": 28.9742648, "tags": {"amenity": "restaurant", "name": "Karadeniz pideci", "name:tr": "Karadeniz pideci"}}, {"type": "node", "id": 4429003940, "lat": 41.008645, "lon": 28.971502, "tags": {"amenity": "restaurant", "name": "Falafel & Humus"}}, {"type": "node", "id": 4429005176, "lat": 41.0289764, "lon": 28.9739429, "tags": {"amenity": "restaurant", "name": "Antiochia"}}, {"type": "node", "id": 4447070489, "lat": 41.0278786, "lon": 28.9736399, "tags": {"amenity": "restaurant", "name": "\u00c7a\u011fr\u0131 Karadeniz Kebap & Pide Salonu", "phone": "02122523797", "wheelchair": "limited"}}, {"type": "node", "id": 4447856189, "lat": 41.0109798, "lon": 28.9710317, "tags": {"amenity": "restaurant", "name": "Ra\u0131f \u00fcsta"}}, {"type": "node", "id": 4453952969, "lat": 41.0326016, "lon": 28.9855566, "tags": {"addr:housenumber": "35A", "addr:street": "Cihangir Caddesi", "amenity": "restaurant", "name": "22 Restorant B\u00e5r", "website": "https://22-restorant-bar.business.site/"}}, {"type": "node", "id": 4503226191, "lat": 41.032346, "lon": 28.9764591, "tags": {"addr:housenumber": "165", "addr:street": "\u0130stiklal Caddesi", "amenity": "restaurant", "cuisine": "balkan", "name": "Piknik kofte", "name:en": "Piknik kofte", "name:tr": "Piknik kofte", "opening_hours": "Mo-Su 08:00-00:00", "wheelchair": "no"}}, {"type": "node", "id": 4508369289, "lat": 41.0245845, "lon": 28.9779735, "tags": {"amenity": "restaurant", "name": "Nato Lokantas\u0131", "name:tr": "Nato Lokantas\u0131"}}, {"type": "node", "id": 4513846890, "lat": 41.0361033, "lon": 28.9801088, "tags": {"addr:housenumber": "27", "addr:street": "S\u00fcsl\u00fc Saks\u0131 Sk.", "amenity": "restaurant", "cuisine": "local", "name": "Taksim Bah\u00e7ivan", "name:tr": "Taksim Bah\u00e7ivan"}}, {"type": "node", "id": 4515454290, "lat": 41.0297607, "lon": 28.9667843, "tags": {"amenity": "restaurant", "name:en": "IBB Kasimpasa Sosyal Tesisleri"}}, {"type": "node", "id": 4517441289, "lat": 40.9638644, "lon": 29.2157298, "tags": {"amenity": "restaurant", "name": "Marmara Et", "name:en": "Marmara Meat", "name:tr": "Marmara Et", "phone": "02165610046"}}, {"type": "node", "id": 4526947091, "lat": 41.0312172, "lon": 28.9749913, "tags": {"amenity": "restaurant", "name:en": "\u0412eyzade"}}, {"type": "node", "id": 4529860138, "lat": 40.9601845, "lon": 29.0914582, "tags": {"addr:city": "\u0130stanbul", "addr:postcode": "81070", "addr:street": "Tur\u015fucu Deresi Sokak", "amenity": "restaurant", "capacity": "100", "cuisine": "kebab", "delivery": "yes", "name": "Yusuf Ustan\u0131n Yeri"}}, {"type": "node", "id": 4533925846, "lat": 41.0041246, "lon": 29.1462608, "tags": {"amenity": "restaurant", "name": "Tatmix"}}, {"type": "node", "id": 4535633095, "lat": 41.0135032, "lon": 29.2546852, "tags": {"addr:street": "Lale Sokak", "amenity": "restaurant", "cuisine": "turkish", "image": "https://tesislerimiz.ibb.istanbul/wp-content/uploads/2015/11/Safa-tepesi-aksam-cekimleri-12-kasim-2015-771-1500x430.jpg", "name": "\u0130BB Safa Tepesi Sosyal Tesisleri", "name:en": "\u0130BB Safa Tepesi Social Facility", "operator": "\u0130stanbul B\u00fcy\u00fck \u015eehir Belediyesi", "phone": "4441034", "website": "https://tesislerimiz.ibb.istanbul/safa-tepesi-sosyal-tesisi/"}}, {"type": "node", "id": 4535871798, "lat": 41.0204632, "lon": 29.12887, "tags": {"amenity": "restaurant", "name": "Nur Abla Restoran"}}, {"type": "node", "id": 4535875057, "lat": 41.0205213, "lon": 29.1286636, "tags": {"amenity": "restaurant", "name": "Saruhan \u0130\u015fkembe Salonu"}}, {"type": "node", "id": 4537356492, "lat": 41.0265382, "lon": 28.9752464, "tags": {"amenity": "restaurant", "name": "\u0645\u0637\u0639\u0645 The Gounmand \u0641\u064a \u063a\u0627\u0644\u0627\u062a\u0627", "name:tr": "\u0645\u0637\u0639\u0645 The Gounmand \u0641\u064a \u063a\u0627\u0644\u0627\u062a\u0627"}}, {"type": "node", "id": 4543170709, "lat": 40.9419187, "lon": 29.1453625, "tags": {"amenity": "restaurant", "cuisine": "Ev_Yemekleri", "name": "K\u00fcrek\u00e7iler Yemek Evi"}}, {"type": "node", "id": 4543170710, "lat": 40.9420785, "lon": 29.1453671, "tags": {"amenity": "restaurant", "cuisine": "Pideci", "name": "\u00c7aml\u0131k Pide"}}, {"type": "node", "id": 4543172084, "lat": 40.942199, "lon": 29.1444038, "tags": {"amenity": "restaurant", "cuisine": "regional", "name": "\u00c7eltik Kebap Lahmacun", "smoking": "isolated"}}, {"type": "node", "id": 4544885947, "lat": 40.9603892, "lon": 29.0912088}, {"type": "node", "id": 4544885948, "lat": 40.960342, "lon": 29.0911703}, {"type": "node", "id": 4544885949, "lat": 40.9603076, "lon": 29.09124}, {"type": "node", "id": 4544885950, "lat": 40.9603547, "lon": 29.0912784}, {"type": "node", "id": 4544907249, "lat": 41.0159001, "lon": 29.1301405, "tags": {"amenity": "restaurant", "name": "Anteplio\u011flu Baklavalar\u0131"}}, {"type": "node", "id": 4544917187, "lat": 41.0161256, "lon": 29.1297699, "tags": {"amenity": "restaurant", "name": "\u00d6z Anadolu Et Lokantas\u0131", "wheelchair": "no"}}, {"type": "node", "id": 4545696589, "lat": 41.0425685, "lon": 29.0028523, "tags": {"addr:city": "Istanbul", "addr:district": "Be\u015fikta\u015f", "addr:housenumber": "10", "addr:neighbourhood": "sinanpa\u015fa", "addr:postcode": "34353", "addr:street": "\u015eair Nedim Caddesi", "amenity": "restaurant", "cuisine": "sushi;noodle;asian", "name": "Sushi & Spice", "opening_hours": "Mo-Su 11:00-00:00", "phone": "+90 534 608 33 83", "website": "https://sushiandspice.com/"}}, {"type": "node", "id": 4547838230, "lat": 41.008876, "lon": 29.2120007, "tags": {"amenity": "restaurant", "cuisine": "kebab", "name": "\u015fark kebap salonu", "smoking": "no"}}, {"type": "node", "id": 4548015246, "lat": 41.0328137, "lon": 29.1767216, "tags": {"addr:city": "\u0130stanbul \u00c7ekmek\u00f6y", "addr:postcode": "34782", "addr:street": "Mimar Sinan Caddesi", "amenity": "restaurant", "name": "Naz Bal\u0131k"}}, {"type": "node", "id": 4548017790, "lat": 41.0328055, "lon": 29.1765253, "tags": {"addr:city": "\u0130stanbul", "addr:district": "\u00c7ekmek\u00f6y", "addr:neighbourhood": "Mimar Sinan Mahallesi", "addr:postcode": "34782", "addr:street": "Mimar Sinan Caddesi", "amenity": "restaurant", "capacity": "20", "cuisine": "turkish", "delivery": "yes", "name": "G\u00fcne\u015f Patso", "outdoor_seating": "yes", "phone": "+90 216 641 23 48", "smoking": "outside", "takeaway": "yes"}}, {"type": "node", "id": 4549492799, "lat": 41.0086861, "lon": 29.2130668, "tags": {"amenity": "restaurant", "name": "Keyif restoran"}}, {"type": "node", "id": 4549498593, "lat": 41.0093864, "lon": 29.2121363, "tags": {"amenity": "restaurant", "cuisine": "kebab", "name": "\u00c7ukur Ova D\u00fcr\u00fcmc\u00fc"}}, {"type": "node", "id": 4549507619, "lat": 41.0100794, "lon": 29.2113106, "tags": {"amenity": "restaurant", "cuisine": "steak_house", "name": "Zeki D\u00f6ner"}}, {"type": "node", "id": 4549509320, "lat": 41.0100683, "lon": 29.2113742, "tags": {"amenity": "restaurant", "cuisine": "kebab", "name": "Narin"}}, {"type": "node", "id": 4550664590, "lat": 40.9016545, "lon": 29.1471276, "tags": {"amenity": "restaurant", "name": "\u0130BB Dragos Sosyal Tesisleri", "name:tr": "\u0130BB Dragos Sosyal Tesisleri"}}, {"type": "node", "id": 4551312003, "lat": 41.0327668, "lon": 29.1740372, "tags": {"addr:city": "\u0130stanbul \u00c7ekmek\u00f6y", "addr:postcode": "34782", "addr:street": "Mimar Sinan Caddesi", "amenity": "restaurant", "name": "Komagene \u00c7i\u011fk\u00f6fte"}}, {"type": "node", "id": 4551967215, "lat": 40.9522408, "lon": 29.1011664, "tags": {"amenity": "restaurant", "name": "As \u0130skender", "phone": "366 09 37", "website": "www.askebap.com"}}, {"type": "node", "id": 4552257215, "lat": 40.9311557, "lon": 29.1280681, "tags": {"amenity": "restaurant", "name": "S\u00fcreyya Lokantas\u0131"}}, {"type": "node", "id": 4557012913, "lat": 40.9618563, "lon": 29.0916299, "tags": {"addr:city": "\u0130stanbul", "addr:district": "Kad\u0131k\u00f6y", "addr:housenumber": "21", "addr:neighbourhood": "Suadiye Mahallesi", "addr:postcode": "81070", "addr:street": "Yeni Fidan Sokak", "amenity": "restaurant", "cuisine": "rodos", "name": "Selanik Rodop K\u00f6fte"}}, {"type": "node", "id": 4559959201, "lat": 40.9402318, "lon": 29.143149, "tags": {"amenity": "restaurant", "name": "Ali Kolcuo\u011flu Kebap"}}, {"type": "node", "id": 4560484921, "lat": 40.9215401, "lon": 29.1565533}, {"type": "node", "id": 4560484922, "lat": 40.9214509, "lon": 29.1568966}, {"type": "node", "id": 4560484923, "lat": 40.9211895, "lon": 29.1567598}, {"type": "node", "id": 4560484924, "lat": 40.9212827, "lon": 29.1564111}, {"type": "node", "id": 4562285695, "lat": 40.924127, "lon": 29.1319931, "tags": {"amenity": "restaurant", "name": "\u00e7eltik"}}, {"type": "node", "id": 4564042358, "lat": 40.9247025, "lon": 29.1316464, "tags": {"amenity": "restaurant", "name": "Pusula Kokore\u00e7"}}, {"type": "node", "id": 4564042363, "lat": 40.9243251, "lon": 29.1321885, "tags": {"amenity": "restaurant", "name": "Mahfelinn"}}, {"type": "node", "id": 4564042370, "lat": 40.9241219, "lon": 29.1325138, "tags": {"amenity": "restaurant", "name": "Hac\u0131o\u011flu Restoran"}}, {"type": "node", "id": 4564042381, "lat": 40.924044, "lon": 29.1326412, "tags": {"amenity": "restaurant", "name": "Aras Bey \u0130skender Kebap"}}, {"type": "node", "id": 4564523062, "lat": 40.9630537, "lon": 29.0897487, "tags": {"addr:city": "\u0130stanbul", "addr:district": "Kad\u0131k\u00f6y", "addr:housenumber": "41", "addr:neighbourhood": "Suadiye Mahallesi", "addr:postcode": "34740", "addr:street": "\u015eemsettin G\u00fcnaltay Caddesi", "amenity": "restaurant", "cuisine": "turkish", "name": "Samsun Pide Evi", "website": "https://restaurantguru.com/SAMSUN-Pide-Evi-Istanbul"}}, {"type": "node", "id": 4564961592, "lat": 41.0430391, "lon": 29.0106309, "tags": {"addr:city": "\u0130stanbul", "addr:district": "Be\u015fikta\u015f", "addr:housenumber": "No:49/1", "addr:neighbourhood": "Y\u0131ld\u0131z Mahallesi", "addr:postcode": "34349", "addr:street": "\u00c7\u0131ra\u011fan Caddesi", "amenity": "restaurant", "cuisine": "indian", "delivery": "yes", "description": "Vejetaryen dostu bir mekand\u0131r.", "internet_access": "yes", "name:ar": "\u0645\u0637\u0639\u0645 \u0647\u0646\u062f\u064a Tandoori", "opening_hours": "Mo-Su 11:00-23:00", "outdoor_seating": "yes", "phone": "0212 227 07 37", "reservation": "recommended", "website": "tandooriistanbul.com"}}, {"type": "node", "id": 4567421206, "lat": 40.9358311, "lon": 29.1300178}, {"type": "node", "id": 4567421207, "lat": 40.9358842, "lon": 29.1301492}, {"type": "node", "id": 4567421208, "lat": 40.9358518, "lon": 29.1301721}, {"type": "node", "id": 4567421209, "lat": 40.9357939, "lon": 29.1300286}, {"type": "node", "id": 4570027716, "lat": 40.9379272, "lon": 29.1410373, "tags": {"amenity": "restaurant", "name": "Kaplan Kebap"}}, {"type": "node", "id": 4570027725, "lat": 40.9375894, "lon": 29.1412946}, {"type": "node", "id": 4570027726, "lat": 40.9374921, "lon": 29.1413939}, {"type": "node", "id": 4570027727, "lat": 40.9375691, "lon": 29.1415253}, {"type": "node", "id": 4570027728, "lat": 40.9376583, "lon": 29.1414234}, {"type": "node", "id": 4570507705, "lat": 40.8961108, "lon": 29.1851499, "tags": {"amenity": "restaurant", "name": "Ali\u015fan Usta"}}, {"type": "node", "id": 4571515279, "lat": 41.0091371, "lon": 29.2084932, "tags": {"amenity": "restaurant", "cuisine": "kebab", "name": "Kolcuo\u011flu", "outdoor_seating": "terrace", "smoking": "no"}}, {"type": "node", "id": 4571517650, "lat": 40.9327361, "lon": 29.1277415}, {"type": "node", "id": 4571517651, "lat": 40.9326429, "lon": 29.1275564}, {"type": "node", "id": 4571517652, "lat": 40.9325619, "lon": 29.127645}, {"type": "node", "id": 4571517653, "lat": 40.9326591, "lon": 29.1278247}, {"type": "node", "id": 4571525633, "lat": 40.9297049, "lon": 29.1292386}, {"type": "node", "id": 4571525634, "lat": 40.9297474, "lon": 29.1294027}, {"type": "node", "id": 4571525635, "lat": 40.9296841, "lon": 29.129439}, {"type": "node", "id": 4571525636, "lat": 40.9295926, "lon": 29.1292985}, {"type": "node", "id": 4571570070, "lat": 40.9304681, "lon": 29.1340964, "tags": {"amenity": "restaurant", "name": "Bo\u011fazi\u00e7i Et Lokantas\u0131"}}, {"type": "node", "id": 4571583034, "lat": 40.9316403, "lon": 29.1350755}, {"type": "node", "id": 4571583035, "lat": 40.9314889, "lon": 29.135279}, {"type": "node", "id": 4571583036, "lat": 40.9314094, "lon": 29.1351754}, {"type": "node", "id": 4571583037, "lat": 40.9315608, "lon": 29.1349719}, {"type": "node", "id": 4571602395, "lat": 40.937287, "lon": 29.1216804}, {"type": "node", "id": 4571602396, "lat": 40.9372509, "lon": 29.1216958}, {"type": "node", "id": 4571602397, "lat": 40.9372649, "lon": 29.1218021}, {"type": "node", "id": 4571602398, "lat": 40.9373184, "lon": 29.1217774}, {"type": "node", "id": 4571607864, "lat": 40.9368095, "lon": 29.1218494, "tags": {"amenity": "restaurant", "name": "BALIK\u00c7I S\u0130NAN"}}, {"type": "node", "id": 4571608321, "lat": 40.9367717, "lon": 29.1220017, "tags": {"amenity": "restaurant", "name": "Cadde D\u00fcr\u00fcm"}}, {"type": "node", "id": 4571898811, "lat": 40.9366812, "lon": 29.1406128}, {"type": "node", "id": 4571898812, "lat": 40.9366498, "lon": 29.1406403}, {"type": "node", "id": 4571898813, "lat": 40.9366347, "lon": 29.14061}, {"type": "node", "id": 4571898814, "lat": 40.9365133, "lon": 29.1407162}, {"type": "node", "id": 4571898815, "lat": 40.9365328, "lon": 29.1407554}, {"type": "node", "id": 4571898816, "lat": 40.9365136, "lon": 29.1407722}, {"type": "node", "id": 4571898817, "lat": 40.936636, "lon": 29.1410178}, {"type": "node", "id": 4571898818, "lat": 40.9368083, "lon": 29.140867}, {"type": "node", "id": 4572186718, "lat": 40.923943, "lon": 29.1329892, "tags": {"amenity": "restaurant", "name": "Pilav Noktas\u0131"}}, {"type": "node", "id": 4575550542, "lat": 40.9668872, "lon": 29.0678138, "tags": {"amenity": "restaurant", "name": "Happy Moon's"}}, {"type": "node", "id": 4575557532, "lat": 40.9452471, "lon": 29.120196, "tags": {"amenity": "restaurant", "name": "Duru Mangalevi"}}, {"type": "node", "id": 4576007295, "lat": 40.9387844, "lon": 29.1444705, "tags": {"amenity": "restaurant", "name": "Ev Yemek\u00e7isi"}}, {"type": "node", "id": 4576847896, "lat": 41.0115169, "lon": 29.0388244, "tags": {"addr:city": "\u00dcsk\u00fcdar/\u0130stanbul", "addr:street": "Ko\u015fuyolu Caddesi", "amenity": "restaurant", "cuisine": "kebab", "name": "B\u0130Z\u0130M D\u00d6NER"}}, {"type": "node", "id": 4576855932, "lat": 41.0115506, "lon": 29.0389729, "tags": {"addr:city": "\u00dcsk\u00fcdar/\u0130stanbul", "addr:street": "Kalfa \u00c7e\u015fmesi Sokak", "amenity": "restaurant", "name": "KO\u015eUYOLU DALYAN"}}, {"type": "node", "id": 4577172830, "lat": 41.0108949, "lon": 29.0382888, "tags": {"addr:city": "\u00dcsk\u00fcdar/\u0130stanbul", "addr:street": "Ko\u015fuyolu Caddesi", "amenity": "restaurant", "name": "Ustaca Kebap"}}, {"type": "node", "id": 4577236212, "lat": 41.0457166, "lon": 28.977187, "tags": {"amenity": "restaurant", "name:ar": "\u0645\u0637\u0639\u0645  Kocaba\u015f Sokak"}}, {"type": "node", "id": 4577683066, "lat": 41.0203732, "lon": 29.1227645}, {"type": "node", "id": 4577683067, "lat": 41.0204983, "lon": 29.1226208}, {"type": "node", "id": 4577683068, "lat": 41.0205076, "lon": 29.1227492}, {"type": "node", "id": 4577683069, "lat": 41.0203697, "lon": 29.1226348}, {"type": "node", "id": 4577684297, "lat": 41.0199051, "lon": 29.1235528}, {"type": "node", "id": 4577684298, "lat": 41.0198923, "lon": 29.1236221}, {"type": "node", "id": 4577684299, "lat": 41.019833, "lon": 29.1236236}, {"type": "node", "id": 4577684300, "lat": 41.01984, "lon": 29.1235543}, {"type": "node", "id": 4577684361, "lat": 41.0188614, "lon": 29.1263224}, {"type": "node", "id": 4577684362, "lat": 41.0188855, "lon": 29.1263507}, {"type": "node", "id": 4577684363, "lat": 41.0188521, "lon": 29.1264162}, {"type": "node", "id": 4577684364, "lat": 41.0188227, "lon": 29.1263808}, {"type": "node", "id": 4578599591, "lat": 40.972995, "lon": 29.0573594, "tags": {"addr:housenumber": "215", "addr:street": "Ba\u011fdat Caddesi", "amenity": "restaurant", "cuisine": "pizza", "internet_access": "wlan", "name": "Olivia's Pizzeria", "name:tr": "Olivia's Pizzeria", "opening_hours": "Mo-Su 11:30-22:00", "phone": "02163552438", "website": "http://www.olivi.as"}}, {"type": "node", "id": 4580351447, "lat": 40.9223352, "lon": 29.1410728, "tags": {"amenity": "restaurant", "name": "Kale Pide ve Lahmacun"}}, {"type": "node", "id": 4580351460, "lat": 40.9218471, "lon": 29.1398628, "tags": {"amenity": "restaurant", "name": "Y\u00f6re G\u00f6zleme"}}, {"type": "node", "id": 4580351494, "lat": 40.9218402, "lon": 29.1385145, "tags": {"amenity": "restaurant", "name": "Hac\u0131 Baba Pide"}}, {"type": "node", "id": 4580351503, "lat": 40.9215683, "lon": 29.1380996, "tags": {"amenity": "restaurant", "name": "Pide B\u00f6rek"}}, {"type": "node", "id": 4580351514, "lat": 40.9212768, "lon": 29.137498, "tags": {"amenity": "restaurant", "name": "E\u015fiyok K\u00f6fte"}}, {"type": "node", "id": 4580351527, "lat": 40.9213278, "lon": 29.1388079, "tags": {"amenity": "restaurant", "name": "G\u00fclseren Ev Yemekleri"}}, {"type": "node", "id": 4580491390, "lat": 40.8886413, "lon": 29.1859143, "tags": {"amenity": "restaurant", "name": "Intiba", "name:tr": "Intiba"}}, {"type": "node", "id": 4580648433, "lat": 40.9623109, "lon": 29.076188, "tags": {"addr:city": "\u0130stanbul", "addr:district": "Kad\u0131k\u00f6y", "addr:neighbourhood": "Suadiye Mahallesi", "addr:postcode": "34740", "addr:street": "Kaz\u0131m \u00d6zalp Soka\u011f\u0131", "amenity": "restaurant", "cuisine": "burger", "name": "Marmaris B\u00fcfe \u015ea\u015fk\u0131nbakkal"}}, {"type": "node", "id": 4582772256, "lat": 40.9765916, "lon": 29.0478166, "tags": {"amenity": "restaurant"}}, {"type": "node", "id": 4582774666, "lat": 40.9764742, "lon": 29.0477268}, {"type": "node", "id": 4582774667, "lat": 40.9764258, "lon": 29.0476867}, {"type": "node", "id": 4582774668, "lat": 40.9764044, "lon": 29.0477362}, {"type": "node", "id": 4582774669, "lat": 40.9764522, "lon": 29.0477756}, {"type": "node", "id": 4603530093, "lat": 41.0309878, "lon": 28.98181, "tags": {"addr:postcode": "34425", "addr:street": "T\u00fcrkg\u00fcc\u00fc Caddesi", "amenity": "restaurant", "cuisine": "turkish", "name": "Vegan Istanbul"}}, {"type": "node", "id": 4613859399, "lat": 41.0316133, "lon": 28.9832084, "tags": {"addr:street": "Yeni Yuva Sk.", "amenity": "restaurant", "name:en": "Egg&Burger", "website": "http://eggandburger.com.tr"}}, {"type": "node", "id": 4619547091, "lat": 41.047869, "lon": 28.9938404, "tags": {"amenity": "restaurant", "name:ar": "Ranchero Restaurant mexicano"}}, {"type": "node", "id": 4631874289, "lat": 40.887012, "lon": 29.1889127, "tags": {"addr:housenumber": "11", "amenity": "restaurant", "name": "Sahil Mercan Balik", "name:en": "Sahil Mercan  Fish", "name:tr": "Sahil Mercan Balik", "phone": "02165172710"}}, {"type": "node", "id": 4638381791, "lat": 40.9731689, "lon": 29.0407496, "tags": {"amenity": "restaurant", "name": "01 Ocakba\u015f\u0131 Alper G\u00fcltekin"}}, {"type": "node", "id": 4679023106, "lat": 41.033833, "lon": 28.9778329, "tags": {"amenity": "restaurant", "name:en": "Ayla Tantuni | istiklal \u015eb. \u0645\u0637\u0639\u0645", "wheelchair": "no"}}, {"type": "node", "id": 4681005189, "lat": 40.8173802, "lon": 29.3178759, "tags": {"amenity": "restaurant", "name": "Develi kebap", "name:en": "Develi kebap tuzla \u0645\u0637\u0639\u0645  \u062a\u0648\u0632\u0644\u0627"}}, {"type": "node", "id": 4711096989, "lat": 41.0294537, "lon": 28.9751839, "tags": {"amenity": "restaurant", "name": "Yemek Kul\u00fcb\u00fc", "name:tr": "Yemek Kul\u00fcb\u00fc", "wheelchair": "no"}}, {"type": "node", "id": 4713299358, "lat": 41.0252921, "lon": 28.9798707, "tags": {"addr:city": "Istanbul", "addr:district": "Beyo\u011flu", "addr:housenumber": "13", "addr:postcode": "34425", "addr:street": "Murakip Sokak", "amenity": "restaurant", "capacity": "80", "cuisine": "italian", "delivery": "yes", "name": "Nabu Karakoy", "opening_hours": "0700 - 2200", "outdoor_seating": "yes", "smoking": "outside", "takeaway": "yes"}}, {"type": "node", "id": 4717574589, "lat": 41.0364487, "lon": 28.982019, "tags": {"amenity": "restaurant", "cuisine": "turkish", "name:en": "Z\u00fcbeyir Ocakba\u015f\u0131", "operator": "Grilled meats"}},