{"version": 0.6, "generator": "Overpass API 0.7.60 f4c14d41", "osm3s": {"timestamp_osm_base": "2023-05-02T21:19:24Z", "copyright": "The data included in this document is from www.openstreetmap.org. The data is made available under ODbL."}, "elements": [{"type": "node", "id": 4828918032, "lat": 41.0812919, "lon": 28.9331608, "tags": {"name": "Tekel&kuruyemi\u015f", "name:tr": "Tekel&kuruyemi\u015f", "shop": "alcohol"}}, {"type": "node", "id": 6165290885, "lat": 41.0520916, "lon": 28.8935066, "tags": {"name": "Tekin G\u0131da Tekel & Kuruyemi\u015f", "opening_hours": "Mo-Su 09:00-00:00", "shop": "alcohol"}}, {"type": "node", "id": 6165290985, "lat": 41.0531646, "lon": 28.8930186, "tags": {"name": "Efe Tobacco Shop Tekel Bayi", "shop": "alcohol"}}, {"type": "node", "id": 10046986921, "lat": 41.1037564, "lon": 28.8665457, "tags": {"amenity": "marketplace", "name": "Ceren \u015eark\u00fcteri ve Market", "shop": "alcohol"}}, {"type": "node", "id": 10046986943, "lat": 41.1024437, "lon": 28.8668672, "tags": {"name": "Kervan Saray B\u00fcfe ve Kuruyemi\u015f", "shop": "alcohol"}}]}