{"version": 0.6, "generator": "Overpass API 0.7.60 f4c14d41", "osm3s": {"timestamp_osm_base": "2023-05-02T21:18:20Z", "copyright": "The data included in this document is from www.openstreetmap.org. The data is made available under ODbL."}, "elements": [{"type": "node", "id": 296035496, "lat": 22.2788, "lon": 114.173, "tags": {"addr:housenumber": "30-32", "addr:street": "\u67ef\u5e03\u9023\u9053 O'Brien Road", "amenity": "restaurant", "name": "\u4e0a\u6d77\u4e09\u516d\u4e5d\u98ef\u5e97 369 Restaurant Shanghai Food", "name:en": "369 Restaurant Shanghai Food", "name:zh": "\u4e0a\u6d77\u4e09\u516d\u4e5d\u98ef\u5e97", "ref:openrice": "10428"}}, {"type": "node", "id": 470817242, "lat": 22.27722, "lon": 114.17348, "tags": {"addr:city": "Wan Chai", "addr:country": "HK", "addr:housenumber": "5", "addr:street": "\u67ef\u5e03\u9023\u9053 O'Brien Road", "amenity": "restaurant", "cuisine": "pizza", "level": "0", "name": "Paisano's Pizzeria", "opening_hours": "Mo-Su,PH 09:30-00:00", "phone": "+852 25734554", "ref:openrice": "51584", "takeaway": "yes", "website": "https://www.paisanos.com.hk/", "wikimedia_commons": "File:HK WC \u7063\u4ed4 Wan Chai \u67ef\u5e03\u9023\u9053 5 O'Brien Street Paisano's Restaurant shop near Thomson Road n \u838a\u58eb\u6566\u9053 Johnston Road September 2020 SS2.jpg"}}, {"type": "node", "id": 629118677, "lat": 22.2779173, "lon": 114.1804868, "tags": {"amenity": "restaurant", "cuisine": "chinese", "name": "Hoi Kee Roastie Specialist", "name:en": "Hoi Kee Roastie Specialist"}}, {"type": "node", "id": 629118678, "lat": 22.28004, "lon": 114.17968, "tags": {"addr:full": "Shop 1-4, G/F, 379-389 Jaffe Road, Wanchai, Hong Kong", "addr:housenumber": "379-389", "addr:street": "Jaffe Road", "amenity": "restaurant", "cuisine": "chinese", "name": "\u559c\u8a18\u907f\u98a8\u5858\u7092\u8fa3\u87f9 Hee Kee Fried Crab Expert Ltd", "name:en": "Hee Kee Fried Crab Expert Ltd", "name:zh": "\u559c\u8a18\u907f\u98a8\u5858\u7092\u8fa3\u87f9", "name:zh-Hans": "\u559c\u8bb0\u907f\u98ce\u5858\u7092\u8fa3\u87f9", "name:zh-Hant": "\u559c\u8a18\u907f\u98a8\u5858\u7092\u8fa3\u87f9", "phone": "+852 28937565", "ref:openrice": "1181", "website": "http://www.heekee.hk"}}, {"type": "node", "id": 629119552, "lat": 22.2870839, "lon": 114.1428394, "tags": {"addr:housenumber": "263", "addr:street": "\u7687\u540e\u5927\u9053\u897f Queen's Road West", "amenity": "restaurant", "name": "Kwun Kee Claypot Specialist", "name:en": "Kwun Kee Claypot Specialist", "opening_hours": "Mo-Sa 11:00-00:30; Su 18:00-00:00"}}, {"type": "node", "id": 660415716, "lat": 22.2801362, "lon": 114.2302694, "tags": {"addr:housenumber": "28", "addr:street": "Shau Kei Wan Main Street East", "amenity": "restaurant", "level": "0", "name": "\u6469\u53f8\u9910\u5ef3 Merci Minnie", "name:en": "Merci Minnie", "name:zh": "\u6469\u53f8\u9910\u5ef3", "opening_hours": "Su-Th,PH 11:30-22:00; Fr,Sa 11:30-22:30", "ref:openrice": "46255"}}, {"type": "node", "id": 727273422, "lat": 22.2826076, "lon": 114.1519621, "tags": {"addr:housenumber": "48", "addr:street": "Staunton Street", "amenity": "restaurant", "name": "Double Happiness", "name:en": "Double Happiness", "phone": "+852 2549 1862"}}, {"type": "node", "id": 1022059619, "lat": 22.2780099, "lon": 114.170474, "tags": {"addr:housenumber": "8-12", "addr:street": "Fenwick Street", "amenity": "restaurant", "cuisine": "steak_house", "name": "Outback", "name:en": "Outback"}}, {"type": "node", "id": 1029597303, "lat": 22.2747329, "lon": 114.172087, "tags": {"addr:street": "\u7687\u540e\u5927\u9053\u6771 Queen's Road East", "amenity": "restaurant", "cuisine": "bavarian;german", "name": "King Ludwig", "name:en": "King Ludwig"}}, {"type": "node", "id": 1041274225, "lat": 22.286463, "lon": 114.13882, "tags": {"addr:housenumber": "420", "addr:street": "\u7687\u540e\u5927\u9053\u897f Queen's Road West", "amenity": "restaurant", "level": "0", "name": "\u85cd\u5c71\u98df\u574a", "ref:openrice": "31989"}}, {"type": "node", "id": 1070813647, "lat": 22.23346, "lon": 114.172586, "tags": {"amenity": "restaurant", "name": "\u7063\u666f\u9910\u5ef3 Bay View Restaurant", "name:en": "Bay View Restaurant", "name:zh": "\u7063\u666f\u9910\u5ef3", "opening_hours": "Mo-Su 10:00-18:00"}}, {"type": "node", "id": 1095706000, "lat": 22.28278, "lon": 114.1548, "tags": {"addr:country": "HK", "addr:housenumber": "65", "addr:street": "\u95a3\u9e9f\u8857 Cochrane Street", "amenity": "restaurant", "level": "0", "name": "\u738b\u5e9c Wang Fu", "name:en": "Wang Fu", "name:zh": "\u738b\u5e9c", "ref:openrice": "15794"}}, {"type": "node", "id": 1095708153, "lat": 22.28168, "lon": 114.15569, "tags": {"addr:city": "Central", "addr:country": "HK", "addr:housenumber": "15-19", "addr:street": "\u5a01\u9748\u9813\u8857 Wellington Street", "amenity": "restaurant", "brand": "\u8b5a\u4ed4\u4e09\u54e5 TamJai SamGor", "brand:en": "TamJai SamGor", "brand:wikidata": "Q113365214", "brand:zh": "\u8b5a\u4ed4\u4e09\u54e5", "brand:zh-Hans": "\u8c2d\u4ed4\u4e09\u54e5", "brand:zh-Hant": "\u8b5a\u4ed4\u4e09\u54e5", "cuisine": "noodle", "delivery": "yes", "name": "\u8b5a\u4ed4\u4e09\u54e5 TamJai SamGor", "name:en": "TamJai SamGor", "name:zh": "\u8b5a\u4ed4\u4e09\u54e5", "name:zh-Hans": "\u8c2d\u4ed4\u4e09\u54e5", "name:zh-Hant": "\u8b5a\u4ed4\u4e09\u54e5"}}, {"type": "node", "id": 1106660445, "lat": 22.2812538, "lon": 114.1542404, "tags": {"amenity": "restaurant", "cuisine": "italian", "name": "Pazta"}}, {"type": "node", "id": 1106906595, "lat": 22.2769155, "lon": 114.181572, "tags": {"amenity": "restaurant", "name": "Brunch Club and Supper", "name:en": "Brunch Club and Supper", "note": "A bar / restaurant; could be classified as either."}}, {"type": "node", "id": 1106907864, "lat": 22.2777927, "lon": 114.1792504, "tags": {"amenity": "restaurant", "level": "-1", "name": "\u9673\u5bb6\u5eda\u623f"}}, {"type": "node", "id": 1206896960, "lat": 22.2820004, "lon": 114.1530643, "tags": {"amenity": "restaurant", "cuisine": "italian", "name": "La Piazetta"}}, {"type": "node", "id": 1233568747, "lat": 22.282631, "lon": 114.15348, "tags": {"addr:housenumber": "39", "addr:street": "\u64fa\u82b1\u8857 Lyndhurst Terrace", "amenity": "restaurant", "cuisine": "lebanese", "level": "0", "name": "Beyrouth Bistro", "ref:openrice": "484567"}}, {"type": "node", "id": 1280185862, "lat": 22.2303254, "lon": 114.2514662, "tags": {"addr:street": "shek o village", "amenity": "restaurant", "name": "Shek O Chinese and Thailand Seafood Restaurant", "name:zh": "\u77f3\u6fb3\u4e2d\u6cf0\u9152\u5bb6", "opening_hours": "Mo-Su 11:30-22:00", "phone": "+852 2809 4426"}}, {"type": "node", "id": 1280317787, "lat": 22.2867656, "lon": 114.1368261, "tags": {"addr:street": "\u5fb7\u8f14\u9053\u897f Des Voeux Road West", "amenity": "restaurant", "brand": "\u5fc5\u52dd\u5ba2 Pizza Hut", "brand:en": "Pizza Hut", "brand:wikidata": "Q191615", "brand:wikipedia": "zh:\u5fc5\u80dc\u5ba2", "brand:zh": "\u5fc5\u52dd\u5ba2", "brand:zh-Hans": "\u5fc5\u80dc\u5ba2", "brand:zh-Hant": "\u5fc5\u52dd\u5ba2", "cuisine": "pizza", "level": "1", "name": "\u5fc5\u52dd\u5ba2 Pizza Hut", "name:en": "Pizza Hut", "name:zh": "\u5fc5\u52dd\u5ba2", "name:zh-Hans": "\u5fc5\u80dc\u5ba2", "name:zh-Hant": "\u5fc5\u52dd\u5ba2", "source": "Kaart Ground Survey 2017", "website": "https://www.pizzahut.com.hk/"}}, {"type": "node", "id": 1298359476, "lat": 22.2778198, "lon": 114.1707502, "tags": {"amenity": "restaurant", "cuisine": "italian", "name": "ilbelPaese"}}, {"type": "node", "id": 1298704440, "lat": 22.269015, "lon": 114.1848146, "tags": {"addr:housenumber": "16-18", "addr:street": "King Kwong Street", "amenity": "restaurant", "cuisine": "japanese", "name": "\u6155\u60c5 Bojyo", "name:en": "Bojyo", "name:zh": "\u6155\u60c5", "phone": "+852 28333395", "ref:openrice": "176", "source": "Kaart Ground Survey 2017"}}, {"type": "node", "id": 1298704478, "lat": 22.277569, "lon": 114.178418, "tags": {"addr:city": "Wan Chai", "addr:country": "HK", "addr:housenumber": "3", "addr:street": "\u5fb7\u4ec1\u8857 Tak Yan Street", "amenity": "restaurant", "cuisine": "noodle", "level": "0", "name": "\u5143\u6717\u5408\u9686\u6f6e\u5dde\u7c89\u9eb5", "opening_hours": "Mo-Su,PH 10:30-21:00", "phone": "+852 28891618", "ref:openrice": "577557"}}, {"type": "node", "id": 1298704514, "lat": 22.288271, "lon": 114.1933052, "tags": {"addr:street": "\u82f1\u7687\u9053 King's Road", "amenity": "restaurant", "cuisine": "sushi", "name": "\u722d\u9bae Sushi Express", "name:en": "Sushi Express", "name:zh": "\u722d\u9bae", "website": "https://www.sushiexpress.com.hk"}}, {"type": "node", "id": 1298704543, "lat": 22.2800252, "lon": 114.1861449, "tags": {"amenity": "restaurant", "cuisine": "steak_house", "name": "Mr Steak"}}, {"type": "node", "id": 1298704660, "lat": 22.27827, "lon": 114.17869, "tags": {"addr:housenumber": "338", "addr:street": "\u8ed2\u5c3c\u8a69\u9053 Hennessy Road", "amenity": "restaurant", "cuisine": "cantonese", "level": "1", "name": "\u5229\u82d1 Lei Garden", "name:en": "Lei Garden", "name:zh": "\u5229\u82d1", "opening_hours": "Mo-Su,PH 11:30-15:00, 18:00-23:00", "phone": "+852 28920333", "website": "https://www.leigarden.hk/"}}, {"type": "node", "id": 1298704683, "lat": 22.27772, "lon": 114.172608, "tags": {"amenity": "restaurant", "cuisine": "pasta", "name": "The Spaghetti House", "name:en": "The Spaghetti House", "name:zh": "\u610f\u7c89\u5c4b", "opening_hours": "Mo-Su,PH 11:00-23:00", "phone": "+852 25290901", "ref:openrice": "44009", "website": "https://www.spaghettihouse.com/"}}, {"type": "node", "id": 1298704690, "lat": 22.2783869, "lon": 114.1539902, "tags": {"amenity": "restaurant", "name": "Caritas Restaurant"}}, {"type": "node", "id": 1298704723, "lat": 22.2803208, "lon": 114.185947, "tags": {"amenity": "restaurant", "cuisine": "japanese", "name": "Watami"}}, {"type": "node", "id": 1298704736, "lat": 22.2822919, "lon": 114.1541436, "tags": {"addr:street": "\u6566\u548c\u91cc Tun Wo Lane", "amenity": "restaurant", "name": "The Diplomat"}}, {"type": "node", "id": 1298704783, "lat": 22.281743, "lon": 114.1548058, "tags": {"amenity": "restaurant", "cuisine": "indian", "name": "Rana Raj"}}, {"type": "node", "id": 1298704842, "lat": 22.280498, "lon": 114.181401, "tags": {"addr:housenumber": "440", "addr:street": "\u8b1d\u6590\u9053 Jaffe Road", "amenity": "restaurant", "brand": "\u4e00\u862d Ichiran", "cuisine": "noodle", "name": "\u4e00\u862d Ichiran", "name:en": "Ichiran", "name:zh": "\u4e00\u862d", "opening_hours": "24/7", "website": "https://hk.ichiran.com/"}}, {"type": "node", "id": 1298704873, "lat": 22.2811788, "lon": 114.1549294, "tags": {"amenity": "restaurant", "cuisine": "thai", "name": "Koh Thai"}}, {"type": "node", "id": 1298704909, "lat": 22.28208, "lon": 114.1535, "tags": {"addr:housenumber": "30", "addr:street": "\u8377\u674e\u6d3b\u9053 Hollywood Road", "amenity": "restaurant", "level": "0", "name": "Cleo"}}, {"type": "node", "id": 1298704952, "lat": 22.2860891, "lon": 114.1523538, "tags": {"addr:country": "HK", "addr:housenumber": "28-34", "addr:street": "\u6c38\u6a02\u8857 Wing Lok Street", "amenity": "restaurant", "cuisine": "italian", "name": "Jacomax", "phone": "+852 28514688"}}, {"type": "node", "id": 1299465481, "lat": 22.278622, "lon": 114.1705541, "tags": {"amenity": "restaurant", "cuisine": "sushi", "name": "Sushi One"}}, {"type": "node", "id": 1299465482, "lat": 22.2789718, "lon": 114.1806011, "tags": {"amenity": "restaurant", "name": "\u4e5d\u9f8d\u9910\u5ba4 Restaurant Kowloon", "name:en": "Restaurant Kowloon", "name:zh": "\u4e5d\u9f8d\u9910\u5ba4"}}, {"type": "node", "id": 1299465486, "lat": 22.2793867, "lon": 114.1808012, "tags": {"addr:street": "\u8ed2\u5c3c\u8a69\u9053 Hennessy Road", "amenity": "restaurant", "name": "\u932b\u862d Ceylon", "name:en": "Ceylon", "name:zh": "\u932b\u862d"}}, {"type": "node", "id": 1501689538, "lat": 22.28342, "lon": 114.14182, "tags": {"amenity": "restaurant", "cuisine": "japanese", "level": "0", "name": "\u677e\u672c\u65e5\u672c\u6599\u7406 Matsumoto", "name:en": "Matsumoto", "name:zh": "\u677e\u672c\u65e5\u672c\u6599\u7406", "ref:openrice": "524728"}}, {"type": "node", "id": 1590231457, "lat": 22.248043, "lon": 114.1562, "tags": {"addr:housenumber": "80-82", "addr:street": "Old Main Street, Aberdeen", "amenity": "restaurant", "cuisine": "chinese", "name": "\u5bcc\u5347\u6d77\u9bae\u83dc\u9928(\u5104\u71ca) Fu Sing Seafood Restaurant", "name:en": "Fu Sing Seafood Restaurant", "name:zh": "\u5bcc\u5347\u6d77\u9bae\u83dc\u9928(\u5104\u71ca)"}}, {"type": "node", "id": 1722029190, "lat": 22.27781, "lon": 114.227047, "tags": {"addr:housenumber": "333", "addr:street": "Shau Kei Wan Road", "amenity": "restaurant", "level": "0", "name": "\u7fe0\u83ef\u9910\u5ef3 Tsui Wah Restaurant", "name:en": "Tsui Wah Restaurant", "name:zh": "\u7fe0\u83ef\u9910\u5ef3", "ref:openrice": "453768"}}, {"type": "node", "id": 1780374924, "lat": 22.2688908, "lon": 114.1848524, "tags": {"addr:housenumber": "21", "addr:street": "King Kwong Street", "amenity": "restaurant", "cuisine": "noodle", "fax": "+852 28386899", "level": "0", "name": "\u6b63\u6597\u7ca5\u9eb5\u5c08\u5bb6 Tasty Congee & Noodle Wantun Shop", "name:en": "Tasty Congee & Noodle Wantun Shop", "name:zh": "\u6b63\u6597\u7ca5\u9eb5\u5c08\u5bb6", "phone": "+852 28383922", "ref:openrice": "3555", "source": "Kaart Ground Survey 2017", "website": "http://www.tasty.com.hk"}}, {"type": "node", "id": 1780374946, "lat": 22.26938, "lon": 114.184498, "tags": {"addr:housenumber": "22", "addr:street": "Yik Yam Street", "amenity": "restaurant", "level": "0", "name": "\u65b0\u660c\u660e\u98df\u5e97"}}, {"type": "node", "id": 1822894607, "lat": 22.282312, "lon": 114.185258}, {"type": "node", "id": 1822894615, "lat": 22.2823361, "lon": 114.1853284}, {"type": "node", "id": 1822894679, "lat": 22.2824913, "lon": 114.1851952}, {"type": "node", "id": 1822894686, "lat": 22.282516, "lon": 114.1852569}, {"type": "node", "id": 1925674003, "lat": 22.2840982, "lon": 114.1330794, "tags": {"addr:city": "Kennedy Town, Central and Western", "addr:housenumber": "91", "addr:street": "\u8584\u6276\u6797\u9053 Pok Fu Lam Road", "amenity": "restaurant", "capacity": "120", "cuisine": "chinese", "name": "\u6e2f\u5927\u5bb4\u6703\u5ef3"}}, {"type": "node", "id": 1925678683, "lat": 22.2830057, "lon": 114.1364905, "tags": {"alt_name": "\u5b78\u751f\u6703\u9910\u5ef3 Union Restaurant", "amenity": "restaurant", "cuisine": "chinese", "level": "4", "name": "EAT", "opening_hours": "Mo-Su 07:30-21:30", "operator": "Sodexo", "outdoor_seating": "yes", "payment:cash": "no", "payment:mastercard": "yes", "payment:visa": "yes", "start_date": "2018-09-27"}}, {"type": "node", "id": 1925678747, "lat": 22.2819669, "lon": 114.1374162, "tags": {"amenity": "restaurant", "cuisine": "international", "name": "Joseph's"}}, {"type": "node", "id": 1926836335, "lat": 22.2799798, "lon": 114.1307883, "tags": {"amenity": "restaurant", "capacity": "120", "cuisine": "chinese", "name": "HKU Hill View Restaurant"}}, {"type": "node", "id": 1932297114, "lat": 22.2838172, "lon": 114.134177, "tags": {"amenity": "restaurant", "cuisine": "regional", "diet:vegetarian": "only", "level": "0", "name": "\u4e00\u5ff5\u7d20\u98df Bijas Vegetarian", "name:en": "Bijas Vegetarian", "name:zh": "\u4e00\u5ff5\u7d20\u98df", "opening_hours": "Mo-Fr 08:00-21:00; PH Sa 11:30-21:00; Su off", "smoking": "no", "wheelchair": "yes"}}, {"type": "node", "id": 1956625076, "lat": 22.2711328, "lon": 114.1494684}, {"type": "node", "id": 1956625091, "lat": 22.2709803, "lon": 114.1494352}, {"type": "node", "id": 1956625103, "lat": 22.2711624, "lon": 114.1493097}, {"type": "node", "id": 1956625136, "lat": 22.27101, "lon": 114.1492765}, {"type": "node", "id": 2014724317, "lat": 22.2870702, "lon": 114.2122609, "tags": {"amenity": "restaurant", "cuisine": "international", "name": "Simple Life"}}, {"type": "node", "id": 2037706086, "lat": 22.2846573, "lon": 114.1420506, "tags": {"amenity": "restaurant", "name": "\u838e\u5398\u5a1c Czarina", "name:en": "Czarina", "name:zh": "\u838e\u5398\u5a1c"}}, {"type": "node", "id": 2040108176, "lat": 22.2815, "lon": 114.15561, "tags": {"addr:city": "Central", "addr:country": "HK", "addr:housenumber": "32-40", "addr:street": "\u5a01\u9748\u9813\u8857 Wellington Street", "amenity": "restaurant", "cuisine": "chinese", "email": "info@yungkee.com.hk", "fax": "+852 28400888", "name": "\u93de\u8a18\u9152\u5bb6 Yung Kee Restaurant", "name:en": "Yung Kee Restaurant", "name:zh": "\u93de\u8a18\u9152\u5bb6", "opening_hours": "Mo-Su,PH 11:00-23:30", "phone": "+852 25221624", "website": "https://yungkee.com.hk/", "wikidata": "Q258667", "wikipedia": "zh:\u93de\u8a18\u9152\u5bb6"}}, {"type": "node", "id": 2089466239, "lat": 22.2762772, "lon": 114.1700014, "tags": {"addr:city": "HongKong", "addr:country": "CN", "addr:district": "Wan Chai", "addr:floor": "1", "addr:housename": "Queen's", "addr:housenumber": "100", "addr:street": "Queen's Road East", "addr:suburb": "Wanchai", "air_conditioning": "yes", "amenity": "restaurant", "capacity": "40", "cuisine": "french;crepe", "diet:gluten_free": "yes", "internet_access": "wlan", "name": "La Cr\u00eaperie Wan Chai", "name:fr": "La Cr\u00eaperie Wan Chai", "phone": "+85225299280", "reservation": "recommended", "takeaway": "yes", "website": "http://lacreperie.com.cn/en/"}}, {"type": "node", "id": 2124676780, "lat": 22.282323, "lon": 114.15498, "tags": {"addr:country": "HK", "addr:housenumber": "76", "addr:street": "\u5a01\u9748\u9813\u8857 Wellington Street", "amenity": "restaurant", "brand": "7-Eleven", "brand:wikidata": "Q259340", "level": "0", "name": "7-Eleven", "name:en": "Berger Shop", "name:zh": "7-11\u4fbf\u5229\u5e97", "opening_hours": "24/7", "shop": "convenience", "website": "https://www.7-eleven.com.hk/"}}, {"type": "node", "id": 2194370927, "lat": 22.2766386, "lon": 114.1751228, "tags": {"addr:housenumber": "93-99", "addr:street": "\u7063\u4ed4\u9053 Wan Chai Road", "amenity": "restaurant", "diet:vegan": "only", "internet_access": "wlan", "level": "2", "name": "\u611b\u5bb6\u5065\u5eb7\u7d20\u98df Loving Hut", "name:en": "Loving Hut", "name:zh": "\u611b\u5bb6\u5065\u5eb7\u7d20\u98df", "not:brand:wikidata": "Q3491655"}}, {"type": "node", "id": 2194386772, "lat": 22.2911749, "lon": 114.1994285, "tags": {"amenity": "restaurant", "cuisine": "chinese", "diet:vegetarian": "only", "name": "\u4e09\u5fb7\u7d20\u98df\u9928 Three Virtues Vegetarian Restaurant", "name:en": "Three Virtues Vegetarian Restaurant", "name:zh": "\u4e09\u5fb7\u7d20\u98df\u9928"}}, {"type": "node", "id": 2247760956, "lat": 22.2754124, "lon": 114.1716249, "tags": {"addr:floor": "1/F", "addr:housenumber": "2-10", "addr:street": "Swatow Street", "addr:unit": "B", "amenity": "restaurant", "cuisine": "french", "name": "La Maison", "phone": "+852 26283888", "website": "https://lamaison.hk/"}}, {"type": "node", "id": 2247789535, "lat": 22.28342, "lon": 114.1527313, "tags": {"addr:housenumber": "75", "addr:street": "Hollywood Road", "amenity": "restaurant", "cuisine": "french", "name": "Les Fils a Maman", "source": "852-28710045", "website": "https://www.lesfilsamaman.hk//"}}, {"type": "node", "id": 2247800285, "lat": 22.278709, "lon": 114.1715635, "tags": {"addr:floor": "3/F", "addr:housenumber": "23", "addr:street": "Luard Road", "amenity": "restaurant", "cuisine": "regional", "name": "Velvet Bar + Restaurant", "name:en": "Velvet Bar + Restaurant", "website": "http://www.clubvelvet.com.hk/"}}, {"type": "node", "id": 2283552452, "lat": 22.2833965, "lon": 114.1267433, "tags": {"amenity": "restaurant", "cuisine": "pizza", "name": "Piccollo"}}, {"type": "node", "id": 2300359472, "lat": 22.28022, "lon": 114.180671, "tags": {"addr:housenumber": "414-424", "addr:street": "\u8b1d\u6590\u9053 Jaffe Road", "amenity": "restaurant", "cuisine": "cantonese", "name": "\u6a4b\u5e95\u8fa3\u87f9 Under Bridge Spicy Crab", "name:en": "Under Bridge Spicy Crab", "name:zh": "\u6a4b\u5e95\u8fa3\u87f9", "ref:openrice": "20569"}}, {"type": "node", "id": 2300434341, "lat": 22.278294, "lon": 114.179578, "tags": {"addr:street": "\u5929\u6a02\u91cc Tin Lok Lane", "amenity": "restaurant", "cuisine": "singaporean", "name": "\u5761\u6930\u5761\u56c9\u54aa Singapore Island", "name:en": "Singapore Island", "name:zh": "\u5761\u6930\u5761\u56c9\u54aa"}}, {"type": "node", "id": 2353275073, "lat": 22.232474, "lon": 114.172093}, {"type": "node", "id": 2353275074, "lat": 22.2323368, "lon": 114.1721554}, {"type": "node", "id": 2353275075, "lat": 22.2323149, "lon": 114.1720337}, {"type": "node", "id": 2353275076, "lat": 22.2324087, "lon": 114.1719911}, {"type": "node", "id": 2383788942, "lat": 22.2895144, "lon": 114.1962036, "tags": {"addr:street": "\u5821\u58d8\u8857 Fort Street", "addr:street:en": "Fort Street", "addr:street:zh": "\u5821\u58d8\u8857", "door": "yes", "entrance": "shop", "level": "0", "level:ref": "G", "retail": "yes"}}, {"type": "node", "id": 2394929261, "lat": 22.28311, "lon": 114.15481, "tags": {"addr:city": "Central", "addr:country": "HK", "addr:housenumber": "66-72", "addr:street": "\u58eb\u4e39\u5229\u8857 Stanley Street", "amenity": "restaurant", "cuisine": "noodle", "level": "0", "name": "\u5357\u8a18\u7c89\u9eb5 Nam Kee Noodle", "name:en": "Nam Kee Noodle", "name:ko": "\ub0a8\uae30\ubd84\uba74", "name:zh": "\u5357\u8a18\u7c89\u9eb5", "phone": "+852 25768007", "ref:openrice": "2407", "website": "https://www.namkee.hk/"}}, {"type": "node", "id": 2451904642, "lat": 22.2847893, "lon": 114.1997387, "tags": {"amenity": "restaurant", "name:en": "The Glasshouse"}}, {"type": "node", "id": 2583604029, "lat": 22.2823165, "lon": 114.2215504, "tags": {"amenity": "restaurant", "brand": "\u8b5a\u4ed4\u96f2\u5357\u7c73\u7dda TamJai Yunnan Mixian", "brand:wikidata": "Q13164532", "brand:wikipedia": "zh:\u8b5a\u4ed4\u96f2\u5357\u7c73\u7dda", "brand:zh": "\u8b5a\u4ed4\u96f2\u5357\u7c73\u7dda", "brand:zh-Hans": "\u8c2d\u4ed4\u4e91\u5357\u7c73\u7ebf", "brand:zh-Hant": "\u8b5a\u4ed4\u96f2\u5357\u7c73\u7dda", "cuisine": "noodle", "name": "\u8b5a\u4ed4\u96f2\u5357\u7c73\u7dda TamJai Yunnan Mixian", "name:en": "TamJai Yunnan Mixian", "name:zh": "\u8b5a\u4ed4\u96f2\u5357\u7c73\u7dda", "name:zh-Hans": "\u8c2d\u4ed4\u4e91\u5357\u7c73\u7ebf", "name:zh-Hant": "\u8b5a\u4ed4\u96f2\u5357\u7c73\u7dda", "wikimedia_commons": "File:HK SWH \u897f\u7063\u6cb3 Sai Wan Ho \u7b72\u7b95\u7063\u9053 Shau Kei Wan Road August 2021 SS2 74.jpg"}}, {"type": "node", "id": 2585382683, "lat": 22.27668, "lon": 114.17656, "tags": {"addr:city": "Wan Chai", "addr:country": "HK", "addr:housenumber": "151-163", "addr:street": "\u7063\u4ed4\u9053 Wan Chai Road", "amenity": "restaurant", "cuisine": "malaysian;singaporean", "level": "0", "name": "\u99ac\u516d Malacca Cuisine", "name:en": "Malacca Cuisine", "name:zh": "\u99ac\u516d", "phone": "+852 21777899", "ref:openrice": "614509"}}, {"type": "node", "id": 2653343439, "lat": 22.2843881, "lon": 114.1419623, "tags": {"amenity": "restaurant", "brand": "\u5fc5\u52dd\u5ba2 Pizza Hut", "brand:en": "Pizza Hut", "brand:wikidata": "Q191615", "brand:zh": "\u5fc5\u52dd\u5ba2", "brand:zh-Hans": "\u5fc5\u80dc\u5ba2", "brand:zh-Hant": "\u5fc5\u52dd\u5ba2", "capacity": "0", "cuisine": "pizza", "name": "\u5fc5\u52dd\u5ba2 Pizza Hut", "name:en": "Pizza Hut", "name:zh": "\u5fc5\u52dd\u5ba2", "name:zh-Hans": "\u5fc5\u80dc\u5ba2", "name:zh-Hant": "\u5fc5\u52dd\u5ba2", "website": "https://www.pizzahut.com.hk/"}}, {"type": "node", "id": 2657774666, "lat": 22.2864038, "lon": 114.136452, "tags": {"amenity": "restaurant", "capacity": "20", "cuisine": "japanese"}}, {"type": "node", "id": 2716741533, "lat": 22.2829232, "lon": 114.1880409}, {"type": "node", "id": 2716741534, "lat": 22.2829437, "lon": 114.1880819}, {"type": "node", "id": 2716741537, "lat": 22.2828737, "lon": 114.1882768}, {"type": "node", "id": 2716741539, "lat": 22.2828458, "lon": 114.1882794}, {"type": "node", "id": 2716741541, "lat": 22.2827276, "lon": 114.1881061}, {"type": "node", "id": 2716741544, "lat": 22.2827389, "lon": 114.1880777}, {"type": "node", "id": 2718296108, "lat": 22.2806149, "lon": 114.1825828, "tags": {"addr:street": "\u99f1\u514b\u9053 Lockhart Road", "amenity": "restaurant", "brand": "\u5fc5\u52dd\u5ba2 Pizza Hut", "brand:en": "Pizza Hut", "brand:wikidata": "Q191615", "brand:wikipedia": "zh:\u5fc5\u80dc\u5ba2", "brand:zh": "\u5fc5\u52dd\u5ba2", "brand:zh-Hans": "\u5fc5\u80dc\u5ba2", "brand:zh-Hant": "\u5fc5\u52dd\u5ba2", "cuisine": "pizza", "level": "3", "name": "\u5fc5\u52dd\u5ba2 Pizza Hut", "name:en": "Pizza Hut", "name:zh": "\u5fc5\u52dd\u5ba2", "name:zh-Hans": "\u5fc5\u80dc\u5ba2", "name:zh-Hant": "\u5fc5\u52dd\u5ba2", "website": "https://www.pizzahut.com.hk/"}}, {"type": "node", "id": 2719229091, "lat": 22.2843309, "lon": 114.191573, "tags": {"addr:housenumber": "67", "addr:street": "\u96fb\u6c23\u9053 Electric Road", "amenity": "restaurant", "cuisine": "thai", "name": "\u6cf0\u570b\u4eba\u6d77\u5357\u96de Koon Thai Hai Nam Chicken", "name:en": "Koon Thai Hai Nam Chicken", "name:zh": "\u6cf0\u570b\u4eba\u6d77\u5357\u96de", "phone": "+852 28928892", "ref:openrice": "20877", "website": "http://www.bkt.com.hk"}}, {"type": "node", "id": 2719229111, "lat": 22.2845069, "lon": 114.1915618, "tags": {"addr:housenumber": "75", "addr:street": "\u96fb\u6c23\u9053 Electric Road", "amenity": "restaurant", "cuisine": "noodle", "name": "\u5fb7\u660c\u9b5a\u86cb\u7c89 Tak Cheong Noodle", "name:en": "Tak Cheong Noodle", "name:zh": "\u5fb7\u660c\u9b5a\u86cb\u7c89", "ref:openrice": "13011"}}, {"type": "node", "id": 2719229115, "lat": 22.2844189, "lon": 114.1915674, "tags": {"addr:housenumber": "71", "addr:street": "\u96fb\u6c23\u9053 Electric Road", "amenity": "restaurant", "cuisine": "barbecue", "name": "\u4e32\u5920\u5473", "ref:openrice": "95613"}}, {"type": "node", "id": 2719229128, "lat": 22.2845509, "lon": 114.191559, "tags": {"addr:housenumber": "77", "addr:street": "\u96fb\u6c23\u9053 Electric Road", "amenity": "restaurant", "name": "\u6676\u6676\u751c\u54c1 Ching Ching Desserts", "name:en": "Ching Ching Desserts", "name:zh": "\u6676\u6676\u751c\u54c1", "ref:openrice": "389"}}, {"type": "node", "id": 2719229130, "lat": 22.2844629, "lon": 114.1915646, "tags": {"addr:housenumber": "73", "addr:street": "\u96fb\u6c23\u9053 Electric Road", "amenity": "restaurant", "cuisine": "japanese", "name": "\u516b\u5341\u516b\u5c45\u9152\u5c4b Izakaya 88", "name:en": "Izakaya 88", "name:zh": "\u516b\u5341\u516b\u5c45\u9152\u5c4b", "ref:openrice": "162551"}}, {"type": "node", "id": 2719229141, "lat": 22.2846169, "lon": 114.1915548, "tags": {"addr:housenumber": "79-81", "addr:street": "\u96fb\u6c23\u9053 Electric Road", "amenity": "restaurant", "name": "\u68cb\u54e5\u71d2\u9d5d\u9910\u5ba4 Ki's Roasted Goose Restaurant", "name:en": "Ki's Roasted Goose Restaurant", "name:zh": "\u68cb\u54e5\u71d2\u9d5d\u9910\u5ba4", "ref:openrice": "530677"}}, {"type": "node", "id": 2719229145, "lat": 22.284227, "lon": 114.191819, "tags": {"addr:housenumber": "76B", "addr:street": "\u96fb\u6c23\u9053 Electric Road", "amenity": "restaurant", "cuisine": "noodle", "level": "0", "name": "\u9ea5\u5940\u96f2\u541e\u9eb5\u4e16\u5bb6 Mak's Noodle", "name:en": "Mak's Noodle", "name:zh": "\u9ea5\u5940\u96f2\u541e\u9eb5\u4e16\u5bb6", "opening_hours": "Mo-Su,PH 10:00-00:30", "phone": "+852 31062386", "ref:openrice": "434509", "website": "https://www.maksnoodle.com/", "wikidata": "Q6738531"}}, {"type": "node", "id": 2719229861, "lat": 22.2842869, "lon": 114.1915758, "tags": {"addr:housenumber": "65", "addr:street": "\u96fb\u6c23\u9053 Electric Road", "amenity": "restaurant", "cuisine": "noodle", "level": "0", "name": "\u937e\u8a18\u7c89\u9eb5\u5e97", "phone": "+852 34288179", "ref:openrice": "15229"}}, {"type": "node", "id": 2719397715, "lat": 22.283892, "lon": 114.192185, "tags": {"addr:housenumber": "21", "addr:street": "\u9280\u5e55\u8857 Ngan Mok Street", "amenity": "restaurant", "cuisine": "taiwanese", "level": "0", "name": "\u53f0\u7063\u90ce Taiwan Lang", "name:en": "Taiwan Lang", "name:zh": "\u53f0\u7063\u90ce", "phone": "+852 22658858", "ref:openrice": "531780"}}, {"type": "node", "id": 2719397716, "lat": 22.2843184, "lon": 114.1924181, "tags": {"amenity": "restaurant", "cuisine": "korean", "name": "\u9ad8\u9e97\u97d3\u570b\u9910\u5ef3 Korea Restaurant", "name:en": "Korea Restaurant", "name:zh": "\u9ad8\u9e97\u97d3\u570b\u9910\u5ef3"}}, {"type": "node", "id": 2719397717, "lat": 22.284313, "lon": 114.1922958, "tags": {"amenity": "restaurant", "cuisine": "japanese", "name": "\u5bfa\u7530\u5c4b Teradaya", "name:en": "Teradaya", "name:zh": "\u5bfa\u7530\u5c4b"}}, {"type": "node", "id": 2719397718, "lat": 22.2841139, "lon": 114.1925101, "tags": {"addr:street": "\u82f1\u7687\u9053 King's Road", "amenity": "restaurant", "cuisine": "chinese", "name": "\u9f8d\u8ed2\u9152\u5bb6 The Dragon Palace", "name:en": "The Dragon Palace", "name:zh": "\u9f8d\u8ed2\u9152\u5bb6", "source": "Kaart Ground Survey 2017"}}, {"type": "node", "id": 2719397719, "lat": 22.2843161, "lon": 114.1923663, "tags": {"amenity": "restaurant", "cuisine": "chinese", "name": "\u4e00\u934b iPot", "name:en": "iPot", "name:zh": "\u4e00\u934b"}}, {"type": "node", "id": 2719397720, "lat": 22.2843042, "lon": 114.1920295, "tags": {"amenity": "restaurant", "cuisine": "chinese", "name": "\u767c\u8a18\u98ef\u5e97", "name:zh": "\u767c\u8a18\u98ef\u5e97"}}, {"type": "node", "id": 2772537332, "lat": 22.280529, "lon": 114.230482, "tags": {"addr:housenumber": "10", "addr:street": "\u7b72\u7b95\u7063\u6771\u5927\u8857 Shau Kei Wan Main Street East", "amenity": "restaurant", "cuisine": "noodle", "level": "0", "name": "\u738b\u6797\u8a18 Wong Lam Kee", "name:en": "Wong Lam Kee", "name:zh": "\u738b\u6797\u8a18", "phone": "+852 28860068", "ref:openrice": "11049"}}, {"type": "node", "id": 2772537334, "lat": 22.280352, "lon": 114.23039, "tags": {"addr:country": "HK", "addr:housenumber": "22", "addr:street": "Shau Kei Wan Main Street East", "amenity": "restaurant", "cuisine": "noodle", "delivery": "yes", "name": "\u5b89\u5229\u9b5a\u86cb\u7c89\u9eb5 On Lee Noodle Shop", "name:en": "On Lee Noodle Shop", "name:zh": "\u5b89\u5229\u9b5a\u86cb\u7c89\u9eb5", "opening_hours": "Th off; Fr-We,PH 09:00-19:00", "payment:cash": "yes", "payment:credit_cards": "no", "payment:debit_cards": "no", "payment:electronic_purses": "no", "phone": "+852 25138398", "ref:openrice": "15987", "takeaway": "yes", "wikimedia_commons": "File:HK SKW \u7b72\u7b95\u7063 Shau Kei Wan \u7b72\u7b95\u7063\u6771\u5927\u8857 Main Street East October 2021 SS2 123.jpg"}}, {"type": "node", "id": 2789910256, "lat": 22.2760236, "lon": 114.1556497, "tags": {"addr:city": "Mid-Level", "addr:housenumber": "2", "addr:street": "\u9ea5\u7576\u52de\u9053 Macdonnell Road", "amenity": "restaurant", "cuisine": "international", "name": "2 Macdonell Road Coffee Shop", "opening_hours": "11:30-21:30", "phone": "+852 2132 2688", "smoking": "no", "source": "http://www.twomr.com.hk/eng/cof_sho/cof_sho.html", "website": "http://www.mr2.com.hk"}}, {"type": "node", "id": 2935664497, "lat": 22.2817981, "lon": 114.1288017, "tags": {"addr:floor": "2", "amenity": "restaurant", "name": "\u5229\u9686\u706b\u934b\u98df\u5e97"}}, {"type": "node", "id": 2935664498, "lat": 22.2817918, "lon": 114.128607, "tags": {"amenity": "restaurant", "name": "\u53cb\u660e"}}, {"type": "node", "id": 2935664500, "lat": 22.281788, "lon": 114.1286838, "tags": {"amenity": "restaurant", "name": "\u73cd\u54c1\u5c0f\u7092"}}, {"type": "node", "id": 2935667301, "lat": 22.281821, "lon": 114.1286728, "tags": {"amenity": "restaurant", "name": "\u8aa0\u8a18"}}, {"type": "node", "id": 2956797614, "lat": 22.27825, "lon": 114.176653, "tags": {"addr:city": "Hong Kong", "addr:housenumber": "1C", "addr:street": "Stewart Road", "amenity": "restaurant", "cuisine": "chinese", "name": "\u518d\u8208\u71d2\u81d8\u98ef\u5e97 Joy Hing's Roasted Meat", "name:en": "Joy Hing's Roasted Meat", "name:zh": "\u518d\u8208\u71d2\u81d8\u98ef\u5e97", "opening_hours": "Mo-Sa 09:30-22:00; PH off", "ref:openrice": "1491", "source": "wikipedia", "wikidata": "Q10894923", "wikipedia": "en:Joy Hing's Roasted Meat"}}, {"type": "node", "id": 2957738559, "lat": 22.279325, "lon": 114.185675, "tags": {"addr:housenumber": "50", "addr:street": "\u6e23\u7538\u8857 Jardine's Bazaar", "amenity": "restaurant", "cuisine": "korean", "level": "0", "name": "Hungry Korean", "ref:openrice": "139823"}}, {"type": "node", "id": 2995395292, "lat": 22.27839, "lon": 114.17691, "tags": {"addr:housenumber": "272-274", "addr:street": "\u99f1\u514b\u9053 Lockhart Road", "amenity": "restaurant", "cuisine": "vietnamese", "level": "0", "name": "\u5927\u53fb\u8d8a\u5357\u725b\u8089\u7c89\u9910\u5ef3 Dalat Vietnamese Restaurant", "name:en": "Dalat Vietnamese Restaurant", "name:zh": "\u5927\u53fb\u8d8a\u5357\u725b\u8089\u7c89\u9910\u5ef3"}}, {"type": "node", "id": 3005342661, "lat": 22.2863956, "lon": 114.2190092, "tags": {"amenity": "restaurant", "name": "PHI Coffee & Pancake", "ref:openrice": "740987"}}, {"type": "node", "id": 3053933136, "lat": 22.2453232, "lon": 114.1763887}, {"type": "node", "id": 3053933137, "lat": 22.2453615, "lon": 114.1762459}, {"type": "node", "id": 3053933139, "lat": 22.245207, "lon": 114.1764504}, {"type": "node", "id": 3053933142, "lat": 22.245195, "lon": 114.1764577}, {"type": "node", "id": 3053933145, "lat": 22.2450475, "lon": 114.1763008}, {"type": "node", "id": 3053933147, "lat": 22.2450544, "lon": 114.1762659}, {"type": "node", "id": 3053933148, "lat": 22.24505, "lon": 114.1764823}, {"type": "node", "id": 3053933751, "lat": 22.2450885, "lon": 114.1765572}, {"type": "node", "id": 3053933768, "lat": 22.2450665, "lon": 114.1762894}, {"type": "node", "id": 3053933773, "lat": 22.2451194, "lon": 114.1764405}, {"type": "node", "id": 3053933775, "lat": 22.245209, "lon": 114.1764848}, {"type": "node", "id": 3053933785, "lat": 22.2452312, "lon": 114.1763599}, {"type": "node", "id": 3064312021, "lat": 22.2842188, "lon": 114.153481, "tags": {"amenity": "restaurant", "name": "\u84ee\u9999\u6a13 Lin Heung Tea House", "name:en": "Lin Heung Tea House", "name:zh": "\u84ee\u9999\u6a13", "wikidata": "Q19647633"}}, {"type": "node", "id": 3064991895, "lat": 22.27791, "lon": 114.17852, "tags": {"amenity": "restaurant", "name": "\u65b0\u5fb7\u8208\u8336\u9910\u5ef3", "ref:openrice": "16501"}}, {"type": "node", "id": 3157631526, "lat": 22.282078, "lon": 114.15394, "tags": {"addr:city": "Central", "addr:country": "HK", "addr:housenumber": "23", "addr:street": "\u8377\u674e\u6d3b\u9053 Hollywood Road", "amenity": "restaurant", "cuisine": "pizza", "level": "0", "name": "Paisano's Pizzeria", "opening_hours": "Su-Th 11:00-01:00; Fr-Sa 11:00-03:00", "phone": "+852 2544 4445", "ref:openrice": "99952", "takeaway": "yes", "website": "https://www.paisanos.com.hk/", "wikimedia_commons": "File:HK Central \u8377\u674e\u6d3b\u9053 Hollywood Road near Tai Kwun October 2020 SS2 01.jpg"}}, {"type": "node", "id": 3162790225, "lat": 22.285238, "lon": 114.1526124, "tags": {"addr:city": "Hong Kong", "addr:housenumber": "2", "addr:street": "\u6587\u54b8\u6771\u8857 Bonham Strand", "amenity": "restaurant", "capacity": "20", "cuisine": "vietnamese", "name": "noodlemi", "opening_hours": "Mo-Sa 11:30-22:00; Su 12:00-21:30", "website": "http://www.noodle-mi.com/"}}, {"type": "node", "id": 3296360044, "lat": 22.286458, "lon": 114.13879, "tags": {"addr:housenumber": "420-424", "addr:street": "\u7687\u540e\u5927\u9053\u897f Queen's Road West", "addr:unit": "B", "amenity": "restaurant", "level": "0", "name": "\u66f8\u6e58\u9580\u7b2c Cafe Hunan", "name:en": "Cafe Hunan", "name:zh": "\u66f8\u6e58\u9580\u7b2c", "ref:openrice": "121262"}}, {"type": "node", "id": 3439543793, "lat": 22.28424, "lon": 114.22315, "tags": {"addr:country": "HK", "amenity": "restaurant", "level": "0", "name": "\u592a\u8208 Tai Hing", "name:en": "Tai Hing", "name:zh": "\u592a\u8208"}}, {"type": "node", "id": 3485414389, "lat": 22.2850664, "lon": 114.1512269, "tags": {"addr:city": "Hong Kong", "addr:housenumber": "27", "addr:street": "Hillier Street", "amenity": "restaurant", "cuisine": "chinese", "level": "0", "name": "Dim Sum Square", "name:en": "Dim Sum Square", "name:zh": "\u805a\u9ede\u574a\u9ede\u5fc3\u5c08\u9580\u5e97", "opening_hours": "Mo-Fr 10:00-22:00; Sa-Su 08:00-20:00", "ref:openrice": "161371"}}, {"type": "node", "id": 3493469174, "lat": 22.2880194, "lon": 114.1391168, "tags": {"amenity": "restaurant", "name": "\u8336\u9910A"}}, {"type": "node", "id": 3664216569, "lat": 22.2760637, "lon": 114.1746229, "tags": {"addr:city": "Wan Chai", "addr:housenumber": "63", "addr:street": "\u7063\u4ed4\u9053 Wan Chai Road", "amenity": "restaurant", "capacity": "50", "cuisine": "hong_kong_style", "name": "\u5617\u6a02", "smoking": "no", "takeaway": "yes"}}, {"type": "node", "id": 3664258325, "lat": 22.2767057, "lon": 114.1756504, "tags": {"addr:housenumber": "119", "addr:street": "\u7063\u4ed4\u9053 Wan Chai Road", "amenity": "restaurant", "cuisine": "noodle", "name": "\u6a19\u8a18\u96f2\u541e\u9eb5"}}, {"type": "node", "id": 3664634394, "lat": 22.2761951, "lon": 114.1744432, "tags": {"amenity": "restaurant", "cuisine": "thai", "name": "\u6cf0\u5983\u96de"}}, {"type": "node", "id": 3664638205, "lat": 22.2761262, "lon": 114.1744466, "tags": {"amenity": "restaurant", "cuisine": "chinese", "name": "\u7965\u5229\u98ef\u5e97"}}, {"type": "node", "id": 3665683284, "lat": 22.2799434, "lon": 114.1821973, "tags": {"addr:city": "Hong Kong", "addr:housenumber": "1/F 467-473", "addr:street": "\u8ed2\u5c3c\u8a69\u9053 Hennessy Road", "amenity": "restaurant", "cuisine": "chinese", "name": "\u9806\u5fb3\u6f01\u9bae\u9152\u5bb6", "phone": "+852 2572 2000"}}, {"type": "node", "id": 3665683340, "lat": 22.278333, "lon": 114.177508, "tags": {"addr:city": "Wan Chai", "addr:housenumber": "289", "addr:street": "\u8ed2\u5c3c\u8a69\u9053 Hennessy Road", "amenity": "restaurant", "cuisine": "chinese", "name": "\u9189\u74ca\u6a13\u9152\u5bb6", "ref:openrice": "13152"}}, {"type": "node", "id": 3667168074, "lat": 22.278332, "lon": 114.176631, "tags": {"addr:city": "Wan Chai", "addr:housenumber": "1D", "addr:street": "Stewart Road", "amenity": "restaurant", "name": "\u5927\u69ae\u83ef\u570d\u6751\u83dc", "name:en": "Tai Wing Wah Village Cuisine", "name:zh": "\u5927\u69ae\u83ef\u570d\u6751\u83dc", "phone": "+852 2511 1663", "ref:openrice": "50737"}}, {"type": "node", "id": 3667264476, "lat": 22.2767999, "lon": 114.1741246, "tags": {"amenity": "restaurant", "cuisine": "chinese", "name": "\u6d77\u7687\u7ca5\u5e97"}}, {"type": "node", "id": 3667265690, "lat": 22.2767841, "lon": 114.1740003, "tags": {"amenity": "restaurant", "cuisine": "chinese", "name": "\u65b0\u8c50\u8a18 \u9b5a\u65e6\u725b\u96dc\u7c89\u9eb5", "wheelchair": "no"}}, {"type": "node", "id": 3667341868, "lat": 22.2770578, "lon": 114.1767074, "tags": {"amenity": "restaurant", "name": "\u7687\u540e\u9903\u5b50 Queen\u2019s Dumpling", "name:en": "Queen\u2019s Dumpling", "name:zh": "\u7687\u540e\u9903\u5b50"}}, {"type": "node", "id": 3668093735, "lat": 22.2771583, "lon": 114.1759971, "tags": {"amenity": "restaurant", "cuisine": "hong_kong_style", "name": "\u96c5\u5712\u8336\u9910\u5ef3"}}, {"type": "node", "id": 3668094045, "lat": 22.2767643, "lon": 114.1762565, "tags": {"addr:street": "\u7063\u4ed4\u9053 Wan Chai Road", "amenity": "restaurant", "cuisine": "chinese", "name": "\u539f\u6c41\u539f\u5473 The Yuan", "name:en": "The Yuan", "name:zh": "\u539f\u6c41\u539f\u5473"}}, {"type": "node", "id": 3668102161, "lat": 22.277435, "lon": 114.17582, "tags": {"amenity": "restaurant", "cuisine": "italian;pizza", "level": "0", "name": "\u610f\u5eca Avanti Pizzeria", "name:en": "Avanti Pizzeria", "name:zh": "\u610f\u5eca", "ref:openrice": "521348"}}, {"type": "node", "id": 3668127567, "lat": 22.27721, "lon": 114.17703, "tags": {"addr:housenumber": "288", "addr:street": "\u8ed2\u5c3c\u8a69\u9053 Hennessy Road", "amenity": "restaurant", "cuisine": "chinese", "level": "-1", "name": "\u559c\u842c\u5e74\u9152\u6a13 Asiania Restaurant", "name:en": "Asiania Restaurant", "name:zh": "\u559c\u842c\u5e74\u9152\u6a13", "ref:openrice": "144809"}}, {"type": "node", "id": 3668133241, "lat": 22.2778913, "lon": 114.1771942, "tags": {"addr:housenumber": "294", "addr:street": "\u8ed2\u5c3c\u8a69\u9053 Hennessy Road", "amenity": "restaurant", "name": "\u990a\u548c\u5802\u6dbc\u8336\u9928"}}, {"type": "node", "id": 3668154880, "lat": 22.277877, "lon": 114.178312, "tags": {"addr:city": "Wan Chai", "addr:country": "HK", "addr:housenumber": "218-220", "addr:street": "\u7063\u4ed4\u9053 Wan Chai Road", "addr:unit": "4", "amenity": "restaurant", "contact:facebook": "https://www.facebook.com/111138467686798/", "contact:instagram": "https://www.instagram.com/snakesoup_hk/", "cuisine": "chinese", "name": "\u86c7\u738b\u6613", "opening_hours": "Mo-Su 11:00-21:00", "phone": "+852 2261 2929"}}, {"type": "node", "id": 3668156538, "lat": 22.27772, "lon": 114.178815, "tags": {"addr:city": "Wan Chai", "addr:housenumber": "205", "addr:street": "\u7063\u4ed4\u9053 Wan Chai Road", "amenity": "restaurant", "brand": "\u8b5a\u4ed4\u4e09\u54e5 TamJai SamGor", "brand:en": "TamJai SamGor", "brand:wikidata": "Q113365214", "brand:zh": "\u8b5a\u4ed4\u4e09\u54e5", "brand:zh-Hans": "\u8c2d\u4ed4\u4e09\u54e5", "brand:zh-Hant": "\u8b5a\u4ed4\u4e09\u54e5", "cuisine": "noodle", "level": "0", "name": "\u8b5a\u4ed4\u4e09\u54e5 TamJai SamGor", "name:en": "\u8b5a\u4ed4\u4e09\u54e5 TamJai SamGor", "name:zh": "\u8b5a\u4ed4\u4e09\u54e5", "name:zh-Hans": "\u8c2d\u4ed4\u4e09\u54e5", "name:zh-Hant": "\u8b5a\u4ed4\u4e09\u54e5", "opening_hours": "Mo-Su,PH 11:00-22:00", "phone": "+852 28363118", "ref:openrice": "32023"}}, {"type": "node", "id": 3668821659, "lat": 22.2768612, "lon": 114.1772802, "tags": {"addr:city": "Wan Chai", "addr:housenumber": "14", "addr:street": "51 \u4ea4\u52a0\u91cc Cross Lane", "amenity": "restaurant", "cuisine": "chinese", "name": "\u798f\u8a18\u8336\u9910\u5ef3"}}, {"type": "node", "id": 3668829877, "lat": 22.278028, "lon": 114.17997, "tags": {"addr:city": "Wan Chai", "addr:country": "HK", "addr:housenumber": "1-3", "addr:street": "\u6469\u7406\u81e3\u5c71\u9053 Morrison Hill Road", "amenity": "restaurant", "cuisine": "chinese", "level": "0", "name": "\u4e00\u54e5\u9ede\u6545 Dim Sum Heritage", "name:en": "Dim Sum Heritage", "name:zh": "\u4e00\u54e5\u9ede\u6545", "ref:openrice": "618967"}}, {"type": "node", "id": 3670029908, "lat": 22.2746636, "lon": 114.1720357, "tags": {"addr:flats": "320-321", "addr:housenumber": "183", "addr:street": "Queen's Road East", "amenity": "restaurant", "cuisine": "japanese", "name": "\u4e00\u904a\u65e5\u672c\u6599\u7406"}}, {"type": "node", "id": 3672903800, "lat": 22.2804501, "lon": 114.1771008, "tags": {"amenity": "restaurant", "cuisine": "chinese", "level": "0", "name": "\u8607\u6d59\u6ed9 Jardin De Jade", "name:en": "Jardin De Jade", "name:zh": "\u8607\u6d59\u6ed9"}}, {"type": "node", "id": 3681652843, "lat": 22.28504, "lon": 114.1515804, "tags": {"addr:housenumber": "49-51", "addr:street": "Jervois Street", "amenity": "restaurant", "brand": "\u5fc5\u52dd\u5ba2 Pizza Hut", "brand:en": "Pizza Hut", "brand:wikidata": "Q191615", "brand:wikipedia": "zh:\u5fc5\u80dc\u5ba2", "brand:zh": "\u5fc5\u52dd\u5ba2", "brand:zh-Hans": "\u5fc5\u80dc\u5ba2", "brand:zh-Hant": "\u5fc5\u52dd\u5ba2", "cuisine": "pizza", "level": "0", "name": "\u5fc5\u52dd\u5ba2 Pizza Hut", "name:en": "Pizza Hut", "name:zh": "\u5fc5\u52dd\u5ba2", "name:zh-Hans": "\u5fc5\u80dc\u5ba2", "name:zh-Hant": "\u5fc5\u52dd\u5ba2", "ref:openrice": "16871", "website": "https://www.pizzahut.com.hk/"}}, {"type": "node", "id": 3681652846, "lat": 22.2803574, "lon": 114.1554097, "tags": {"amenity": "restaurant", "name": "Bistecca Italian Steak House"}}, {"type": "node", "id": 3681652848, "lat": 22.2811969, "lon": 114.152658, "tags": {"amenity": "restaurant", "cuisine": "greek", "name": "Santorini"}}, {"type": "node", "id": 3681902661, "lat": 22.2775061, "lon": 114.1777171, "tags": {"addr:street": "Wan Chai Road", "amenity": "restaurant", "name": "\u4e94\u6a13\u98ef\u5802 Give Me Five", "name:en": "Give Me Five", "name:zh": "\u4e94\u6a13\u98ef\u5802"}}, {"type": "node", "id": 3727065823, "lat": 22.2865544, "lon": 114.1401723, "tags": {"addr:housenumber": "11", "addr:street": "Pokfulam Road", "amenity": "restaurant", "name": "Saam Hui Yaat", "opening_hours": "Mo-Su 06:30-14:30", "phone": "+852 2547 3917"}}, {"type": "node", "id": 3729524674, "lat": 22.2814894, "lon": 114.1553634, "tags": {"addr:housenumber": "6", "addr:street": "\u548c\u5b89\u91cc Wo On Lane", "amenity": "restaurant", "name": "\u53f0\u7063\u99ac\u7956\u990a\u751f\u6e6f\u9eb5\u9928 Taiwanese Mazu Lifestyle Noodles", "name:en": "Taiwanese Mazu Lifestyle Noodles", "name:zh": "\u53f0\u7063\u99ac\u7956\u990a\u751f\u6e6f\u9eb5\u9928", "opening_hours": "Mo-Fr 11:00-21:30;Sa,Su 12:00-21:30"}}, {"type": "node", "id": 3729526134, "lat": 22.2861729, "lon": 114.1397284, "tags": {"addr:housenumber": "124", "addr:street": "Second Street", "amenity": "restaurant", "name": "Thai N\u00e1", "opening_hours": "Mo-Su 12:00-15:00", "phone": "28032331", "website": "www.thai-na.com.hk"}}, {"type": "node", "id": 3766818635, "lat": 22.2187922, "lon": 114.2107034, "tags": {"amenity": "restaurant", "name": "Spiaggia"}}, {"type": "node", "id": 3778110215, "lat": 22.280391, "lon": 114.23041, "tags": {"addr:country": "HK", "addr:housenumber": "14-22", "addr:street": "\u7b72\u7b95\u7063\u6771\u5927\u8857 Shau Kei Wan Main Street East", "addr:unit": "B", "amenity": "restaurant", "cuisine": "indian", "level": "0", "name": "\u7f85\u52d2 Tulsi Indian Restaurant", "name:en": "Tulsi Indian Restaurant", "name:zh": "\u7f85\u52d2\u5370\u5ea6\u9910\u5ef3", "phone": "+852 2886 1681", "ref:openrice": "769946"}}, {"type": "node", "id": 3955302518, "lat": 22.2851936, "lon": 114.1424471, "tags": {"addr:city": "Sai Ying Pun, Hong Kong", "addr:housenumber": "43", "addr:street": "\u9ad8\u8857 High Street", "amenity": "restaurant", "cuisine": "pizza", "name": "Pizzeria Italia", "takeaway": "yes"}}, {"type": "node", "id": 4075184717, "lat": 22.2846511, "lon": 114.1554906, "tags": {"amenity": "restaurant", "name": "\u56db\u5b63\u5e38\u9910 Cafe Seasons", "name:en": "Cafe Seasons", "name:zh": "\u56db\u5b63\u5e38\u9910"}}, {"type": "node", "id": 4079478402, "lat": 22.2791202, "lon": 114.1800801, "tags": {"addr:street": "\u8ed2\u5c3c\u8a69\u9053 Hennessy Road", "amenity": "restaurant", "level": "0", "name": "\u6eec\u9ede Shanghai Spot", "name:en": "Shanghai Spot", "name:zh": "\u6eec\u9ede"}}, {"type": "node", "id": 4093304690, "lat": 22.2843969, "lon": 114.1524746, "tags": {"addr:housenumber": "8", "addr:street": "\u5b89\u548c\u91cc On Wo Lane", "amenity": "restaurant", "name": "Ronin"}}, {"type": "node", "id": 4106961589, "lat": 22.284251, "lon": 114.152521, "tags": {"addr:housenumber": "21", "addr:street": "\u6b4c\u8ce6\u8857 Gough Street", "amenity": "restaurant", "name": "\u4e5d\u8a18\u725b\u8169 Kau Kee", "name:en": "Kau Kee", "name:ko": "\uae4c\uc6b0 \uaed8\uc774", "name:zh": "\u4e5d\u8a18\u725b\u8169", "opening_hours": "Mo-Sa 12:30-22:30", "ref:openrice": "1618"}}, {"type": "node", "id": 4121290590, "lat": 22.27999, "lon": 114.23041, "tags": {"addr:housenumber": "57", "addr:street": "\u7b72\u7b95\u7063\u6771\u5927\u8857 Shau Kei Wan Main Street East", "amenity": "restaurant", "cuisine": "noodle", "level": "0", "name": "\u5ee3\u9eb5\u5b50 Guang Mein Zi", "name:en": "Guang Mein Zi", "name:zh": "\u5ee3\u9eb5\u5b50", "opening_hours": "Mo-Su,PH 07:00-18:00", "phone": "+852 2567 7122", "ref:openrice": "792542"}}, {"type": "node", "id": 4121317789, "lat": 22.28003, "lon": 114.230421, "tags": {"addr:housenumber": "55", "addr:street": "Shau Kei Wan Main Street East", "amenity": "restaurant", "level": "0", "name": "\u687b\u4e4b\u71d2", "ref:openrice": "84616"}}, {"type": "node", "id": 4121320790, "lat": 22.2802, "lon": 114.23016, "tags": {"addr:city": "Shau Kei Wan", "addr:housenumber": "28-40", "addr:street": "Shau Kei Wan Main Street East", "addr:unit": "15", "amenity": "restaurant", "cuisine": "japanese", "delivery": "yes", "level": "0", "name": "\u98df\u9bae", "opening_hours": "Mo-Su,PH 12:00-15:00,18:00-02:00", "phone": "+852 34622066", "ref:openrice": "505329", "wikimedia_commons": "File:HK SKW \u7b72\u7b95\u7063 Shau Kei Wan \u6771\u559c\u9053 Tung Hei Road October 2021 SS2 08.jpg"}}, {"type": "node", "id": 4121321889, "lat": 22.279938, "lon": 114.2304, "tags": {"addr:housenumber": "59-99", "addr:street": "Shau Kei Wan Main Street East", "amenity": "restaurant", "level": "0", "name": "\u5357\u99c5 Hainan South", "name:en": "Hainan South", "name:zh": "\u5357\u99c5", "ref:openrice": "459958", "wikimedia_commons": "File:HK SKW \u7b72\u7b95\u7063 Shau Kei Wan \u7b72\u7b95\u7063\u6771\u5927\u8857 Main Street East October 2021 SS2 111.jpg"}}, {"type": "node", "id": 4135501550, "lat": 22.2850856, "lon": 114.1416781, "tags": {"addr:city": "Sai Ying Pun, Hong Kong", "addr:housenumber": "48-78", "addr:street": "\u9ad8\u8857 High Street", "amenity": "restaurant", "name": "High Street Grill", "opening_hours": "08:00-00:00", "website": "http://www.casteloconcepts.com/our-venues/high-street-grill/high-street-grill"}}, {"type": "node", "id": 4135503336, "lat": 22.285087, "lon": 114.1414359, "tags": {"amenity": "restaurant", "cuisine": "indian", "name": "Indian Spices", "opening_hours": "12:00-23:00", "takeaway": "yes", "website": "https://indianspices.com.hk/"}}, {"type": "node", "id": 4135506017, "lat": 22.285038, "lon": 114.1419927, "tags": {"amenity": "restaurant", "name": "Ollies Cafe & Restaurant", "website": "https://www.facebook.com/ollieshongkong/"}}, {"type": "node", "id": 4135925290, "lat": 22.282528, "lon": 114.155321, "tags": {"addr:housenumber": "34-38", "addr:street": "\u58eb\u4e39\u5229\u8857 Stanley Street", "amenity": "restaurant", "level": "0", "name": "\u4e00\u6a02\u71d2\u9d5d Yat Lok Restaurant", "name:en": "Yat Lok Restaurant", "name:zh": "\u4e00\u6a02\u71d2\u9d5d", "opening_hours": "Mo-Sa 10:00-21:00; Su,PH 10:00-17:30", "ref:openrice": "78351"}}, {"type": "node", "id": 4148659708, "lat": 22.28172, "lon": 114.153618, "tags": {"addr:city": "Central", "addr:housenumber": "7", "addr:street": "\u5967\u5351\u5229\u8857 Old Bailey Street", "amenity": "restaurant", "cuisine": "sichuan", "level": "0", "name": "Chilli Fagara", "ref:openrice": "454563", "website": "https://www.chillifagara.com/"}}, {"type": "node", "id": 4149058096, "lat": 22.28319, "lon": 114.22145, "tags": {"addr:housenumber": "1", "addr:street": "\u592a\u5eb7\u8857 Tai Hong Street", "amenity": "restaurant", "level": "0", "name": "\u99ac\u59d0\u91cd\u6176\u9ebb\u8fa3\u71d9"}}, {"type": "node", "id": 4149058098, "lat": 22.28327, "lon": 114.22191, "tags": {"amenity": "restaurant", "cuisine": "noodle", "level": "0", "name": "\u7fa4\u8a18\u723d\u8169\u5e97 Kwan Kee", "name:en": "Kwan Kee", "name:zh": "\u7fa4\u8a18\u723d\u8169\u5e97", "phone": "+852 34812255", "ref:openrice": "159218"}}, {"type": "node", "id": 4149618786, "lat": 22.282226, "lon": 114.1547185, "tags": {"addr:city": "Central", "addr:housenumber": "37", "addr:street": "\u7835\u5178\u4e4d\u8857 Pottinger Street", "amenity": "restaurant", "name": "Messina"}}, {"type": "node", "id": 4149638363, "lat": 22.27905, "lon": 114.17707, "tags": {"addr:city": "Wan Chai", "addr:street": "Jaffe Road", "amenity": "restaurant", "diet:vegetarian": "only", "level": "0", "name": "\u5929\u7136\u9f4b Green Veggie", "name:en": "Green Veggie", "name:zh": "\u5929\u7136\u9f4b", "ref:openrice": "452555", "website": "http://www.greenveggie.com.hk"}}, {"type": "node", "id": 4156250891, "lat": 22.277638, "lon": 114.17508, "tags": {"amenity": "restaurant", "name": "\u9f8d\u9ede\u5fc3 Lung Dim Sum", "name:en": "Lung Dim Sum", "name:zh": "\u9f8d\u9ede\u5fc3"}}, {"type": "node", "id": 4159824989, "lat": 22.2802366, "lon": 114.1550252, "tags": {"amenity": "restaurant", "name": "Mama San"}}, {"type": "node", "id": 4168504991, "lat": 22.2800089, "lon": 114.1640535, "tags": {"amenity": "restaurant", "name": "LAH noodles"}}, {"type": "node", "id": 4168512690, "lat": 22.2797952, "lon": 114.1635636, "tags": {"amenity": "restaurant", "cuisine": "ramen", "name": "\u7fe1\u7fe0\u62c9\u9eb5\u5c0f\u7c60\u5305 Crystal Jade", "name:en": "Crystal Jade", "name:zh": "\u7fe1\u7fe0\u62c9\u9eb5\u5c0f\u7c60\u5305"}}, {"type": "node", "id": 4168512691, "lat": 22.2798379, "lon": 114.1636033, "tags": {"amenity": "restaurant", "name": "\u4e00\u98a8\u5802"}}, {"type": "node", "id": 4168522489, "lat": 22.2798875, "lon": 114.1641017, "tags": {"amenity": "restaurant", "name": "\u56db\u5b63\uff0e\u6085 Shiki\uff0eEtsu", "name:en": "Shiki\uff0eEtsu", "name:zh": "\u56db\u5b63\uff0e\u6085"}}, {"type": "node", "id": 4168594589, "lat": 22.2757471, "lon": 114.1704075, "tags": {"addr:street": "\u7687\u540e\u5927\u9053\u6771 Queen's Road East", "amenity": "restaurant", "name": "fishsteria", "source": "Kaart Ground Survey 2017"}}, {"type": "node", "id": 4169315092, "lat": 22.2761855, "lon": 114.1732859, "tags": {"amenity": "restaurant", "brand": "\u5fc5\u52dd\u5ba2 Pizza Hut", "brand:en": "Pizza Hut", "brand:wikidata": "Q191615", "brand:zh": "\u5fc5\u52dd\u5ba2", "brand:zh-Hans": "\u5fc5\u80dc\u5ba2", "brand:zh-Hant": "\u5fc5\u52dd\u5ba2", "cuisine": "pizza", "name": "\u5fc5\u52dd\u5ba2 Pizza Hut", "name:en": "Pizza Hut", "name:zh": "\u5fc5\u52dd\u5ba2", "name:zh-Hans": "\u5fc5\u80dc\u5ba2", "name:zh-Hant": "\u5fc5\u52dd\u5ba2", "website": "https://www.pizzahut.com.hk/"}}, {"type": "node", "id": 4169383889, "lat": 22.27836, "lon": 114.17759, "tags": {"addr:city": "Wan Chai", "addr:housenumber": "303", "addr:street": "\u8ed2\u5c3c\u8a69\u9053 Hennessy Road", "amenity": "restaurant", "brand": "\u5143\u6c23\u58fd\u53f8 Genki Sushi", "brand:en": "Genki Sushi", "brand:ja": "\u5143\u6c17\u5bff\u53f8", "brand:wikidata": "Q5533323", "brand:wikipedia": "ja:\u5143\u6c17\u5bff\u53f8", "brand:zh": "\u5143\u6c23\u58fd\u53f8", "brand:zh-Hans": "\u5143\u6c14\u5bff\u53f8", "brand:zh-Hant": "\u5143\u6c23\u58fd\u53f8", "cuisine": "sushi", "fax": "+852 28027072", "level": "0", "name": "\u5143\u6c17\u5bff\u53f8 Genki Sushi", "name:en": "Genki Sushi", "name:ja": "\u5143\u6c17\u5bff\u53f8", "name:zh": "\u5143\u6c23\u58fd\u53f8", "name:zh-Hans": "\u5143\u6c14\u5bff\u53f8", "name:zh-Hant": "\u5143\u6c23\u58fd\u53f8", "opening_hours": "Mo-Su,PH 11:30-22:30", "phone": "+852 28027018", "ref:openrice": "934", "website": "https://www.genkisushi.com.hk/"}}, {"type": "node", "id": 4169404589, "lat": 22.27766, "lon": 114.1753, "tags": {"addr:housenumber": "226", "addr:street": "\u8ed2\u5c3c\u8a69\u9053 Hennessy Road", "amenity": "restaurant", "cuisine": "chinese", "level": "0", "name": "\u7518\u724c\u71d2\u9d5d Kam's Roast Goose", "name:en": "Kam's Roast Goose", "name:zh": "\u7518\u724c\u71d2\u9d5d", "opening_hours": "Mo-Su,PH 11:30-21:30", "phone": "+852 25201110", "ref:openrice": "175339", "website": "http://www.krg.com.hk"}}, {"type": "node", "id": 4169404889, "lat": 22.27828, "lon": 114.17987, "tags": {"amenity": "restaurant", "level": "0", "name": "\u5f37\u8a18\u98ef\u5e97", "ref:openrice": "1648"}}, {"type": "node", "id": 4172508089, "lat": 22.2789449, "lon": 114.1645079, "tags": {"amenity": "restaurant", "name": "simplelife"}}, {"type": "node", "id": 4172508389, "lat": 22.2771239, "lon": 114.1746812, "tags": {"amenity": "restaurant", "cuisine": "vietnamese", "level:ref": "3/F", "name": "An Nam Pho \u5b89\u5357"}}, {"type": "node", "id": 4172601892, "lat": 22.27707, "lon": 114.1745985, "tags": {"amenity": "restaurant", "cuisine": "chinese", "name": "\u767e\u4f0f\u68e7"}}, {"type": "node", "id": 4172601893, "lat": 22.2772534, "lon": 114.174158, "tags": {"addr:street": "\u8b5a\u81e3\u9053 Thomson Road", "amenity": "restaurant", "cuisine": "indonesian", "name": "\u5927\u982d\u8766\u6771\u5357\u4e9e\u9910\u5ef3 King Prawn Asian Restaurant", "name:en": "King Prawn Asian Restaurant", "name:zh": "\u5927\u982d\u8766\u6771\u5357\u4e9e\u9910\u5ef3"}}, {"type": "node", "id": 4172640091, "lat": 22.2771054, "lon": 114.1742491, "tags": {"amenity": "restaurant", "cuisine": "international", "name": "\u540d\u5bf3\u77f3\u9910\u5ef3"}}, {"type": "node", "id": 4172640204, "lat": 22.2769391, "lon": 114.1762393, "tags": {"amenity": "restaurant", "name": "Uncle 4"}}, {"type": "node", "id": 4172660294, "lat": 22.2769555, "lon": 114.1763636, "tags": {"amenity": "restaurant", "cuisine": "international", "name": "\u745e\u58eb\u5496\u5561\u5ba4"}}, {"type": "node", "id": 4172760389, "lat": 22.2769354, "lon": 114.1755852, "tags": {"amenity": "restaurant", "cuisine": "chinese", "level": "1", "name": "\u676d\u5dde\u9152\u5bb6 Hong Zhou Restaurant", "name:en": "Hong Zhou Restaurant", "name:zh": "\u676d\u5dde\u9152\u5bb6", "phone": "+852 25911898", "ref:openrice": "13683"}}, {"type": "node", "id": 4174631893, "lat": 22.2804024, "lon": 114.1827262, "tags": {"addr:housenumber": "489", "addr:street": "\u8ed2\u5c3c\u8a69\u9053 Hennessy Road", "amenity": "restaurant", "cuisine": "korean", "level": "7", "name": "\u6f22\u548c\u97d3\u570b\u6599\u7406"}}, {"type": "node", "id": 4191084989, "lat": 22.2814879, "lon": 114.1529728, "tags": {"addr:housenumber": "14", "addr:street": "Shelley Street, Soho", "amenity": "restaurant", "cuisine": "italian_pizza", "email": "info@motorino.com.hk", "internet_access": "wlan", "name": "Motorino Pizzeria", "opening_hours": "Mo-Su 12:00-24:00", "phone": "+8528016881", "website": "https://www.motorinopizza.com/hong_kong"}}, {"type": "node", "id": 4206815013, "lat": 22.2770604, "lon": 114.1752062, "tags": {"addr:street": "\u838a\u58eb\u6566\u9053 Johnston Road", "amenity": "restaurant", "cuisine": "asian;local;chinese", "name": "\u541b\u6236\u934b\u8cbc\u5927\u738b"}}, {"type": "node", "id": 4207203830, "lat": 22.2842392, "lon": 114.1525609, "tags": {"addr:street": "\u6b4c\u8ce6\u8857 Gough Street", "amenity": "restaurant", "name": "\u516b\u6642"}}, {"type": "node", "id": 4207227078, "lat": 22.283, "lon": 114.15463, "tags": {"addr:country": "HK", "addr:housenumber": "77", "addr:street": "\u5a01\u9748\u9813\u8857 Wellington Street", "amenity": "restaurant", "cuisine": "noodle", "level": "0", "name": "\u9ea5\u5940\u96f2\u541e\u9eb5\u4e16\u5bb6 Mak's Noodle", "name:en": "Mak's Noodle", "name:zh": "\u9ea5\u5940\u96f2\u541e\u9eb5\u4e16\u5bb6", "opening_hours": "Mo-Su,PH 11:30-21:00", "phone": "+852 28543810", "ref:openrice": "1998", "website": "https://www.maksnoodle.com/", "wikidata": "Q6738531", "wikimedia_commons": "File:HK \u4e2d\u74b0 Central \u5a01\u9748\u9813\u8857 75-77 Wellington Street \u901a\u5584\u58c7 Tung Sin Tan October 2021 SS2 08.jpg"}}, {"type": "node", "id": 4207239823, "lat": 22.2831783, "lon": 114.1915313, "tags": {"addr:housenumber": "13A", "addr:street": "\u96fb\u6c23\u9053 Electric Road", "amenity": "restaurant", "name": "\u83ef\u59d0\u6e05\u6e6f\u8169 Sister Wah", "name:en": "Sister Wah", "name:zh": "\u83ef\u59d0\u6e05\u6e6f\u8169", "opening_hours": "Mo-Su 11:00-23:00"}}, {"type": "node", "id": 4207248899, "lat": 22.282238, "lon": 114.15558, "tags": {"addr:housenumber": "24-26", "addr:street": "\u58eb\u4e39\u5229\u8857 Stanley Street", "amenity": "restaurant", "name": "\u9678\u7fbd\u8336\u5ba4 Luk Yu Tea House", "name:en": "Luk Yu Tea House", "name:zh": "\u9678\u7fbd\u8336\u5ba4", "opening_hours": "Mo-Su,PH 07:00-21:00", "phone": "+852 25235464", "ref:openrice": "1966", "wikidata": "Q6701574"}}, {"type": "node", "id": 4207248953, "lat": 22.2826106, "lon": 114.1855678, "tags": {"addr:housenumber": "8", "addr:street": "\u52a0\u5be7\u8857 Cleveland Street", "amenity": "restaurant", "brand": "Red Lobster", "brand:wikidata": "Q846301", "brand:wikipedia": "en:Red Lobster", "cuisine": "seafood", "name": "Red Lobster", "opening_hours": "Su-Th 11:30-22:00; Fr-Sa 11:30-23:00", "phone": "+852 2261 2996", "website": "https://m.facebook.com/redlobsterhk/"}}, {"type": "node", "id": 4208628796, "lat": 22.2828738, "lon": 114.1261702, "tags": {"amenity": "restaurant", "cuisine": "arab;kebab;turkish", "diet:vegetarian": "yes", "name": "Falafel Hut"}}, {"type": "node", "id": 4213875999, "lat": 22.2854532, "lon": 114.1483198, "tags": {"addr:housenumber": "233", "addr:street": "\u8377\u674e\u6d3b\u9053 Hollywood Road", "amenity": "restaurant", "cuisine": "dim_sum;international", "email": "info@manmocafe.com", "internet_access": "wlan", "name": "Man Mo Dim Sum", "opening_hours": "Mo-Su 12:00-22:00", "phone": "85226445644", "website": "http://manmodimsum.com/hongkong/"}}, {"type": "node", "id": 4214819189, "lat": 22.2861987, "lon": 114.1345286, "tags": {"addr:housenumber": "526", "addr:street": "\u7687\u540e\u5927\u9053\u897f Queen's Road West", "amenity": "restaurant", "name": "Lin Heung Tea House", "name:zh": "\u84ee\u9999\u6a13"}}, {"type": "node", "id": 4217637219, "lat": 22.247782, "lon": 114.15513, "tags": {"amenity": "restaurant", "cuisine": "noodle", "name": "\u5357\u8a18\u7c89\u9eb5", "name:en": "Nam Kee Noodles", "ref:openrice": "7273"}}, {"type": "node", "id": 4220477491, "lat": 22.2824714, "lon": 114.1527032, "tags": {"addr:housenumber": "48", "addr:street": "\u5351\u5229\u8857 Peel Street", "amenity": "restaurant", "cuisine": "french;fine_dining;steak_house", "name": "La Vache!", "opening_hours": "Mo-Fr 18:00-02:30; Sa 18:00-24:00; Su 18:00-02:30", "phone": "+85228800248", "website": "https://lavache.com.hk/"}}, {"type": "node", "id": 4229410495, "lat": 22.2775941, "lon": 114.1821285, "tags": {"addr:housenumber": "11\u865f", "addr:street": "\u8000\u83ef\u8857 Yiu Wa Street", "amenity": "restaurant", "name": "\u8070\u5ac2\u79c1\u623f\u751c\u54c1", "opening_hours": "Mo-Su 12:30-00:30"}}, {"type": "node", "id": 4229448289, "lat": 22.2906593, "lon": 114.19888, "tags": {"addr:flats": "Shop 1", "addr:housenumber": "406-408", "addr:street": "King's Road", "amenity": "restaurant", "name": "\u6d77\u7687\u7ca5\u5e97 Ocean Empire Food Shop", "name:en": "Ocean Empire Food Shop", "name:zh": "\u6d77\u7687\u7ca5\u5e97", "opening_hours": "06:30-00:00", "phone": "+85228875879"}}, {"type": "node", "id": 4233934742, "lat": 22.2844024, "lon": 114.2153725, "tags": {"addr:country": "HK", "addr:housenumber": "2-8", "addr:street": "\u5eb7\u5b89\u8857 Hong On Street", "amenity": "restaurant", "brand": "\u8b5a\u4ed4\u4e09\u54e5 TamJai SamGor", "brand:en": "TamJai SamGor", "brand:wikidata": "Q13164532", "brand:wikipedia": "zh:\u8b5a\u4ed4\u96f2\u5357\u7c73\u7dda", "brand:zh": "\u8b5a\u4ed4\u4e09\u54e5", "brand:zh-Hans": "\u8c2d\u4ed4\u4e09\u54e5", "brand:zh-Hant": "\u8b5a\u4ed4\u4e09\u54e5", "cuisine": "noodle", "level": "0", "name": "\u8b5a\u4ed4\u4e09\u54e5 TamJai SamGor", "name:en": "\u8b5a\u4ed4\u4e09\u54e5 TamJai SamGor", "name:zh": "\u8b5a\u4ed4\u4e09\u54e5", "name:zh-Hans": "\u8c2d\u4ed4\u4e09\u54e5", "name:zh-Hant": "\u8b5a\u4ed4\u4e09\u54e5"}}, {"type": "node", "id": 4235924590, "lat": 22.28315, "lon": 114.15577, "tags": {"addr:housenumber": "30", "addr:street": "Pottinger Street", "amenity": "restaurant", "cuisine": "noodle", "level": "0", "name": "\u4e09\u591a\u9eb5\u98df", "ref:openrice": "3003"}}, {"type": "node", "id": 4237664206, "lat": 22.2838046, "lon": 114.1556826, "tags": {"addr:country": "HK", "addr:housenumber": "5-8", "addr:street": "\u57df\u591a\u5229\u7687\u540e\u8857 Queen Victoria Street", "amenity": "restaurant", "name": "\u516b\u516c\u9928 Queen Victoria 8", "name:en": "Queen Victoria 8", "name:zh": "\u516b\u516c\u9928"}}, {"type": "node", "id": 4237664207, "lat": 22.2838229, "lon": 114.1557084, "tags": {"addr:city": "Central", "addr:country": "HK", "addr:housenumber": "5-8", "addr:street": "\u57df\u591a\u5229\u7687\u540e\u8857 Queen Victoria Street", "amenity": "restaurant", "cuisine": "noodle", "level": "0", "name": "\u5357\u8a18\u7c89\u9eb5", "name:en": "Hong Kong Nam Kee Noodles", "name:ko": "\ub0a8\uae30\ubd84\uba74", "name:zh": "\u5357\u8a18\u7c89\u9eb5", "opening_hours": "Mo-Sa 08:00-21:00;Su,PH 09:00-20:30", "phone": "+852 3691 8050", "ref:openrice": "145880", "website": "https://www.namkee.hk"}}, {"type": "node", "id": 4239571142, "lat": 22.28488, "lon": 114.15137, "tags": {"amenity": "restaurant", "level": "0", "name": "\u5fb7\u91d7\u8a18\u8336\u9910\u5ef3", "ref:openrice": "17246"}}, {"type": "node", "id": 4242444090, "lat": 22.2776821, "lon": 114.1853498, "tags": {"amenity": "restaurant", "name": "Mango Tree"}}, {"type": "node", "id": 4243069004, "lat": 22.2875394, "lon": 114.2114287, "tags": {"addr:country": "HK", "addr:housenumber": "23", "addr:street": "Tong Chong Street", "amenity": "restaurant", "name": "Mr & Mrs Fox", "operator": "Swire Restaurants", "outdoor_seating": "yes", "phone": "+852 26978500", "ref:openrice": "456111", "website": "https://www.mrmrsfox.com/"}}, {"type": "node", "id": 4252332991, "lat": 22.27772, "lon": 114.17888, "tags": {"addr:housenumber": "207", "addr:street": "\u7063\u4ed4\u9053 Wan Chai Road", "amenity": "restaurant", "cuisine": "noodle", "level": "0", "name": "\u5bf6\u6cf0\u8eca\u4ed4\u9eb5"}}, {"type": "node", "id": 4258588885, "lat": 22.2751776, "lon": 114.1719941, "tags": {"amenity": "restaurant", "name": "\u5609\u9047 Hay!", "name:en": "Hay!", "name:zh": "\u559c\u9047"}}, {"type": "node", "id": 4262547789, "lat": 22.2849286, "lon": 114.1511565, "tags": {"addr:housenumber": "82", "addr:street": "\u8607\u676d\u8857 Jervois Street", "amenity": "restaurant", "cuisine": "noodles", "name": "\u8eca\u4ed4\u9eb5\u4e16\u5bb6", "ref:openrice": "32195"}}, {"type": "node", "id": 4262547889, "lat": 22.2849553, "lon": 114.1511154, "tags": {"addr:housenumber": "84", "addr:street": "\u8607\u676d\u8857 Jervois Street", "amenity": "restaurant", "cuisine": "noodles", "level": "0", "name": "Kuma Ramen", "name:en": "Kuma Ramen", "name:zh": "\u718a\u62c9\u9eb5", "opening_hours": "Mo-Su,PH 11:30-15:00, 18:00-22:00", "phone": "+852 55026229", "ref:openrice": "492825"}}, {"type": "node", "id": 4262547989, "lat": 22.2850029, "lon": 114.1510414, "tags": {"addr:housenumber": "88", "addr:street": "\u8607\u676d\u8857 Jervois Street", "amenity": "restaurant", "level": "0", "name": "\u7403\u54e5\u71c9\u6e6f", "opening_hours": "Mo-Su,PH 07:45-21:40", "ref:openrice": "171304"}}, {"type": "node", "id": 4264010246, "lat": 22.280375, "lon": 114.230593, "tags": {"addr:city": "Shau Kei Wan", "addr:housenumber": "51", "addr:street": "\u7b72\u7b95\u7063\u6771\u5927\u8857 Shau Kei Wan Main Street East", "addr:unit": "A2", "amenity": "restaurant", "level": "0", "name": "\u6771\u5357\u51b0\u5ba4"}}, {"type": "node", "id": 4264714615, "lat": 22.2761451, "lon": 114.1715703, "tags": {"addr:housenumber": "28", "addr:street": "\u5927\u738b\u6771\u8857 Tai Wong Street East", "amenity": "restaurant", "cuisine": "vietnamese", "name": "Com Banh Mi"}}, {"type": "node", "id": 4265607989, "lat": 22.2769598, "lon": 114.1764236, "tags": {"addr:housenumber": "150", "addr:street": "\u7063\u4ed4\u9053 Wan Chai Road", "amenity": "restaurant", "name": "Chuen cheong foods"}}, {"type": "node", "id": 4265608089, "lat": 22.278494, "lon": 114.172212, "tags": {"addr:housenumber": "98-108", "addr:street": "\u8b1d\u6590\u9053 Jaffe Road", "amenity": "restaurant", "name": "\u838e\u5df4\u99ac\u4f86\u897f\u4e9e\u9910\u5ef3 Sabah Malaysian Cuisine", "name:en": "Sarah Malaysian Cuisine", "name:zh": "\u838e\u5df4\u99ac\u4f86\u897f\u4e9e\u9910\u5ef3", "ref:openrice": "10690"}}, {"type": "node", "id": 4265608189, "lat": 22.2769101, "lon": 114.1770143, "tags": {"addr:city": "Hong Kong", "addr:district": "Wan Chai", "addr:housenumber": "165", "addr:level": "5", "addr:street": "\u7063\u4ed4\u9053 Wan Chai Road", "amenity": "restaurant", "cuisine": "hotpot;chinese;cantonese;seafood", "description": "Megan\u2019s Kitchen is famous for its innovative and original hot pot soup bases (such as Tomato & Crab Soup in Souffl\u00e9 Finish and Tom Yum Kung Cappuccino) as well as handmade meatballs and dumplings with special fillings (like Mui Choi and Pork Balls and Jap", "diet:meat": "yes", "diet:vegetarian": "yes", "name": "Megan's Kitchen", "name:yue": "\u7f8e\u5473\u5eda", "opening_hours": "Mo-Su 12:00-15:00,18:00-23:30", "phone": "+852 2866 8305", "reservation": "recommended", "takeaway": "yes", "website": "https://meganskitchen.com/"}}, {"type": "node", "id": 4265669990, "lat": 22.282459, "lon": 114.15352, "tags": {"addr:housenumber": "50", "addr:street": "\u64fa\u82b1\u8857 Lyndhurst Terrace", "amenity": "restaurant", "cuisine": "noodle", "level": "0", "name": "\u7f85\u5bcc\u8a18\u7ca5\u9eb5\u5c08\u5bb6", "name:en": "Law Fu Kee", "ref:openrice": "1826"}}, {"type": "node", "id": 4265708789, "lat": 22.2853749, "lon": 114.1545093, "tags": {"addr:housenumber": "140", "addr:street": "\u5fb7\u8f14\u9053\u4e2d Des Voeux Road Central", "amenity": "restaurant", "cuisine": "noodle", "name": "\u7f85\u5bcc\u8a18\u7ca5\u9eb5\u5c08\u5bb6"}}, {"type": "node", "id": 4265734194, "lat": 22.2781461, "lon": 114.1820559, "tags": {"addr:housenumber": "1", "addr:level": "13", "addr:street": "\u52ff\u5730\u81e3\u8857 Matheson Street", "amenity": "restaurant", "name": "School food"}}, {"type": "node", "id": 4265737627, "lat": 22.291801, "lon": 114.1981379, "tags": {"addr:housenumber": "62-68", "addr:street": "Java Road", "amenity": "restaurant", "name": "\u9cf3\u57ce\u9152\u5bb6 Fung Shing Restaurant", "name:en": "Fung Shing Restaurant", "name:zh": "\u9cf3\u57ce\u9152\u5bb6"}}, {"type": "node", "id": 4265737650, "lat": 22.2901068, "lon": 114.195055, "tags": {"amenity": "restaurant", "cuisine": "steak_house", "level": "1", "name": "\u82b1\u5712\u9910\u5ef3 Sweetheart Garden Restaurant", "name:en": "Sweetheart Garden Restaurant", "name:zh": "\u82b1\u5712\u9910\u5ef3"}}, {"type": "node", "id": 4265737656, "lat": 22.2911214, "lon": 114.196474, "tags": {"amenity": "restaurant", "name": "\u8543\u85af\u82d7 Tiny Green Kitchen", "name:en": "Tiny Green Kitchen", "name:zh": "\u8543\u85af\u82d7"}}, {"type": "node", "id": 4265740905, "lat": 22.2910076, "lon": 114.1964999, "tags": {"amenity": "restaurant", "name": "\u592a\u5e73\u71d2\u5473\u98ef\u5e97"}}, {"type": "node", "id": 4265835789, "lat": 22.2780013, "lon": 114.1708548, "tags": {"addr:housename": "The Broadway", "addr:housenumber": "54-62", "addr:level": "4", "addr:street": "\u99f1\u514b\u9053 Lockhart Road", "amenity": "restaurant", "name": "Che \u00b4s cantonese restaurant"}}, {"type": "node", "id": 4265839789, "lat": 22.2797211, "lon": 114.1838158, "tags": {"addr:housename": "Hysan Place", "addr:housenumber": "500", "addr:level": "12", "addr:street": "\u8ed2\u5c3c\u8a69\u9053 Hennessy Road", "amenity": "restaurant", "name": "\u4f55\u6d2a\u8a18\u7ca5\u9eb5\u5c08\u5bb6"}}, {"type": "node", "id": 4265843189, "lat": 22.277673, "lon": 114.182196, "tags": {"addr:street": "\u8000\u83ef\u8857 Yiu Wa Street", "amenity": "restaurant", "name": "Irori"}}, {"type": "node", "id": 4265843191, "lat": 22.2762112, "lon": 114.1560234, "tags": {"addr:housenumber": "51", "addr:street": "\u82b1\u5712\u9053 Garden Road", "amenity": "restaurant", "name": "\u4e09\u5e0c\u6a13", "name:en": "San xi lou"}}, {"type": "node", "id": 4266650789, "lat": 22.282123, "lon": 114.15382, "tags": {"addr:city": "Central", "addr:country": "HK", "addr:housenumber": "27", "addr:street": "\u8377\u674e\u6d3b\u9053 Hollywood Road", "amenity": "restaurant", "cuisine": "taiwanese", "level": "0", "name": "Check-In Taipei", "opening_hours": "Mo-We 11:45-22:30; Th-Fr 11:45-23:30; Sa 18:00-23:30", "ref:openrice": "168190", "website": "http://checkintaipei.hk"}}, {"type": "node", "id": 4267604493, "lat": 22.2816855, "lon": 114.1525453, "tags": {"addr:housenumber": "32", "addr:street": "\u4f0a\u5229\u8fd1\u8857 Elgin Street", "amenity": "restaurant", "cuisine": "greek;lebanese", "internet_access": "wlan", "name": "Olive greek & middle eastern", "opening_hours": "Mo-Su 12:00-15:00,18:00-23:00", "phone": "+85225211608", "website": "www.diningconcepts.com"}}, {"type": "node", "id": 4269246092, "lat": 22.28223, "lon": 114.15578, "tags": {"addr:city": "Central", "addr:country": "HK", "addr:housenumber": "11", "addr:street": "\u58eb\u4e39\u5229\u8857 Stanley Street", "amenity": "restaurant", "diet:vegan": "yes", "diet:vegetarian": "only", "email": "hello@veggiesf.com", "level": "10", "name": "VeggieSF", "opening_hours": "Mo-Sa 12:00-14:30,18:00-21:00", "phone": "+852 39023902", "ref:openrice": "40435", "website": "http://www.veggiesf.com"}}, {"type": "node", "id": 4271575956, "lat": 22.28564, "lon": 114.21336, "tags": {"addr:housenumber": "12", "addr:street": "Westlands Road", "amenity": "restaurant", "cuisine": "burger", "level": "0", "name": "The Butchers Club Burger", "opening_hours": "Mo-Su,PH 08:00-23:00", "phone": "+852 23889644", "ref:openrice": "490543", "website": "https://thebutchers.club/"}}, {"type": "node", "id": 4271575957, "lat": 22.28643, "lon": 114.21482, "tags": {"amenity": "restaurant", "cuisine": "sushi", "fax": "+852 39969291", "name": "\u5343\u4e21 Sen-ryo", "name:en": "Sen-ryo", "name:ja": "\u5343\u4e21", "name:zh": "\u5343\u4e21", "opening_hours": "Su-Th 11:30-22:30; Fr,Sa,PH -1 day 11:30-23:00", "operator": "Genki Sushi", "phone": "+852 34602257", "ref:openrice": "456631", "website": "https://www.sen-ryo.com.hk/"}}, {"type": "node", "id": 4271575959, "lat": 22.28651, "lon": 114.214243, "tags": {"addr:country": "HK", "addr:housenumber": "3", "addr:street": "Tai Yue Avenue", "amenity": "restaurant", "cuisine": "vietnamese", "level": "0", "name": "\u82bd\u838a Nha Trang", "name:en": "Nha Trang", "name:zh": "\u82bd\u838a", "opening_hours": "Mo-Su,PH 11:30-22:30", "phone": "+852 29078033", "ref:openrice": "103178", "website": "https://www.nhatrang.com.hk/"}}, {"type": "node", "id": 4271575960, "lat": 22.28564, "lon": 114.21317, "tags": {"amenity": "restaurant", "level": "0", "name": "\u9f8d\u9cf3\u51b0\u5ba4", "ref:openrice": "186175"}}, {"type": "node", "id": 4272153691, "lat": 22.2914577, "lon": 114.1952519, "tags": {"addr:housenumber": "2", "addr:street": "\u548c\u5bcc\u9053 Wharf Road", "amenity": "restaurant", "name": "\u6dfb\u597d\u904b Tim Ho Wan", "name:en": "Tim Ho Wan", "name:zh": "\u6dfb\u597d\u904b", "opening_hours": "Mo-Su 10:00-21:30"}}, {"type": "node", "id": 4272203894, "lat": 22.2860644, "lon": 114.1579529, "tags": {"addr:housenumber": "8", "addr:street": "\u91d1\u878d\u8857 Finance Street", "amenity": "restaurant", "name": "\u6dfb\u597d\u904b\u9ede\u5fc3\u5c08\u9580\u5e97 Tim Ho Wan", "name:en": "Tim Ho Wan", "name:ru": "1 \u0437\u0432\u0435\u0437\u0434\u0430 \u043c\u0438\u0448\u043b\u0435\u043d", "name:zh": "\u6dfb\u597d\u904b\u9ede\u5fc3\u5c08\u9580\u5e97", "opening_hours": "Mo-Su 09:00-21:00"}}, {"type": "node", "id": 4278389991, "lat": 22.278342, "lon": 114.17985, "tags": {"addr:housenumber": "7", "addr:street": "\u5929\u6a02\u91cc Tin Lok Lane", "amenity": "restaurant", "name": "\u4e2d\u5fc3\u9ede Meet Point", "name:en": "Meet Point", "name:zh": "\u4e2d\u5fc3\u9ede", "wikimedia_commons": "File:HK WCD Wan Chai Road Tin Lok Lane August 2021 SS2 09.jpg"}}, {"type": "node", "id": 4281425790, "lat": 22.277694, "lon": 114.171822, "tags": {"addr:city": "Wan Chai", "addr:housenumber": "89", "addr:street": "\u8ed2\u5c3c\u8a69\u9053 Hennessy Road", "amenity": "restaurant", "cuisine": "noodle", "level": "0", "name": "\u660e\u660e\u8eca\u4ed4\u9eb5\u5c08\u9580\u5e97 Ming Ming Cart Noodle Bar", "name:en": "Ming Ming Cart Noodle Bar", "name:zh": "\u660e\u660e\u8eca\u4ed4\u9eb5\u5c08\u9580\u5e97", "opening_hours": "Mo-Fr 10:30-01:00;Sa,Su,PH 11:30-01:00", "phone": "+852 23333820"}}, {"type": "node", "id": 4281444896, "lat": 22.278251, "lon": 114.179593, "tags": {"addr:housenumber": "6-18", "addr:street": "\u5929\u6a02\u91cc Tin Lok Lane", "amenity": "restaurant", "name": "\u5929\u6a02\u574a"}}, {"type": "node", "id": 4283469092, "lat": 22.2796426, "lon": 114.1848948, "tags": {"addr:housenumber": "29", "addr:street": "\u6e23\u7538\u8857 Jardine's Bazaar", "amenity": "restaurant", "name": "\u4e0a\u6d77\u9999\u6e2f\u9eb5\u5bb6"}}, {"type": "node", "id": 4286126636, "lat": 22.280442, "lon": 114.23063, "tags": {"addr:country": "HK", "addr:housenumber": "39", "addr:street": "\u7b72\u7b95\u7063\u6771\u5927\u8857 Shau Kei Wan Main Street East", "amenity": "restaurant", "cuisine": "thai", "level": "0", "name": "\u73cd\u610f\u6cf0\u570b\u83dc\u9928 Chun Yee Thai Restaurant", "name:en": "Chun Yee Thai Restaurant", "name:zh": "\u73cd\u610f\u6cf0\u570b\u83dc\u9928", "opening_hours": "Mo-Su,PH 11:30-22:30", "phone": "+852 31781333", "ref:openrice": "557976", "website": "https://www.facebook.com/ChunYeeThai/"}}, {"type": "node", "id": 4286126637, "lat": 22.280749, "lon": 114.230582, "tags": {"addr:housenumber": "4-10", "addr:street": "\u7b72\u7b95\u7063\u6771\u5927\u8857 Shau Kei Wan Main Street East", "addr:unit": "3D", "amenity": "restaurant", "level": "0", "name": "\u5cf0G\u9928", "phone": "+852 23486988", "ref:openrice": "641134"}}, {"type": "node", "id": 4286126638, "lat": 22.28651, "lon": 114.21462, "tags": {"amenity": "restaurant", "level": "0", "name": "\u541b\u9824\u4e0a\u6d77\u5c0f\u5eda Grand Cuisine Shanghai Kitchen", "name:en": "Grand Cuisine Shanghai Kitchen", "name:zh": "\u541b\u9824\u4e0a\u6d77\u5c0f\u5eda", "ref:openrice": "16826"}}, {"type": "node", "id": 4286126639, "lat": 22.280483, "lon": 114.23046, "tags": {"amenity": "restaurant", "level": "0", "name": "\u7c60\u592a\u5b50\u9ede\u5fc3\u5c08\u9580\u5e97", "name:en": "Prince Dragon Dim Sum", "phone": "+852 3705 9254", "ref:openrice": "695805"}}, {"type": "node", "id": 4286126640, "lat": 22.28664, "lon": 114.21522, "tags": {"addr:housenumber": "26", "addr:street": "Taikoo Shing Road", "amenity": "restaurant", "cuisine": "noodle", "level": "0", "name": "\u83ef\u660c\u7ca5\u9eb5\u5c0f\u5eda Wah Cheong Congee & Noodles", "name:en": "Wah Cheong Congee & Noodles", "name:zh": "\u83ef\u660c\u7ca5\u9eb5\u5c0f\u5eda", "ref:openrice": "3908"}}, {"type": "node", "id": 4286126641, "lat": 22.280502, "lon": 114.23066, "tags": {"addr:housenumber": "37", "addr:street": "\u7b72\u7b95\u7063\u6771\u5927\u8857 Shau Kei Wan Main Street East", "amenity": "restaurant", "level": "0", "name": "\u6e2f\u6ecb\u5473 Hong Kong Taste Cuisine", "name:en": "Hong Kong Taste Cuisine", "name:zh": "\u6e2f\u6ecb\u5473"}}, {"type": "node", "id": 4293423223, "lat": 22.286753, "lon": 114.21403, "tags": {"amenity": "restaurant", "cuisine": "singaporean", "level": "0", "name": "Chatterbox Express", "payment:cash": "yes", "takeaway": "yes"}}, {"type": "node", "id": 4293423224, "lat": 22.286651, "lon": 114.21403, "tags": {"amenity": "restaurant", "cuisine": "french", "level": "0", "name": "Eiffel Bistro", "ref:openrice": "495718"}}, {"type": "node", "id": 4302866364, "lat": 22.287105, "lon": 114.21403, "tags": {"amenity": "restaurant", "brand": "PizzaExpress", "brand:wikidata": "Q662845", "brand:wikipedia": "en:PizzaExpress", "cuisine": "pizza", "level": "0", "name": "PizzaExpress", "phone": "+852 31508800", "ref:openrice": "10124"}}, {"type": "node", "id": 4302866366, "lat": 22.26341, "lon": 114.238478, "tags": {"amenity": "restaurant", "cuisine": "noodle", "level": "0", "name": "\u7fa4\u8a18\u723d\u8169\u5e97 Kwan Kee", "name:en": "Kwan Kee", "name:zh": "\u7fa4\u8a18\u723d\u8169\u5e97", "ref:openrice": "474103"}}, {"type": "node", "id": 4302866367, "lat": 22.263062, "lon": 114.236031, "tags": {"addr:housenumber": "220", "addr:street": "\u67f4\u7063\u9053 Chai Wan Road", "amenity": "restaurant", "cuisine": "noodle", "level": "0", "name": "\u8b5a\u4ed4\u96f2\u5357\u7c73\u7dda", "name:en": "Tamjai Yunnan Mixian", "opening_hours": "Mo-Su,PH 11:00-21:40", "payment:cash": "yes", "payment:credit_cards": "no", "payment:debit_cards": "no", "payment:electronic_purses": "no", "ref:openrice": "78232", "smoking": "no"}}, {"type": "node", "id": 4304720505, "lat": 22.2852249, "lon": 114.2125378, "tags": {"amenity": "restaurant", "level": "0", "name": "\u592a\u8208 Tai Hing", "name:en": "Tai Hing", "name:zh": "\u592a\u8208"}}, {"type": "node", "id": 4304720506, "lat": 22.28536, "lon": 114.21271, "tags": {"amenity": "restaurant", "brand": "\u8b5a\u4ed4\u96f2\u5357\u7c73\u7dda TamJai Yunnan Mixian", "brand:wikidata": "Q113365184", "brand:wikipedia": "zh:\u8b5a\u4ed4\u96f2\u5357\u7c73\u7dda", "brand:zh": "\u8b5a\u4ed4\u96f2\u5357\u7c73\u7dda", "brand:zh-Hans": "\u8c2d\u4ed4\u4e91\u5357\u7c73\u7ebf", "brand:zh-Hant": "\u8b5a\u4ed4\u96f2\u5357\u7c73\u7dda", "cuisine": "noodle", "level": "0", "name": "\u8b5a\u4ed4\u96f2\u5357\u7c73\u7dda TamJai Yunnan Mixian", "name:en": "TamJai Yunnan Mixian", "name:zh": "\u8b5a\u4ed4\u96f2\u5357\u7c73\u7dda", "name:zh-Hans": "\u8c2d\u4ed4\u4e91\u5357\u7c73\u7ebf", "name:zh-Hant": "\u8b5a\u4ed4\u96f2\u5357\u7c73\u7dda"}}, {"type": "node", "id": 4305369168, "lat": 22.28692, "lon": 114.21636, "tags": {"amenity": "restaurant", "cuisine": "thai", "level": "0", "name": "Thai Pepper", "payment:american_express": "yes", "payment:cash": "yes", "payment:jcb": "yes", "payment:mastercard": "yes", "payment:unionpay": "yes", "payment:visa": "yes", "ref:openrice": "3583"}}, {"type": "node", "id": 4305369169, "lat": 22.2866, "lon": 114.21636, "tags": {"addr:housename": "\u5143\u5bae\u95a3 Yuan Kung Mansion", "addr:housename:en": "Yuan Kung Mansion", "addr:housename:zh": "\u5143\u5bae\u95a3", "addr:housenumber": "1", "addr:street": "\u592a\u8302\u8def Tai Mou Road", "addr:street:en": "Tai Mou Road", "addr:street:zh": "\u592a\u8302\u8def", "addr:unit": "G402-03", "amenity": "restaurant", "branch": "\u592a\u53e4\u57ce Taikoo Shing", "branch:en": "Taikoo Shing", "branch:zh": "\u592a\u53e4\u57ce", "brand": "\u540d\u5bb6 Myung Ga", "brand:en": "Myung Ga", "brand:ko": "\uba85\uac00", "brand:ko-Hani": "\u540d\u5bb6", "brand:ko-Latn": "Myungga", "brand:origin:country": "HK", "brand:start_date": "1996", "brand:zh": "\u540d\u5bb6", "contact:phone": "+852-2539-6398", "contact:website": "http://www.myungga.com.hk/en/reservation/", "cuisine": "korean", "cuisine:origin": "korean", "cuisine:origin:country": "KR", "dinner": "Mo-Su 18:00-22:30; PH unknown", "level": "0", "lunch": "Mo-Su 12:00-15:00; PH unknown", "name": "\u540d\u5bb6\u97d3\u570b\u9910\u5ef3 Myung Ga Korean Restaurant", "name:en": "Myung Ga Korean Restaurant", "name:zh": "\u540d\u5bb6\u97d3\u570b\u9910\u5ef3", "opening_hours": "Mo-Su 12:00-15:00, 18:00-23:00; PH unknown", "payment:american_express": "yes", "payment:cash": "yes", "payment:jcb": "yes", "payment:mastercard": "yes", "payment:visa": "yes", "phone": "+852-2539-6398", "ref:openrice": "49460", "reservation": "yes", "service_times": "Mo-Su 12:00-15:00, 18:00-22:30; PH unknown", "start_date": "1996", "website": "http://www.myungga.com.hk/", "website:en": "http://www.myungga.com.hk/en/", "website:ko": "http://www.myungga.com.hk/ko/", "website:zh": "http://www.myungga.com.hk/zh/"}}, {"type": "node", "id": 4315810199, "lat": 22.282968, "lon": 114.154481, "tags": {"addr:housenumber": "98", "addr:street": "\u5a01\u9748\u9813\u8857 Wellington Street", "amenity": "restaurant", "name": "\u6cbe\u4ed4\u8a18 Tsim Chai Kee", "name:en": "Tsim Chai Kee", "name:zh": "\u6cbe\u4ed4\u8a18", "opening_hours": "Mo-Su,PH 11:00-21:00", "ref:openrice": "3823", "wikimedia_commons": "File:HK \u4e2d\u74b0 Central \u5a01\u9748\u9813\u8857 98 Wellington Street Jade Centre shop Cochrane Street October 2021 SS2 04.jpg"}}, {"type": "node", "id": 4317247271, "lat": 22.278709, "lon": 114.22879, "tags": {"amenity": "restaurant", "level": "0", "name": "\u592a\u8208 Tai Hing", "name:en": "Tai Hing", "name:zh": "\u592a\u8208", "ref:openrice": "16416"}}, {"type": "node", "id": 4317247276, "lat": 22.27836, "lon": 114.22946, "tags": {"addr:city": "Shau Kei Wan", "addr:country": "HK", "addr:housenumber": "8", "addr:street": "\u5bf6\u6587\u8857 Po Man Street", "amenity": "restaurant", "level": "0", "name": "\u6085\u5df4\u9069", "opening_hours": "Mo-Su,PH 11:45-22:30"}}, {"type": "node", "id": 4330842989, "lat": 22.2794329, "lon": 114.1852306, "tags": {"addr:housenumber": "43", "addr:street": "\u6e23\u7538\u8857 Jardine's Bazaar", "amenity": "restaurant", "level": "0", "name": "\u69ae\u8a18\u7c89\u9eb5 Wing Kee Noodle", "name:en": "Wing Kee Noodle", "name:zh": "\u69ae\u8a18\u7c89\u9eb5", "opening_hours": "Mo-Su,PH 11:30-22:00"}}, {"type": "node", "id": 4330843189, "lat": 22.279288, "lon": 114.1825831, "tags": {"addr:street": "\u767b\u9f8d\u8857 Tang Lung Street", "amenity": "restaurant", "cuisine": "korean", "name": "\u559c\u4f86\u7a00\u8089", "name:ko": "\uc11c\ub798\uac08\ub9e4\uae30", "phone": "+852 26185331", "website": "http://www.seoraester.co.kr"}}, {"type": "node", "id": 4330876797, "lat": 22.2780742, "lon": 114.1760602, "tags": {"addr:housenumber": "241", "addr:street": "\u8ed2\u5c3c\u8a69\u9053 Hennessy Road", "amenity": "restaurant", "diet:vegetarian": "only", "name": "\u6771\u65b9\u5c0f\u7947\u5712 Tung Fong Siu Kee Yuen", "name:en": "Tung Fong Siu Kee Yuen", "name:zh": "\u6771\u65b9\u5c0f\u7947\u5712", "ref:openrice": "3843", "wikimedia_commons": "File:HK WC \u7063\u4ed4 Wan Chai \u8ed2\u5c3c\u8a69\u9053 241 Hennessy Road shop \u6771\u65b9\u5c0f\u7947\u5712\u9f4b\u83dc Tung Fong Siu Kee Yuen Restaurant October 2022 Px3 01.jpg"}}, {"type": "node", "id": 4330985491, "lat": 22.2845123, "lon": 114.157989, "tags": {"addr:housenumber": "1", "addr:street": "Harbour View Street", "amenity": "restaurant", "name": "\u6b63\u6597\u7ca5\u9eb5\u5c08\u5bb6", "opening_hours": "Mo-Su 11:00-23:00"}}, {"type": "node", "id": 4331007690, "lat": 22.2852759, "lon": 114.151738, "tags": {"addr:housenumber": "7-9", "addr:street": "\u7562\u8857 Burd Street", "amenity": "restaurant", "cuisine": "chinese", "level": "0", "name": "\u751f\u8a18\u7ca5\u54c1\u5c08\u5bb6 Sang Kee Congee Shop", "name:en": "Sang Kee Congee Shop", "name:zh": "\u751f\u8a18\u7ca5\u54c1\u5c08\u5bb6", "opening_hours": "Mo-Sa 06:30-21:00", "phone": "+852 2541 1099"}}, {"type": "node", "id": 4331007701, "lat": 22.2836333, "lon": 114.154474, "tags": {"addr:housenumber": "9-10", "addr:street": "\u58eb\u4e39\u5229\u8857 Stanley Street", "amenity": "restaurant", "name": "\u76db\u8a18\u5927\u6392\u6a94", "opening_hours": "Mo-Su 11:00-15:00, 17:00-23:00"}}, {"type": "node", "id": 4331067189, "lat": 22.2875623, "lon": 114.1524982, "tags": {"addr:door": "304D", "amenity": "restaurant", "brand": "\u862d\u82b3\u5712", "brand:zh": "\u862d\u82b3\u5712", "cuisine": "regional", "level": "3", "level:ref": "3", "name": "\u862d\u82b3\u5712", "name:zh": "\u862d\u82b3\u5712", "opening_hours": "Mo-Su 07:30-22:00"}}, {"type": "node", "id": 4331683989, "lat": 22.2809513, "lon": 114.1826469, "tags": {"addr:housenumber": "482", "addr:street": "\u8b1d\u6590\u9053 Jaffe Road", "amenity": "restaurant", "name": "\u767c\u8a18\u751c\u54c1\u5730\u4e0b7-9", "opening_hours": "Mo-Su 00:30-02:00"}}, {"type": "node", "id": 4335215190, "lat": 22.28323, "lon": 114.22125, "tags": {"addr:country": "HK", "addr:housenumber": "49", "addr:street": "Shau Kei Wan Road", "amenity": "restaurant", "level": "0", "name": "\u73ed\u862d\u5c0f\u9928", "ref:openrice": "446447"}}, {"type": "node", "id": 4338081591, "lat": 22.2791414, "lon": 114.1851998, "tags": {"amenity": "restaurant", "diet:vegetarian": "yes", "name": "Jane Beans"}}, {"type": "node", "id": 4342301589, "lat": 22.2793006, "lon": 114.1826179, "tags": {"addr:housenumber": "49", "addr:street": "\u767b\u9f8d\u8857 Tang Lung Street", "amenity": "restaurant", "cuisine": "regional", "name": "\u65b0\u8a18\u9999\u8fa3\u8eca\u4ed4\u9eb5", "phone": "+852 2573 5438"}}, {"type": "node", "id": 4348074793, "lat": 22.278263, "lon": 114.17253, "tags": {"addr:housenumber": "117", "addr:street": "\u99f1\u514b\u9053 Lockhart Road", "addr:unit": "4", "amenity": "restaurant", "level": "0", "name": "\u923a\u81b3\u6f6e\u5dde\u83dc Yuk Cuisine", "name:en": "Yuk Cuisine", "name:zh": "\u923a\u81b3\u6f6e\u5dde\u83dc", "payment:lightning": "yes", "ref:openrice": "584984"}}, {"type": "node", "id": 4366575305, "lat": 22.2832985, "lon": 114.1542242, "tags": {"addr:housenumber": "112-114", "addr:street": "\u5a01\u9748\u9813\u8857 Wellington Street", "amenity": "restaurant", "level": "0", "name": "\u91d1\u79be Cha Chaan Teng", "name:en": "Cha Chaan Teng", "name:zh": "\u91d1\u79be"}}, {"type": "node", "id": 4397220839, "lat": 22.2186645, "lon": 114.2115365, "tags": {"addr:housenumber": "88", "addr:street": "Stanley Main Street", "amenity": "restaurant", "description": "Seafood restaurant with great terrace view on Stanley Plaza.", "name": "Beezy Bay"}}, {"type": "node", "id": 4397222334, "lat": 22.2850335, "lon": 114.142125, "tags": {"addr:street": "High Street", "amenity": "restaurant", "name": "Metropolitan"}}, {"type": "node", "id": 4405869196, "lat": 22.2777488, "lon": 114.1759814, "tags": {"addr:housenumber": "254", "addr:street": "\u8ed2\u5c3c\u8a69\u9053 Hennessy Road", "amenity": "restaurant", "level": "0", "name": "\u7661\u81a0\u96de Crazy Chicken", "name:en": "Crazy Chicken", "name:zh": "\u7661\u81a0\u96de"}}, {"type": "node", "id": 4415982347, "lat": 22.2299083, "lon": 114.2510038, "tags": {"amenity": "restaurant", "cuisine": "thai", "name": "Happy restaurant"}}, {"type": "node", "id": 4416529189, "lat": 22.2869739, "lon": 114.1388648, "tags": {"addr:housenumber": "1C-1K", "addr:street": "\u6c34\u8857 Water Street", "amenity": "restaurant", "name": "\u5468\u8a18\u9ede\u5fc3", "name:en": "Chau Kee", "name:zh": "\u5468\u8a18\u9ede\u5fc3", "opening_hours": "Tu-Su 08:00-18:00", "phone": "+852 2559 2389"}}, {"type": "node", "id": 4418158589, "lat": 22.2875742, "lon": 114.1470706, "tags": {"amenity": "restaurant", "name": "\u84ee\u9999\u5c45", "name:en": "Lin Heung Kui"}}, {"type": "node", "id": 4422124289, "lat": 22.2792915, "lon": 114.1867331, "tags": {"amenity": "restaurant", "brand": "\u9f0e\u6cf0\u8c50 Din Tai Fung", "brand:en": "Din Tai Fung", "brand:wikidata": "Q699142", "brand:zh": "\u9f0e\u6cf0\u8c50", "brand:zh-Hans": "\u9f0e\u6cf0\u4e30", "brand:zh-Hant": "\u9f0e\u6cf0\u8c50", "cuisine": "taiwanese", "name": "\u9f0e\u6cf0\u8c50 Din Tai Fung", "name:en": "Din Tai Fung", "name:zh": "\u9f0e\u6cf0\u8c50", "name:zh-Hans": "\u9f0e\u6cf0\u4e30", "name:zh-Hant": "\u9f0e\u6cf0\u8c50"}}, {"type": "node", "id": 4448530289, "lat": 22.2860465, "lon": 114.1914286, "tags": {"amenity": "restaurant", "name": "\u5de8\u9f8d\u9910\u5ef3", "name:en": "Choose your own hot pot."}}, {"type": "node", "id": 4450031328, "lat": 22.286438, "lon": 114.21585, "tags": {"addr:housenumber": "22", "addr:street": "Taikoo Shing Road", "amenity": "restaurant", "cuisine": "japanese", "name": "\u4eac\u6797\u5c4b Kyo Hayashiya", "name:en": "Kyo Hayashiya", "name:ja": "\u4eac\u306f\u3084\u3057\u3084", "name:zh": "\u4eac\u6797\u5c4b"}}, {"type": "node", "id": 4450759121, "lat": 22.2304617, "lon": 114.251355}, {"type": "node", "id": 4450759122, "lat": 22.2304396, "lon": 114.2512984}, {"type": "node", "id": 4450759130, "lat": 22.2302725, "lon": 114.2514435}, {"type": "node", "id": 4450759131, "lat": 22.2303184, "lon": 114.2515665}, {"type": "node", "id": 4450759132, "lat": 22.2304101, "lon": 114.2515329}, {"type": "node", "id": 4450759133, "lat": 22.2303856, "lon": 114.2514626}, {"type": "node", "id": 4450759134, "lat": 22.230451, "lon": 114.2514161}, {"type": "node", "id": 4450759135, "lat": 22.230432, "lon": 114.2513723}, {"type": "node", "id": 4450759136, "lat": 22.2302648, "lon": 114.251528}, {"type": "node", "id": 4450759137, "lat": 22.2302822, "lon": 114.2516226}, {"type": "node", "id": 4450759138, "lat": 22.2301938, "lon": 114.2516475}, {"type": "node", "id": 4450759139, "lat": 22.230199, "lon": 114.2516048}, {"type": "node", "id": 4450759140, "lat": 22.2302089, "lon": 114.2515667}, {"type": "node", "id": 4450759141, "lat": 22.2302277, "lon": 114.2515418}, {"type": "node", "id": 4450759142, "lat": 22.2302357, "lon": 114.2515367}, {"type": "node", "id": 4450759146, "lat": 22.2302683, "lon": 114.2516265}, {"type": "node", "id": 4458994891, "lat": 22.2821958, "lon": 114.1853314, "tags": {"addr:housenumber": "9-11", "addr:street": "\u52a0\u5be7\u8857 Cleveland Street", "amenity": "restaurant", "cuisine": "seafood;mediterranean", "email": "cs@kingparrot.com", "internet_access": "wlan", "name": "Coast", "opening_hours": "Mo-Fr 12:00-00:00; Sa-Su 11:00-00:00", "phone": "+852 2576 8650", "website": "https://www.kingparrot.com/restaurants.php?id=39"}}, {"type": "node", "id": 4459004489, "lat": 22.2817227, "lon": 114.186361, "tags": {"addr:housenumber": "8", "addr:street": "\u4eac\u58eb\u9813\u8857 Kingston Street", "amenity": "restaurant", "internet_access": "wlan", "name": "\u5fb7\u570b\u9910\u5ef3", "name:en": "King Ludwig Beerhall", "name:zh": "\u5fb7\u570b\u9910\u5ef3", "opening_hours": "Mo-Sa 11:30-01:00; Su 11:30-00:00", "phone": "+852 2556 7033", "website": "https://www.facebook.com/kingludwigcausewaybay/"}}, {"type": "node", "id": 4469977590, "lat": 22.2820069, "lon": 114.1526872, "tags": {"addr:housenumber": "28", "addr:street": "\u58eb\u4e39\u9813\u8857 Staunton Street", "amenity": "restaurant", "cuisine": "international", "internet_access": "wlan", "name:en": "Jaspas"}}, {"type": "node", "id": 4470015892, "lat": 22.2819238, "lon": 114.1533571, "tags": {"amenity": "restaurant", "name": "NINETYs"}}, {"type": "node", "id": 4474342392, "lat": 22.2883137, "lon": 114.19316, "tags": {"amenity": "restaurant", "level": "0", "name": "\u571f\u53f8\u5de5\u574a Toast Box", "name:en": "Toast Box", "name:zh": "\u571f\u53f8\u5de5\u574a", "opening_hours": "Mo-Su 08:00-21:00"}}, {"type": "node", "id": 4476980631, "lat": 22.28631, "lon": 114.22416, "tags": {"amenity": "restaurant", "cuisine": "japanese", "level": "0", "name": "\u57e0\u65e5\u672c\u6599\u7406"}}, {"type": "node", "id": 4478902310, "lat": 22.2880381, "lon": 114.1415018, "tags": {"addr:housenumber": "247", "addr:street": "Des Voeux Road West", "amenity": "restaurant", "description": "Vietnamese Food", "name": "Soo Viet", "opening_hours": "Mo-Su 11:30-22:00", "website": "sooviet-hk.com"}}, {"type": "node", "id": 4478903789, "lat": 22.288037, "lon": 114.1415829, "tags": {"addr:housenumber": "239", "addr:street": "De Voeux Road West", "amenity": "restaurant", "description": "Chinese Dim Sum", "name": "New Hing Dim Sum"}}, {"type": "node", "id": 4484738390, "lat": 22.2786763, "lon": 114.1776287, "tags": {"addr:housenumber": "300\uff5e306", "addr:street": "\u99f1\u514b\u9053 Lockhart Road", "amenity": "restaurant", "name": "\u6d59\u6c5f\u8ed2"}}, {"type": "node", "id": 4485063789, "lat": 22.2789873, "lon": 114.1850852, "tags": {"addr:housenumber": "Shop 308, 3/F", "addr:street": "\u6069\u5e73\u9053 Yun Ping Road", "amenity": "restaurant", "cuisine": "british", "email": "hello@theleah.co", "name": "The Leah", "name:en": "The Leah", "phone": "+852 6537 7651", "website": "https://www.theleah.co/"}}, {"type": "node", "id": 4485063790, "lat": 22.2788035, "lon": 114.1835686, "tags": {"addr:housenumber": "2J", "addr:street": "\u5bcc\u660e\u8857 Foo Ming Street", "amenity": "restaurant", "cuisine": "crepe", "email": "info@frenchcrepes.com.hk", "level": "2", "name": "Fleur de Sel", "name:en": "Fleur de Sel", "opening_hours": "Mo-Fr 11:00-14:30, 18:00-22:00; Sa 18:00-22:00; Su 11:00-14:30", "phone": "+852 2805 6678", "website": "http://frenchcrepes.com.hk/fleur-de-sel/"}}, {"type": "node", "id": 4488833093, "lat": 22.248499, "lon": 114.1540004, "tags": {"addr:full": "ac5 1\u6a13E\u865f\u8216", "amenity": "restaurant", "name": "\u8336\u6728", "strapline": "\u53f0\u5f0f\u4f11\u9592\u9910\u5ef3"}}, {"type": "node", "id": 4490696930, "lat": 22.286438, "lon": 114.21538, "tags": {"amenity": "restaurant", "cuisine": "regional", "level": "0", "name": "Wheatfield X"}}, {"type": "node", "id": 4499844490, "lat": 22.2778121, "lon": 114.179359, "tags": {"addr:housenumber": "221A", "addr:street": "\u7063\u4ed4\u9053 Wan Chai Road", "addr:street:en": "Wan Chai Road", "addr:street:wikidata": "Q7966985", "addr:street:zh": "\u7063\u4ed4\u9053", "amenity": "restaurant", "level": "0", "level:ref": "G", "name": "\u8d64\u9bdb Akaitai", "name:en": "Akaitai", "name:zh": "\u8d64\u9bdb", "phone": "+852 2357 4899"}}, {"type": "node", "id": 4505373990, "lat": 22.2843269, "lon": 114.1521394, "tags": {"addr:housenumber": "45", "addr:street": "\u6b4c\u8ce6\u8857 Gough Street", "amenity": "restaurant", "name:en": "Oddies Foodies"}}, {"type": "node", "id": 4505545089, "lat": 22.2788332, "lon": 114.1814889, "tags": {"addr:street": "\u5805\u62ff\u9053\u6771 Canal Road East", "amenity": "restaurant", "name": "\u6c5f\u4ed4\u8a18", "name:en": "Fish Ball Noodle Soup", "name:zh": "\u6c5f\u4ed4\u8a18"}}, {"type": "node", "id": 4505564290, "lat": 22.2771622, "lon": 114.177361, "tags": {"addr:housenumber": "117-119", "addr:street": "\u514b\u8857 Heard Street", "amenity": "restaurant", "name:en": "Cheng Fun Wang"}}, {"type": "node", "id": 4509291125, "lat": 22.2712117, "lon": 114.1502522, "tags": {"amenity": "restaurant", "cuisine": "seafood", "name": "Bubba Gump", "name:en": "Bubba Gump", "name:ko": "\ubd80\ubc14\uac80\ud504"}}, {"type": "node", "id": 4511573395, "lat": 22.280359, "lon": 114.181042, "tags": {"addr:housenumber": "440", "addr:street": "\u8b1d\u6590\u9053 Jaffe Road", "amenity": "restaurant", "name": "\u65b0\u65b0\u6d77\u9bae\u9152\u5bb6", "phone": "+852 28382186", "ref:openrice": "491128"}}, {"type": "node", "id": 4526174391, "lat": 22.2784447, "lon": 114.1909859, "tags": {"amenity": "restaurant", "name": "Granville Island", "name:zh": "Granville Island"}}, {"type": "node", "id": 4531486696, "lat": 22.2825, "lon": 114.15534, "tags": {"addr:housenumber": "38", "addr:street": "\u58eb\u4e39\u5229\u8857 Stanley Street", "amenity": "restaurant", "cuisine": "japanese", "level": "1", "name": "Shio", "name:ja": "\u3057\u304a"}}, {"type": "node", "id": 4535452091, "lat": 22.2807206, "lon": 114.1831398, "tags": {"addr:housenumber": "501", "addr:street": "\u99f1\u514b\u9053 Lockhart Road", "amenity": "restaurant", "contact:facebook": "https://www.facebook.com/superdonhk/", "contact:instagram": "https://www.instagram.com/superdon_hk/", "cuisine": "japanese;beef_bowl", "level": "0", "name": "Superdon", "name:en": "Superdon", "name:ja": "\u30b9\u30fc\u30d1\u30fc\u4e3c", "phone": "+852 2668 1663"}}, {"type": "node", "id": 4535633195, "lat": 22.2780956, "lon": 114.1808164, "tags": {"addr:street": "Bowrington Road", "amenity": "restaurant", "cuisine": "chinese;seafood", "name:en": "Kui Kee Seafood Restaurant"}}, {"type": "node", "id": 4541193862, "lat": 22.2304341, "lon": 114.2513032}, {"type": "node", "id": 4541931598, "lat": 22.27546, "lon": 114.1726, "tags": {"amenity": "restaurant", "name": "\u91d1\u9cf3\u8336\u9910\u5ef3 Kam Fung Cafe", "name:en": "Kam Fung Cafe", "name:zh": "\u91d1\u9cf3\u8336\u9910\u5ef3", "opening_hours": "Mo-Su 06:00-19:00"}}, {"type": "node", "id": 4541940189, "lat": 22.280468, "lon": 114.1821299, "tags": {"amenity": "restaurant", "cuisine": "japanese", "name": "\u6975\u5c1a\u5927\u701b\u65e5\u672c\u6599\u7406", "name:en": "Deluxe Daieiki Japanese", "name:ko": "\ub514\ub7ed\uc2a4 \ub2e4\uc774\uc5d0\uc774\ud0a4 \uc2a4\uc2dc\ubd80\ud398 \ub9db\uc9d1", "opening_hours": "Mo-Su 12:00-15:00, 17:30-00:00", "phone": "31888008"}}, {"type": "node", "id": 4548112676, "lat": 22.286438, "lon": 114.21608, "tags": {"addr:housenumber": "22", "addr:street": "Taikoo Shing Road", "amenity": "restaurant", "cuisine": "dessert", "level": "0", "name": "Yo Mama", "opening_hours": "Su-Th,PH 11:30-22:00; Fr,Sa 11:30-22:30", "phone": "+852 25475333", "website": "http://www.yomama.com.hk"}}, {"type": "node", "id": 4548112677, "lat": 22.286438, "lon": 114.216197, "tags": {"addr:housenumber": "20", "addr:street": "Taikoo Shing Road", "amenity": "restaurant", "cuisine": "japanese", "level": "0", "name": "\u8c5a\u738b Butao", "name:en": "Butao", "name:zh": "\u8c5a\u738b", "opening_hours": "Mo-Su,PH 11:00-23:00", "ref:openrice": "512977", "website": "https://www.butaoramen.com/"}},