{"version": 0.6, "generator": "Overpass API 0.7.60 f4c14d41", "osm3s": {"timestamp_osm_base": "2023-05-02T21:18:20Z", "copyright": "The data included in this document is from www.openstreetmap.org. The data is made available under ODbL."}, "elements": [{"type": "node", "id": 297462359, "lat": 40.7264799, "lon": -74.0387338}, {"type": "node", "id": 297462361, "lat": 40.7265299, "lon": -74.0387257}, {"type": "node", "id": 297462363, "lat": 40.7267864, "lon": -74.0386403}, {"type": "node", "id": 349323821, "lat": 40.7625151, "lon": -73.9766897, "tags": {"addr:city": "New York", "addr:housenumber": "43", "addr:postcode": "10019", "addr:state": "NY", "addr:street": "West 55th Street", "amenity": "fast_food", "branch": "55th St", "brand": "Five Guys", "brand:wikidata": "Q1131810", "brand:wikipedia": "en:Five Guys", "cuisine": "burger", "drive_through": "no", "name": "Five Guys", "official_name": "Five Guys Burgers and Fries", "opening_hours": "Mo-Su 11:00-22:00", "phone": "+1 212-459-9600", "takeaway": "yes", "website": "https://fiveguys.olo.express/menu/nyc-55th-st/info"}}, {"type": "node", "id": 368047348, "lat": 40.7622222, "lon": -73.8688889, "tags": {"addr:state": "NY", "amenity": "fast_food", "brand": "Dunkin' Donuts", "brand:wikidata": "Q847743", "brand:wikipedia": "en:Dunkin' Donuts", "cuisine": "donut;coffee_shop", "ele": "18", "gnis:county_name": "Queens", "gnis:feature_id": "2079685", "gnis:import_uuid": "57871b70-0100-4405-bb30-88b2e001a944", "gnis:reviewed": "no", "name": "Dunkin' Donuts", "source": "USGS Geonames", "takeaway": "yes"}}, {"type": "node", "id": 446454065, "lat": 40.5176907, "lon": -74.2347928}, {"type": "node", "id": 474741174, "lat": 40.8233844, "lon": -73.874704, "tags": {"addr:city": "Bronx", "addr:housenumber": "1600", "addr:postcode": "10473", "addr:state": "NY", "addr:street": "Bruckner Boulevard", "amenity": "fast_food", "brand": "McDonald's", "brand:wikidata": "Q38076", "brand:wikipedia": "en:McDonald's", "cuisine": "burger", "drive_through": "yes", "name": "McDonald's", "takeaway": "yes"}}, {"type": "node", "id": 474743493, "lat": 40.8262918, "lon": -73.8616069, "tags": {"addr:city": "Bronx", "addr:housenumber": "1865", "addr:postcode": "10472", "addr:state": "NY", "addr:street": "Bruckner Boulevard", "amenity": "fast_food", "brand": "McDonald's", "brand:wikidata": "Q38076", "brand:wikipedia": "en:McDonald's", "cuisine": "burger", "drive_through": "yes", "name": "McDonald's", "takeaway": "yes"}}, {"type": "node", "id": 502803968, "lat": 40.7394621, "lon": -73.8153742, "tags": {"alt_name": "Dunkin' Donuts", "amenity": "fast_food", "brand": "Dunkin'", "brand:wikidata": "Q847743", "cuisine": "donut;coffee_shop", "name": "Dunkin'", "takeaway": "yes"}}, {"type": "node", "id": 567809178, "lat": 40.8263281, "lon": -73.8606631, "tags": {"addr:city": "Bronx", "addr:housenumber": "1889", "addr:postcode": "10472", "addr:state": "NY", "addr:street": "Bruckner Boulevard", "amenity": "fast_food", "brand": "Taco Bell", "brand:wikidata": "Q752941", "brand:wikipedia": "en:Taco Bell", "cuisine": "tex-mex", "name": "Taco Bell", "takeaway": "yes"}}, {"type": "node", "id": 584120700, "lat": 40.7458981, "lon": -73.986688, "tags": {"addr:housenumber": "1", "addr:postcode": "10016", "addr:street": "5th Avenue", "amenity": "fast_food", "name": "Caf\u00e9 au bon gout"}}, {"type": "node", "id": 617740848, "lat": 40.7147639, "lon": -73.9442508, "tags": {"addr:housenumber": "352", "addr:postcode": "11211", "addr:street": "Graham Avenue", "alt_name": "Dunkin' Donuts", "amenity": "fast_food", "brand": "Dunkin'", "brand:wikidata": "Q847743", "brand:wikipedia": "en:Dunkin' Donuts", "cuisine": "donut;coffee_shop", "level": "0", "name": "Dunkin'", "opening_hours": "05:00-22:00", "phone": "+1 718-384-7640", "takeaway": "yes", "website": "https://locations.dunkindonuts.com/en/ny/brooklyn/352-graham-ave/342627"}}, {"type": "node", "id": 622228254, "lat": 40.7220373, "lon": -73.9404458, "tags": {"amenity": "fast_food", "brand": "McDonald's", "brand:wikidata": "Q38076", "brand:wikipedia": "en:McDonald's", "cuisine": "burger", "drive_through": "yes", "name": "McDonald's", "takeaway": "yes"}}, {"type": "node", "id": 626013381, "lat": 40.8073542, "lon": -73.9647166, "tags": {"amenity": "fast_food", "brand": "Sweetgreen", "brand:wikidata": "Q18636413", "brand:wikipedia": "en:Sweetgreen", "cuisine": "salad", "name": "Sweetgreen", "takeaway": "yes"}}, {"type": "node", "id": 663387602, "lat": 40.7529683, "lon": -73.9926431, "tags": {"addr:housenumber": "500", "addr:postcode": "10018", "addr:street": "8th Avenue", "amenity": "fast_food", "brand": "Taco Bell", "brand:wikidata": "Q752941", "brand:wikipedia": "en:Taco Bell", "cuisine": "tex-mex", "delivery": "yes", "dish": "tacos", "name": "Taco Bell Cantina", "opening_hours": "Mo-Th, Su 08:00-03:00; Fr, Sa 08:00-04:00", "phone": "+1 929-232-3040", "takeaway": "yes", "website": "https://locations.tacobell.com/ny/new-york/500-8th-avenue.html"}}, {"type": "node", "id": 671071295, "lat": 40.7569564, "lon": -73.9934438, "tags": {"addr:housenumber": "452", "addr:postcode": "10018", "addr:street": "9th Avenue", "amenity": "fast_food", "branch": "Port Authority", "cuisine": "pizza", "name": "2 Bros. Pizza", "opening_hours": "Mo-Su 10:00-02:00", "payment:cash": "yes", "payment:credit_cards": "yes", "phone": "+1 212-695-2642", "takeaway": "yes", "website": "https://www.2brospizza.com/location/542-9th-ave-new-york-ny-10018/", "wheelchair": "yes"}}, {"type": "node", "id": 741028175, "lat": 40.74406, "lon": -73.923508, "tags": {"addr:city": "New York", "addr:street": "Queens Boulevard", "amenity": "fast_food", "brand": "Burger King", "brand:wikidata": "Q177054", "brand:wikipedia": "en:Burger King", "cuisine": "burger", "drive_through": "no", "name": "Burger King", "outdoor_seating": "no", "smoking": "no", "takeaway": "yes", "wheelchair": "limited"}}, {"type": "node", "id": 763652153, "lat": 40.7411174, "lon": -73.9901665, "tags": {"addr:city": "New York", "addr:housenumber": "174", "addr:postcode": "10010", "addr:state": "NY", "addr:street": "5th Avenue", "amenity": "fast_food", "cuisine": "sandwich", "delivery": "yes", "name": "Eisenberg's Sandwich Shop", "opening_hours": "Mo-Fr 07:30-18:00; Sa 09:00-17:00; Su 10:00-15:00", "phone": "+1 212-675-5096", "website": "http://www.eisenbergsnyc.com/", "wheelchair": "limited"}}, {"type": "node", "id": 764188311, "lat": 40.6724269, "lon": -73.9504079, "tags": {"addr:street": "Nostrand Avenue", "amenity": "fast_food", "cuisine": "caribbean", "name": "Gloria's"}}, {"type": "node", "id": 791455821, "lat": 40.671485, "lon": -74.002835, "tags": {"addr:street": "Bay Street", "amenity": "fast_food", "name": "Red Hook Ball Field Food Trucks", "opening_hours": "Sa 11:00- 15:00"}}, {"type": "node", "id": 883234965, "lat": 40.7484288, "lon": -73.9850334, "tags": {"alt_name": "Chipotle Mexican Grill", "amenity": "fast_food", "brand": "Chipotle", "brand:wikidata": "Q465751", "brand:wikipedia": "en:Chipotle Mexican Grill", "contact:website": "https://chipotle.com/", "cuisine": "mexican", "diet:vegan": "yes", "diet:vegetarian": "yes", "name": "Chipotle", "official_name": "Chipotle Mexican Grill", "takeaway": "yes"}}, {"type": "node", "id": 886682281, "lat": 40.7279757, "lon": -73.994851, "tags": {"addr:housenumber": "683", "addr:street": "Broadway", "amenity": "fast_food", "cuisine": "deli", "name": "Le Basket", "opening_hours": "24/7"}}, {"type": "node", "id": 887596760, "lat": 40.7096762, "lon": -74.011915, "tags": {"amenity": "fast_food", "brand": "Burger King", "brand:wikidata": "Q177054", "brand:wikipedia": "en:Burger King", "cuisine": "burger", "delivery": "no", "drive_through": "no", "name": "Burger King", "outdoor_seating": "no", "smoking": "outside", "takeaway": "yes", "wheelchair": "yes"}}, {"type": "node", "id": 888966665, "lat": 40.7168705, "lon": -73.9585512, "tags": {"amenity": "fast_food", "name": "Yogurberry"}}, {"type": "node", "id": 889001978, "lat": 40.717722, "lon": -73.957349, "tags": {"addr:housenumber": "159", "amenity": "fast_food", "cuisine": "falafel;middle_eastern", "name": "Oasis"}}, {"type": "node", "id": 889447583, "lat": 40.7154962, "lon": -74.0062427, "tags": {"addr:housenumber": "65", "addr:street": "West Broadway", "amenity": "fast_food", "name": "Bengal Curry", "phone": "2125711122"}}, {"type": "node", "id": 889485115, "lat": 40.7162978, "lon": -74.0106665, "tags": {"addr:city": "New York", "addr:country": "US", "addr:housenumber": "167", "addr:postcode": "10013", "addr:state": "NY", "addr:street": "Chambers Street", "amenity": "fast_food", "brand": "McDonald's", "brand:wikidata": "Q38076", "brand:wikipedia": "en:McDonald's", "cuisine": "burger", "internet_access": "wlan", "internet_access:fee": "no", "name": "McDonald's", "opening_hours": "24/7", "takeaway": "yes", "wheelchair": "yes"}}, {"type": "node", "id": 910822719, "lat": 40.7067224, "lon": -74.0069799, "tags": {"addr:city": "New York", "addr:country": "US", "addr:housenumber": "100", "addr:state": "NY", "addr:street": "Maiden Lane", "alt_name": "Chipotle Mexican Grill", "amenity": "fast_food", "brand": "Chipotle", "brand:wikidata": "Q465751", "brand:wikipedia": "en:Chipotle Mexican Grill", "contact:website": "https://chipotle.com/", "cuisine": "mexican", "diet:vegan": "yes", "diet:vegetarian": "yes", "indoor_seating": "yes", "name": "Chipotle", "official_name": "Chipotle Mexican Grill", "opening_hours": "10:45-22:00", "outdoor_seating": "no", "takeaway": "yes", "wheelchair": "yes"}}, {"type": "node", "id": 983311348, "lat": 40.7357699, "lon": -74.0635538}, {"type": "node", "id": 1151537559, "lat": 40.6017273, "lon": -73.9937419, "tags": {"addr:city": "Brooklyn", "addr:housenumber": "2202", "addr:postcode": "11214", "addr:state": "NY", "addr:street": "86th Street", "amenity": "fast_food", "cuisine": "turkish", "name": "Istanbul Bay", "website": "https://istanbulbay.com/"}}, {"type": "node", "id": 1153146341, "lat": 40.7029557, "lon": -74.0132642, "tags": {"amenity": "fast_food", "brand": "Au Bon Pain", "brand:wikidata": "Q4818942", "brand:wikipedia": "en:Au Bon Pain", "cuisine": "sandwich", "name": "Au Bon Pain", "takeaway": "yes", "wheelchair": "limited"}}, {"type": "node", "id": 1270769394, "lat": 40.7226539, "lon": -73.9866876, "tags": {"amenity": "fast_food", "cuisine": "indian", "name": "Punjabi Deli & Grocery", "opening_hours:signed": "no"}}, {"type": "node", "id": 1272605140, "lat": 40.7414804, "lon": -73.9881}, {"type": "node", "id": 1292794352, "lat": 40.7506137, "lon": -73.9784255, "tags": {"amenity": "fast_food", "atm": "yes", "brand": "Pret A Manger", "brand:wikidata": "Q2109109", "brand:wikipedia": "en:Pret a Manger", "cuisine": "sandwich", "name": "Pret A Manger", "short_name": "Pret", "takeaway": "yes"}}, {"type": "node", "id": 1297282199, "lat": 40.7453859, "lon": -73.9827861, "tags": {"amenity": "fast_food", "brand": "Chipotle", "brand:wikidata": "Q465751", "brand:wikipedia": "en:Chipotle Mexican Grill", "cuisine": "mexican", "diet:vegan": "yes", "diet:vegetarian": "yes", "name": "Chipotle", "official_name": "Chipotle Mexican Grill", "takeaway": "yes"}}, {"type": "node", "id": 1297282225, "lat": 40.7462142, "lon": -73.9822961, "tags": {"amenity": "fast_food", "brand": "Pret A Manger", "brand:wikidata": "Q2109109", "brand:wikipedia": "en:Pret a Manger", "cuisine": "sandwich", "name": "Pret A Manger", "short_name": "Pret", "takeaway": "yes", "wheelchair": "yes"}}, {"type": "node", "id": 1297282239, "lat": 40.7448937, "lon": -73.9826174, "tags": {"alt_name": "Dunkin' Donuts", "amenity": "fast_food", "brand": "Dunkin'", "brand:wikidata": "Q847743", "brand:wikipedia": "en:Dunkin' Donuts", "cuisine": "donut;coffee_shop", "name": "Dunkin'", "takeaway": "yes"}}, {"type": "node", "id": 1297657485, "lat": 40.7511441, "lon": -73.9972215, "tags": {"addr:housenumber": "360", "addr:street": "W 31st Street", "alt_name": "Dunkin' Donuts", "amenity": "fast_food", "brand": "Dunkin'", "brand:wikidata": "Q847743", "brand:wikipedia": "en:Dunkin' Donuts", "cuisine": "donut;coffee_shop", "internet_access": "wlan", "name": "Dunkin'", "opening_hours": "24/7", "phone": "(212) 904-1160", "takeaway": "yes"}}, {"type": "node", "id": 1377430469, "lat": 40.8063321, "lon": -73.9256662, "tags": {"addr:housename": "McDonald's", "addr:housenumber": "85", "addr:postcode": "10454", "addr:street": "Bruckner Boulevard", "alt_name": "85 Bruckner", "amenity": "fast_food", "brand": "McDonald's", "brand:wikidata": "Q38076", "brand:wikipedia": "en:McDonald's", "cuisine": "burger", "int_name": "McDonald's", "name": "McDonald's", "takeaway": "yes", "website": "http://www2.mcnewyork.com/5632/"}}, {"type": "node", "id": 1383908251, "lat": 40.7659051, "lon": -73.9832636}, {"type": "node", "id": 1383909209, "lat": 40.7660008, "lon": -73.9828817, "tags": {"alt_name": "Chipotle Mexican Grill", "amenity": "fast_food", "brand": "Chipotle", "brand:wikidata": "Q465751", "brand:wikipedia": "en:Chipotle Mexican Grill", "contact:website": "https://chipotle.com/", "cuisine": "mexican", "diet:vegan": "yes", "diet:vegetarian": "yes", "name": "Chipotle", "official_name": "Chipotle Mexican Grill", "takeaway": "yes", "wheelchair": "yes"}}, {"type": "node", "id": 1383917378, "lat": 40.7671142, "lon": -73.9833679, "tags": {"addr:city": "New York", "addr:housenumber": "309", "addr:postcode": "10019", "addr:state": "NY", "addr:street": "West 57th Street", "air_conditioning": "yes", "alt_name": "Dunkin' Donuts", "amenity": "fast_food", "brand": "Dunkin'", "brand:wikidata": "Q847743", "brand:wikipedia": "en:Dunkin' Donuts", "cuisine": "donut;coffee_shop", "drive_through": "no", "internet_access": "wlan", "name": "Dunkin'", "opening_hours": "05:00-23:00", "phone": "+1-212-315-2616", "smoking": "no", "takeaway": "yes", "website": "https://www.dunkindonuts.com/", "wheelchair": "yes"}}, {"type": "node", "id": 1426190404, "lat": 40.7514749, "lon": -73.9804635, "tags": {"amenity": "fast_food", "brand": "McDonald's", "brand:wikidata": "Q38076", "brand:wikipedia": "en:McDonald's", "cuisine": "burger", "name": "McDonald's", "takeaway": "yes"}}, {"type": "node", "id": 1426215370, "lat": 40.7509403, "lon": -73.9804462, "tags": {"amenity": "fast_food", "brand": "Pret A Manger", "brand:wikidata": "Q2109109", "brand:wikipedia": "en:Pret a Manger", "cuisine": "sandwich", "name": "Pret A Manger", "short_name": "Pret", "takeaway": "yes"}}, {"type": "node", "id": 1426326464, "lat": 40.7612624, "lon": -73.7700833, "tags": {"amenity": "fast_food", "cuisine": "pizza", "name": "VIPizza"}}, {"type": "node", "id": 1427212548, "lat": 40.7525447, "lon": -73.9792587, "tags": {"amenity": "fast_food", "name": "food exchange"}}, {"type": "node", "id": 1427265080, "lat": 40.7543276, "lon": -73.9772122, "tags": {"amenity": "fast_food", "name": "Blake & Todd"}}, {"type": "node", "id": 1427273513, "lat": 40.7524627, "lon": -73.9751098, "tags": {"amenity": "fast_food", "brand": "Pret A Manger", "brand:wikidata": "Q2109109", "brand:wikipedia": "en:Pret a Manger", "cuisine": "sandwich", "name": "Pret A Manger", "short_name": "Pret", "takeaway": "yes"}}, {"type": "node", "id": 1427285993, "lat": 40.7509775, "lon": -73.9767577, "tags": {"amenity": "fast_food", "brand": "Pret A Manger", "brand:wikidata": "Q2109109", "brand:wikipedia": "en:Pret a Manger", "cuisine": "sandwich", "name": "Pret A Manger", "short_name": "Pret", "takeaway": "yes"}}, {"type": "node", "id": 1427286041, "lat": 40.7508482, "lon": -73.9762726, "tags": {"amenity": "fast_food", "name": "Delmonico Gourmet Market"}}, {"type": "node", "id": 1427286094, "lat": 40.7508618, "lon": -73.9772877, "tags": {"amenity": "fast_food", "brand": "Subway", "brand:wikidata": "Q244457", "brand:wikipedia": "en:Subway (restaurant)", "cuisine": "sandwich", "name": "Subway", "takeaway": "yes"}}, {"type": "node", "id": 1427286096, "lat": 40.7510468, "lon": -73.9769024, "tags": {"addr:housename": "Chanin Building", "addr:housenumber": "123", "addr:postcode": "10168", "addr:street": "East 41st Street", "amenity": "fast_food", "cuisine": "pizza", "name": "Previti pizza", "website": "https://www.previtipizza.com/"}}, {"type": "node", "id": 1427499828, "lat": 40.7517125, "lon": -73.9803061, "tags": {"amenity": "fast_food", "name": "4food"}}, {"type": "node", "id": 1427499831, "lat": 40.7511837, "lon": -73.9806977, "tags": {"amenity": "fast_food", "brand": "Chipotle", "brand:wikidata": "Q465751", "brand:wikipedia": "en:Chipotle Mexican Grill", "cuisine": "mexican", "name": "Chipotle", "official_name": "Chipotle Mexican Grill", "takeaway": "yes"}}, {"type": "node", "id": 1427521090, "lat": 40.7499023, "lon": -73.9831807, "tags": {"amenity": "fast_food", "brand": "Burger King", "brand:wikidata": "Q177054", "brand:wikipedia": "en:Burger King", "cuisine": "burger", "name": "Burger King", "takeaway": "yes"}}, {"type": "node", "id": 1428036307, "lat": 40.7523865, "lon": -73.9806791, "tags": {"amenity": "fast_food", "brand": "Subway", "brand:wikidata": "Q244457", "brand:wikipedia": "en:Subway (restaurant)", "cuisine": "sandwich", "name": "Subway", "takeaway": "yes"}}, {"type": "node", "id": 1428185702, "lat": 40.7467357, "lon": -73.9839912, "tags": {"amenity": "fast_food", "brand": "Subway", "brand:wikidata": "Q244457", "brand:wikipedia": "en:Subway (restaurant)", "cuisine": "sandwich", "name": "Subway", "takeaway": "yes", "website": "http://www.subway.com/"}}, {"type": "node", "id": 1428185705, "lat": 40.7432333, "lon": -73.9892796, "tags": {"addr:city": "New York", "addr:housenumber": "1123", "addr:postcode": "10010", "addr:state": "NY", "addr:street": "Broadway", "amenity": "fast_food", "cuisine": "american", "drive_through": "no", "name": "Hill Country Chicken", "opening_hours": "11:00-20:00", "opening_hours:covid19": "closed", "operator": "Hill Country", "phone": "+1-212-257-6446", "website": "https://www.hillcountrychicken.com/", "wheelchair": "limited"}}, {"type": "node", "id": 1428427555, "lat": 40.7569369, "lon": -73.9760656, "tags": {"addr:city": "New York", "addr:housenumber": "425", "addr:postcode": "10017", "addr:street": "Madison Avenue", "amenity": "fast_food", "brand": "Pret A Manger", "brand:wikidata": "Q2109109", "brand:wikipedia": "en:Pret a Manger", "cuisine": "sandwich", "name": "Pret A Manger", "short_name": "Pret", "takeaway": "yes"}}, {"type": "node", "id": 1605519635, "lat": 40.6553984, "lon": -73.9596246, "tags": {"alt_name": "Dunkin' Donuts", "amenity": "fast_food", "brand": "Dunkin'", "brand:wikidata": "Q847743", "brand:wikipedia": "en:Dunkin' Donuts", "cuisine": "donut;coffee_shop", "name": "Dunkin'", "opening_hours": "Mo-Su 05:00-19:00", "takeaway": "yes"}}, {"type": "node", "id": 1663980964, "lat": 40.7875166, "lon": -74.0458387, "tags": {"amenity": "fast_food", "brand": "Chipotle", "brand:wikidata": "Q465751", "brand:wikipedia": "en:Chipotle Mexican Grill", "cuisine": "mexican", "name": "Chipotle", "official_name": "Chipotle Mexican Grill", "takeaway": "yes"}}, {"type": "node", "id": 1666263415, "lat": 40.7154566, "lon": -73.9602181, "tags": {"addr:postcode": "11211", "amenity": "fast_food", "cuisine": "mexican", "name": "Endless Summer", "website": "www.endlesssummertacos.com/"}}, {"type": "node", "id": 1667407727, "lat": 40.8048764, "lon": -73.955334, "tags": {"amenity": "fast_food", "brand": "Subway", "brand:wikidata": "Q244457", "brand:wikipedia": "en:Subway (restaurant)", "cuisine": "sandwich", "name": "Subway", "takeaway": "yes"}}, {"type": "node", "id": 1693346052, "lat": 40.7067867, "lon": -74.0131444}, {"type": "node", "id": 1693346063, "lat": 40.706668, "lon": -74.012874}, {"type": "node", "id": 1707825826, "lat": 40.7533686, "lon": -73.9958361, "tags": {"addr:housenumber": "367", "addr:postcode": "10001", "addr:street": "West 34th Street", "amenity": "fast_food", "brand": "Subway", "brand:wikidata": "Q244457", "brand:wikipedia": "en:Subway (restaurant)", "cuisine": "sandwich", "name": "Subway", "opening_hours": "Mo-Fr 07:00-23:00; Sa 08:00-23:00; Su 09:00-23:00", "phone": "+1-212-564-9191", "takeaway": "yes", "website": "https://restaurants.subway.com/united-states/ny/new-york/367-west-34th-st"}}, {"type": "node", "id": 1707826922, "lat": 40.7522601, "lon": -73.9899195, "tags": {"amenity": "fast_food"}}, {"type": "node", "id": 1708729794, "lat": 40.5428746, "lon": -74.2070645, "tags": {"amenity": "fast_food", "brand": "Dunkin' Donuts", "brand:wikidata": "Q847743", "brand:wikipedia": "en:Dunkin' Donuts", "cuisine": "donut;coffee_shop", "name": "Dunkin' Donuts", "takeaway": "yes", "wheelchair": "yes"}}, {"type": "node", "id": 1740694091, "lat": 40.7587753, "lon": -73.98472, "tags": {"amenity": "fast_food", "brand": "McDonald's", "brand:wikidata": "Q38076", "brand:wikipedia": "en:McDonald's", "cuisine": "burger", "internet_access": "wlan", "internet_access:fee": "no", "name": "McDonald's", "opening_hours": "24/7", "takeaway": "yes", "website": "http://www.mcnewyork.com/6971"}}, {"type": "node", "id": 1740694092, "lat": 40.762234, "lon": -73.98375, "tags": {"addr:city": "New York", "amenity": "fast_food", "brand": "McDonald's", "brand:wikidata": "Q38076", "brand:wikipedia": "en:McDonald's", "cuisine": "burger", "name": "McDonald's", "takeaway": "yes", "wheelchair": "yes"}}, {"type": "node", "id": 1740707014, "lat": 40.8122296, "lon": -73.9418363, "tags": {"addr:city": "New York", "addr:country": "US", "addr:housenumber": "444", "addr:postcode": "10030", "addr:state": "NY", "addr:street": "Lenox Avenue", "amenity": "fast_food", "brand": "McDonald's", "brand:wikidata": "Q38076", "brand:wikipedia": "en:McDonald's", "cuisine": "burger", "internet_access": "wlan", "internet_access:fee": "no", "name": "McDonald's", "takeaway": "yes", "website": "http://www.mcnewyork.com/3660"}}, {"type": "node", "id": 1740824586, "lat": 40.7516751, "lon": -73.974254, "tags": {"amenity": "fast_food", "name": "Tacos Grand Central"}}, {"type": "node", "id": 1749011050, "lat": 40.7903432, "lon": -73.9475023, "tags": {"addr:city": "New York", "addr:housenumber": "1631", "addr:postcode": "10029", "addr:state": "NY", "addr:street": "Lexington Avenue", "alt_name": "Dunkin' Donuts", "amenity": "fast_food", "brand": "Dunkin'", "brand:wikidata": "Q847743", "brand:wikipedia": "en:Dunkin' Donuts", "cuisine": "donut;coffee_shop", "drive_through": "no", "internet_access": "wlan", "internet_access:fee": "no", "name": "Dunkin'", "opening_hours": "06:00-21:00", "phone": "+1 212-426-3131", "takeaway": "yes", "wheelchair": "designated"}}, {"type": "node", "id": 1749016144, "lat": 40.7899881, "lon": -73.9477583, "tags": {"addr:housenumber": "1629", "addr:street": "Lexington Avenue", "addr:unit": "B", "amenity": "fast_food", "cocktails": "no", "cuisine": "mexican", "delivery": "yes", "dish": "tortas", "drink:beer": "no", "drink:wine": "no", "name": "Jalape\u00f1o Deli", "opening_hours": "Mo-Su 08:00-21:00", "payment:cash": "only", "phone": "+1 212-828-2803", "takeaway": "yes", "wheelchair": "no"}}, {"type": "node", "id": 1751404850, "lat": 40.8137641, "lon": -73.9836359}, {"type": "node", "id": 1754976593, "lat": 40.7414433, "lon": -73.9204708, "tags": {"amenity": "fast_food", "name": "Lenny's Pizza", "wheelchair": "limited"}}, {"type": "node", "id": 1764402107, "lat": 40.6793354, "lon": -73.7614678, "tags": {"amenity": "fast_food", "name": "NY Fried Chicken"}}, {"type": "node", "id": 1764402320, "lat": 40.6792862, "lon": -73.7611609, "tags": {"alt_name": "Dunkin' Donuts", "amenity": "fast_food", "brand": "Dunkin'", "brand:wikidata": "Q847743", "brand:wikipedia": "en:Dunkin' Donuts", "cuisine": "donut;coffee_shop", "name": "Dunkin'", "takeaway": "yes"}}, {"type": "node", "id": 1802297281, "lat": 40.8079479, "lon": -73.9643022, "tags": {"addr:city": "New York", "addr:housenumber": "2957", "addr:postcode": "10025", "addr:street": "Broadway", "amenity": "fast_food", "brand": "Shake Shack", "brand:wikidata": "Q1058722", "brand:wikipedia": "en:Shake Shack", "cuisine": "burger", "drive_through": "no", "name": "Shake Shack", "opening_hours": "Mo-Su 11:00-23:00", "phone": "+1 212 932-3300", "takeaway": "yes"}}, {"type": "node", "id": 1809517488, "lat": 40.7924263, "lon": -73.9681372, "tags": {"alt_name": "Dunkin' Donuts", "amenity": "fast_food", "brand": "Dunkin'", "brand:wikidata": "Q847743", "brand:wikipedia": "en:Dunkin' Donuts", "cuisine": "donut;coffee_shop", "internet_access": "wlan", "name": "Dunkin'", "opening_hours": "Mo-Su 05:00-21:00", "takeaway": "yes"}}, {"type": "node", "id": 1809517497, "lat": 40.792394, "lon": -73.9675455, "tags": {"addr:city": "New York", "addr:country": "US", "addr:housenumber": "731", "addr:postcode": "10025", "addr:state": "NY", "addr:street": "Columbus Avenue", "amenity": "fast_food", "brand": "Subway", "brand:wikidata": "Q244457", "brand:wikipedia": "en:Subway (restaurant)", "cuisine": "sandwich", "name": "Subway", "opening_hours": "Su 09:00-10:00; Mo-Fr 07:00-23:00; Sa 08:00-22:00", "operator": "Subway", "phone": "+1 212 222 6014", "takeaway": "yes"}}, {"type": "node", "id": 1810737606, "lat": 40.7939921, "lon": -73.9706754, "tags": {"addr:city": "New York", "addr:country": "US", "addr:housenumber": "734", "addr:postcode": "10025", "addr:state": "NY", "addr:street": "Amsterdam Avenue", "amenity": "fast_food", "cuisine": "pizza", "name": "Famous Famiglia", "phone": "+1 212 749 1111", "takeaway": "yes"}}, {"type": "node", "id": 1810737612, "lat": 40.7929104, "lon": -73.9726982, "tags": {"amenity": "fast_food", "brand": "Subway", "brand:wikidata": "Q244457", "brand:wikipedia": "en:Subway (restaurant)", "cuisine": "sandwich", "diet:vegan": "no", "diet:vegetarian": "yes", "indoor_seating": "yes", "name": "Subway", "opening_hours": "Mo-We 07:00-01:00; Th-Sa 07:00-02:00; Su 09:00-01:00", "outdoor_seating": "no", "phone": "+1 212 665 6700", "smoking": "no", "takeaway": "yes", "wheelchair": "limited"}}, {"type": "node", "id": 1821015964, "lat": 40.7904793, "lon": -73.9751603, "tags": {"addr:city": "New York", "addr:country": "US", "addr:housenumber": "2425", "addr:postcode": "10024", "addr:state": "NY", "addr:street": "Broadway", "amenity": "fast_food", "fax": "+1 212 877 2295", "name": "Ollie's To Go", "operator": "asian", "phone": "+1 212 877 2298", "takeaway": "yes", "website": "http://www.olliestogo.com/"}}, {"type": "node", "id": 1824995167, "lat": 40.7012502, "lon": -74.0131628, "tags": {"amenity": "fast_food", "name": "American Grill"}}, {"type": "node", "id": 1825848793, "lat": 40.7949337, "lon": -73.9712091, "tags": {"addr:city": "New York", "addr:country": "US", "addr:housenumber": "2568", "addr:postcode": "10025", "addr:state": "NY", "addr:street": "Broadway", "alt_name": "Dunkin' Donuts", "amenity": "fast_food", "brand": "Dunkin'", "brand:wikidata": "Q847743", "brand:wikipedia": "en:Dunkin' Donuts", "cost:coffee": "$1.78", "cuisine": "donut;coffee_shop", "internet_access": "wlan", "name": "Dunkin'", "opening_hours": "24/7", "takeaway": "yes"}}, {"type": "node", "id": 1827781722, "lat": 40.7143362, "lon": -73.9816938, "tags": {"amenity": "fast_food", "cuisine": "pizza", "name": "Alphonso's Trattoria Pizzeria"}}, {"type": "node", "id": 1827793441, "lat": 40.7144836, "lon": -73.9821592, "tags": {"amenity": "fast_food", "cuisine": "chinese", "name": "Wing Hing"}}, {"type": "node", "id": 1827793448, "lat": 40.7145456, "lon": -73.9823483, "tags": {"amenity": "fast_food", "cuisine": "pizza", "name": "A-1 Pizza"}}, {"type": "node", "id": 1829661485, "lat": 40.6807282, "lon": -73.9675584, "tags": {"addr:housenumber": "567", "addr:postcode": "11238", "addr:street": "Vanderbilt Avenue", "amenity": "fast_food", "cuisine": "pizza", "delivery": "yes", "diet:gluten_free": "yes", "name": "Brooklyn Homeslice Pizzeria", "phone": "+1-718-399-9000", "takeaway": "yes", "website": "https://www.brooklynpizzarestaurant.com/"}}, {"type": "node", "id": 1853451182, "lat": 40.7392445, "lon": -74.0031634, "tags": {"amenity": "fast_food", "cuisine": "pizza", "name": "Village Pizza"}}, {"type": "node", "id": 1873171679, "lat": 40.7445, "lon": -73.9871814, "tags": {"addr:city": "New York", "addr:housenumber": "245", "addr:postcode": "10016", "addr:street": "5th Avenue", "amenity": "fast_food", "delivery": "yes", "name": "Cafe 28", "opening_hours": "24/7", "phone": "+1 212-686-7300", "takeaway": "yes"}}, {"type": "node", "id": 1873171685, "lat": 40.7460313, "lon": -73.990724}, {"type": "node", "id": 1873813840, "lat": 40.7595189, "lon": -73.99156, "tags": {"addr:city": "New York", "addr:country": "US", "addr:housenumber": "620", "addr:postcode": "10036", "addr:state": "NY", "addr:street": "9th Avenue", "amenity": "fast_food", "brand": "Chipotle", "brand:wikidata": "Q465751", "brand:wikipedia": "en:Chipotle Mexican Grill", "cuisine": "mexican", "name": "Chipotle", "official_name": "Chipotle Mexican Grill", "opening_hours": "Mo-Su 11:00-22:00", "phone": "+1 212 247 3275", "takeaway": "yes"}}, {"type": "node", "id": 1887413946, "lat": 40.7216894, "lon": -74.0441678, "tags": {"addr:housenumber": "20", "addr:postcode": "07302", "addr:street": "Erie Street", "amenity": "fast_food", "contact:instagram": "toricoicecream", "cuisine": "ice_cream", "delivery:partner": "uber_eats", "name": "Torico Ice Cream", "opening_hours": "Mo-Th, Su 11:00-22:00; Fr, Sa 11:00-23:00", "phone": "+1 201-432-9458", "website": "http://toricoicecream.com/"}}, {"type": "node", "id": 1888172061, "lat": 40.7808586, "lon": -73.9765071, "tags": {"addr:housenumber": "366", "addr:postcode": "10024", "addr:street": "Columbus Avenue", "amenity": "fast_food", "brand": "Shake Shack", "brand:wikidata": "Q1058722", "brand:wikipedia": "en:Shake Shack", "cuisine": "burger", "internet_access": "wlan", "name": "Shake Shack", "takeaway": "yes", "toilets:wheelchair": "no", "website": "https://www.shakeshack.com/location/upper-west-side/", "wheelchair": "yes"}}, {"type": "node", "id": 1899033652, "lat": 40.7581196, "lon": -73.9889244, "tags": {"amenity": "fast_food", "brand": "McDonald's", "brand:wikidata": "Q38076", "brand:wikipedia": "en:McDonald's", "cuisine": "burger", "name": "McDonald's", "takeaway": "yes"}}, {"type": "node", "id": 1899033656, "lat": 40.7584542, "lon": -73.9891712, "tags": {"addr:housenumber": "300", "addr:postcode": "10036", "addr:street": "West 44th Street", "amenity": "fast_food", "brand": "Shake Shack", "brand:wikidata": "Q1058722", "brand:wikipedia": "en:Shake Shack", "cuisine": "burger", "name": "Shake Shack", "opening_hours": "Su-Th 10:30-23:00; Fr-Sa 10:30-23:30", "takeaway": "yes", "website": "https://shakeshack.com/location/theater-district-ny#/"}}, {"type": "node", "id": 1900975367, "lat": 40.7645691, "lon": -73.9804954, "tags": {"addr:housenumber": "162", "addr:postcode": "10019", "addr:street": "West 56th Street", "amenity": "fast_food", "branch": "873 7th Ave", "brand": "Subway", "brand:wikidata": "Q244457", "brand:wikipedia": "en:Subway (restaurant)", "cuisine": "sandwich", "delivery": "yes", "name": "Subway", "opening_hours": "Mo-Fr 07:00-24:00; Sa 08:00-24:00; Su 08:00-23:00", "payment:american_express": "yes", "payment:cash": "yes", "payment:diners_club": "yes", "payment:discover_card": "yes", "payment:jcb": "yes", "payment:mastercard": "yes", "payment:paypal": "yes", "payment:visa": "yes", "phone": "+1 212-315-5488", "ref": "27974", "takeaway": "yes", "website": "https://order.subway.com/Stores/Find.aspx#27974", "wheelchair": "yes"}}, {"type": "node", "id": 1906721425, "lat": 40.7682759, "lon": -73.9856866, "tags": {"addr:city": "New York", "addr:housenumber": "885", "addr:postcode": "10019", "addr:state": "NY", "addr:street": "9th Avenue", "air_conditioning": "yes", "amenity": "fast_food", "capacity": "4", "cuisine": "mexican", "diet:vegan": "yes", "diet:vegetarian": "yes", "drive_through": "no", "internet_access": "no", "level": "0", "name": "Burrito Box", "opening_hours": "Mo-Sa 11:00-22:00; Su 12:00-22:00", "outdoor_seating": "yes", "payment:american_express": "yes", "payment:cash": "yes", "payment:credit_cards": "yes", "payment:discover_card": "yes", "payment:mastercard": "yes", "payment:visa": "yes", "phone": "+1-212-489-6889", "smoking": "no", "takeaway": "only", "website": "https://elburritobox.com", "wheelchair": "yes"}}, {"type": "node", "id": 1919602945, "lat": 40.7232599, "lon": -73.9914325, "tags": {"addr:housenumber": "229", "addr:postcode": "10002", "addr:street": "Chrystie Street", "amenity": "fast_food", "brand": "Subway", "brand:wikidata": "Q244457", "brand:wikipedia": "en:Subway (restaurant)", "cuisine": "sandwich", "name": "Subway", "takeaway": "yes", "website": "www.subway.com"}}, {"type": "node", "id": 1934501367, "lat": 40.7152683, "lon": -74.0148288, "tags": {"addr:city": "New York", "addr:housenumber": "215", "addr:postcode": "10282", "addr:state": "NY", "addr:street": "Murray Street", "amenity": "fast_food", "brand": "Shake Shack", "brand:wikidata": "Q1058722", "brand:wikipedia": "en:Shake Shack", "cuisine": "burger", "delivery": "no", "drive_through": "no", "name": "Shake Shack", "opening_hours": "11:00-23:00", "phone": "+1 646 545 4600", "smoking": "no", "takeaway": "yes", "website": "https://www.shakeshack.com/location/battery-park-city", "wheelchair": "yes"}}, {"type": "node", "id": 1934522990, "lat": 40.7149834, "lon": -74.011137, "tags": {"alt_name": "Chipotle Mexican Grill", "amenity": "fast_food", "brand": "Chipotle", "brand:wikidata": "Q465751", "brand:wikipedia": "en:Chipotle Mexican Grill", "contact:website": "https://chipotle.com/", "cuisine": "mexican", "diet:vegan": "yes", "diet:vegetarian": "yes", "name": "Chipotle", "official_name": "Chipotle Mexican Grill", "takeaway": "yes"}}, {"type": "node", "id": 1949918907, "lat": 40.8495745, "lon": -73.9707647, "tags": {"amenity": "fast_food", "brand": "Boston Market", "brand:wikidata": "Q603617", "brand:wikipedia": "en:Boston Market", "cuisine": "american;chicken", "name": "Boston Market", "source": "local knowledge", "takeaway": "yes"}}, {"type": "node", "id": 1951862241, "lat": 40.8559524, "lon": -73.966772}, {"type": "node", "id": 1951862242, "lat": 40.855827, "lon": -73.9664257}, {"type": "node", "id": 1951862245, "lat": 40.855736, "lon": -73.9664832}, {"type": "node", "id": 1951862254, "lat": 40.8558614, "lon": -73.9668296}, {"type": "node", "id": 1953078671, "lat": 40.8091315, "lon": -74.0018022, "tags": {"amenity": "fast_food", "brand": "Burger King", "brand:wikidata": "Q177054", "brand:wikipedia": "en:Burger King", "cuisine": "burger", "name": "Burger King", "source": "local knowledge"}}, {"type": "node", "id": 1953078672, "lat": 40.8087234, "lon": -74.0024379, "tags": {"amenity": "fast_food", "brand": "Dunkin' Donuts", "brand:wikidata": "Q847743", "brand:wikipedia": "en:Dunkin' Donuts", "cuisine": "donut", "name": "Dunkin' Donuts", "source": "local knowledge"}}, {"type": "node", "id": 1994680555, "lat": 40.8045376, "lon": -73.9668292, "tags": {"addr:city": "New York", "addr:country": "US", "addr:housenumber": "2843", "addr:postcode": "10025", "addr:state": "NY", "addr:street": "Broadway", "amenity": "fast_food", "brand": "Chipotle", "brand:wikidata": "Q465751", "brand:wikipedia": "en:Chipotle Mexican Grill", "cuisine": "mexican", "name": "Chipotle", "official_name": "Chipotle Mexican Grill", "opening_hours": "Mo-Su 11:00-22:00", "takeaway": "yes"}}, {"type": "node", "id": 1994680558, "lat": 40.8048378, "lon": -73.9665667, "tags": {"addr:city": "New York", "addr:country": "US", "addr:housenumber": "2859", "addr:postcode": "10025", "addr:state": "NY", "addr:street": "Broadway", "amenity": "fast_food", "cuisine": "pizza", "drive_through": "no", "name": "Famous Famiglia", "phone": "+19143284444", "website": "https://famousfamiglia.com/"}}, {"type": "node", "id": 2017643697, "lat": 40.717408, "lon": -73.9580055, "tags": {"amenity": "fast_food", "cuisine": "pizza", "name": "Anna Maria"}}, {"type": "node", "id": 2017697238, "lat": 40.7347219, "lon": -73.8731859, "tags": {"amenity": "fast_food", "brand": "White Castle", "brand:wikidata": "Q1244034", "brand:wikipedia": "en:White Castle (restaurant)", "cuisine": "burger", "name": "White Castle", "opening_hours": "Mo-Su 07:00-05:00", "takeaway": "yes"}}, {"type": "node", "id": 2018701207, "lat": 40.633655, "lon": -74.027066, "tags": {"amenity": "fast_food", "brand": "McDonald's", "brand:wikidata": "Q38076", "brand:wikipedia": "en:McDonald's", "cuisine": "burger", "drive_through": "no", "name": "McDonald's", "takeaway": "yes"}}, {"type": "node", "id": 2034010965, "lat": 40.7042039, "lon": -74.0130189, "tags": {"amenity": "fast_food", "brand": "Chipotle", "brand:wikidata": "Q465751", "brand:wikipedia": "en:Chipotle Mexican Grill", "cuisine": "mexican", "name": "Chipotle", "official_name": "Chipotle Mexican Grill", "opening_hours": "Fr-We 11:00-22:00", "takeaway": "yes", "wheelchair": "yes"}}, {"type": "node", "id": 2045635524, "lat": 40.7401504, "lon": -73.984507, "tags": {"addr:housenumber": "38B", "addr:street": "Lexington Avenue", "amenity": "fast_food", "cuisine": "chinese", "name": "DiDi Dumpling", "phone": "+1-212-466-6618", "takeaway": "yes", "website": "http://dididumpling.eatintakeout.net"}}, {"type": "node", "id": 2045635528, "lat": 40.7431278, "lon": -73.9839473, "tags": {"amenity": "fast_food", "brand": "McDonald's", "brand:wikidata": "Q38076", "brand:wikipedia": "en:McDonald's", "cuisine": "burger", "internet_access": "wlan", "internet_access:fee": "no", "name": "McDonald's", "name:fa": "\u0645\u06a9\u200c\u062f\u0648\u0646\u0627\u0644\u062f", "takeaway": "yes", "website": "http://www.mcnewyork.com/14971"}}, {"type": "node", "id": 2047267695, "lat": 40.781646, "lon": -73.9791676, "tags": {"addr:city": "New York", "addr:country": "US", "addr:housenumber": "355", "addr:postcode": "10024", "addr:state": "NY", "addr:street": "Amsterdam Avenue", "amenity": "fast_food", "cuisine": "chicken", "email": "chirpingchicken77@gmail.com", "microbrewery": "no", "name": "Chirping Chicken", "opening_hours": "Mo-Su 10:00-02:00", "website": "http://www.chirpingchickennyc.com/"}}, {"type": "node", "id": 2053822687, "lat": 40.793131, "lon": -73.9725595, "tags": {"addr:city": "New York", "addr:housenumber": "2518", "addr:postcode": "10025", "addr:street": "Broadway", "amenity": "fast_food", "cuisine": "sandwich;pizza", "name": "94 Corner Cafe", "phone": "+1 212-280-1900"}}, {"type": "node", "id": 2065155710, "lat": 40.743549, "lon": -73.926869, "tags": {"amenity": "fast_food", "brand": "McDonald's", "brand:wikidata": "Q38076", "brand:wikipedia": "en:McDonald's", "cuisine": "burger", "delivery": "no", "drive_through": "yes", "name": "McDonald's", "opening_hours": "24/7", "takeaway": "yes", "wheelchair": "limited"}}, {"type": "node", "id": 2065782753, "lat": 40.760926, "lon": -73.922786, "tags": {"addr:city": "Astoria", "addr:street": "34th Street", "alt_name": "Dunkin' Donuts", "amenity": "fast_food", "brand": "Dunkin'", "brand:wikidata": "Q847743", "brand:wikipedia": "en:Dunkin' Donuts", "cuisine": "donut;coffee_shop", "drive_through": "no", "name": "Dunkin'", "outdoor_seating": "no", "smoking": "outside", "takeaway": "yes", "wheelchair": "yes"}}, {"type": "node", "id": 2067404600, "lat": 40.760611, "lon": -73.9261864, "tags": {"amenity": "fast_food", "brand": "McDonald's", "brand:wikidata": "Q38076", "brand:wikipedia": "en:McDonald's", "cuisine": "burger", "delivery": "no", "drive_through": "yes", "name": "McDonald's", "outdoor_seating": "no", "smoking": "no", "takeaway": "yes", "toilets:wheelchair": "yes", "wheelchair": "yes"}}, {"type": "node", "id": 2091642031, "lat": 40.8011432, "lon": -73.958078, "tags": {"amenity": "fast_food", "brand": "Subway", "brand:wikidata": "Q244457", "brand:wikipedia": "en:Subway (restaurant)", "cuisine": "sandwich", "name": "Subway", "opening_hours": "Mo-Su 07:00-23:00", "takeaway": "yes"}}, {"type": "node", "id": 2105123206, "lat": 40.6799571, "lon": -73.9438515, "tags": {"amenity": "fast_food", "brand": "Popeyes", "brand:wikidata": "Q1330910", "brand:wikipedia": "en:Popeyes", "cuisine": "chicken", "name": "Popeyes", "official_name": "Popeyes Louisiana Kitchen", "source": "local_knowledge;streetlevel imagery", "takeaway": "yes"}}, {"type": "node", "id": 2108080657, "lat": 40.7989601, "lon": -73.9670572, "tags": {"addr:city": "New York", "addr:country": "US", "addr:housenumber": "892", "addr:postcode": "10025", "addr:state": "NY", "addr:street": "Amsterdam Avenue", "alt_name": "Dunkin' Donuts", "amenity": "fast_food", "brand": "Dunkin'", "brand:wikidata": "Q847743", "brand:wikipedia": "en:Dunkin' Donuts", "cuisine": "donut;coffee_shop", "name": "Dunkin'", "opening_hours": "Tu-Sa 12:00-21:00", "phone": "212 665-5045", "shop": "confectionery", "smoking": "no", "takeaway": "yes", "website": "http://bustersnyc.com"}}, {"type": "node", "id": 2111692823, "lat": 40.7922609, "lon": -73.9713892, "tags": {"addr:city": "New York", "addr:country": "US", "addr:housenumber": "687b", "addr:postcode": "10025", "addr:state": "NY", "addr:street": "Amsterdam Avenue", "alt_name": "Dunkin' Donuts", "amenity": "fast_food", "brand": "Dunkin'", "brand:wikidata": "Q847743", "brand:wikipedia": "en:Dunkin' Donuts", "cuisine": "donut;coffee_shop", "diet:kosher": "yes", "internet_access": "wlan", "name": "Dunkin'", "opening_hours": "Mo-Su 06:00-22:00", "takeaway": "yes"}}, {"type": "node", "id": 2113999261, "lat": 40.7426147, "lon": -73.9925851, "tags": {"amenity": "fast_food", "name": "Terri"}}, {"type": "node", "id": 2125873487, "lat": 40.7930739, "lon": -73.9713427, "tags": {"addr:city": "New York", "addr:country": "US", "addr:housenumber": "708", "addr:postcode": "10025", "addr:state": "NY", "addr:street": "Amsterdam Avenue", "amenity": "fast_food", "cuisine": "chinese", "name": "New Kam Lai", "takeaway": "yes", "website": "http://www.newkamlai.com/"}}, {"type": "node", "id": 2129919007, "lat": 40.7874378, "lon": -73.9749274, "tags": {"addr:city": "New York", "addr:country": "US", "addr:housenumber": "535", "addr:postcode": "10024", "addr:state": "NY", "addr:street": "Amsterdam Avenue", "alt_name": "Dunkin' Donuts", "amenity": "fast_food", "brand": "Dunkin'", "brand:wikidata": "Q847743", "brand:wikipedia": "en:Dunkin' Donuts", "cuisine": "donut;coffee_shop", "diet:kosher": "yes", "internet_access": "wlan", "name": "Dunkin'", "opening_hours": "Mo-Su 06:00-21:00", "takeaway": "yes"}}, {"type": "node", "id": 2143413375, "lat": 40.7788858, "lon": -73.9812119, "tags": {"addr:city": "New York", "addr:country": "US", "addr:housenumber": "269", "addr:postcode": "10023", "addr:state": "NY", "addr:street": "Amsterdam Avenue", "amenity": "fast_food", "brand": "Chipotle", "brand:wikidata": "Q465751", "brand:wikipedia": "en:Chipotle Mexican Grill", "cuisine": "mexican", "drive_through": "no", "name": "Chipotle", "official_name": "Chipotle Mexican Grill", "opening_hours": "Mo-Su 11:00-22:00", "smoking": "no", "takeaway": "yes"}}, {"type": "node", "id": 2143413378, "lat": 40.7783771, "lon": -73.9815748, "tags": {"addr:city": "New York", "addr:country": "US", "addr:housenumber": "2090", "addr:postcode": "10023", "addr:state": "NY", "addr:street": "Broadway", "amenity": "fast_food", "cuisine": "sausage", "drive_through": "no", "name": "Gray's Papaya", "opening_hours": "24/7", "smoking": "no"}}, {"type": "node", "id": 2176936529, "lat": 40.7562749, "lon": -73.9799814, "tags": {"addr:city": "New York", "addr:country": "US", "addr:housenumber": "10", "addr:postcode": "10036", "addr:state": "NY", "addr:street": "West 46th Street", "amenity": "fast_food", "diet:kosher": "yes", "name": "Kosher Deluxe", "toilets:wheelchair": "no", "website": "www.kosherdeluxe.com", "wheelchair": "yes"}}, {"type": "node", "id": 2183010453, "lat": 40.7041371, "lon": -74.0105616, "tags": {"amenity": "fast_food", "cuisine": "burger", "fax": "+1-212-825-0863", "name": "77 Burger", "opening_hours": "Mo-Fr 11:00-22:00; Sa 12:00-22:00; Su 12:00-21:00", "phone": "+1-212-825-0354"}}, {"type": "node", "id": 2183010456, "lat": 40.704162, "lon": -74.0117227, "tags": {"addr:city": "New York", "addr:housenumber": "80", "addr:postcode": "10004", "addr:state": "NY", "addr:street": "Broad Street", "alt_name": "Dig Inn", "amenity": "fast_food", "brand": "Dig", "brand:wikidata": "Q28226241", "brand:wikipedia": "en:Dig (restaurant)", "cuisine": "regional", "name": "Dig", "opening_hours": "Mo-Fr 11:00-16:00", "phone": "+1-212-776-4052", "takeaway": "yes", "website": "https://www.diginn.com/", "wheelchair": "yes"}}, {"type": "node", "id": 2183010457, "lat": 40.7053966, "lon": -74.011298, "tags": {"amenity": "fast_food", "brand": "Cos\u00ec", "brand:wikidata": "Q5175243", "brand:wikipedia": "en:Cos\u00ec (restaurant)", "cuisine": "sandwich", "name": "Cos\u00ec", "takeaway": "yes", "website": "http://getcosi.com/broadstreet/", "wheelchair": "yes"}}, {"type": "node", "id": 2183010464, "lat": 40.7040673, "lon": -74.01052, "tags": {"amenity": "fast_food", "cuisine": "chinese", "delivery": "yes", "name": "Golden Chopsticks", "opening_hours": "Mo-Fr 11:00-19:00; Sa 11:00-1630", "phone": "+1-212-825-0314", "takeaway": "only", "wheelchair": "limited"}}, {"type": "node", "id": 2183010470, "lat": 40.7068901, "lon": -74.0071699, "tags": {"amenity": "fast_food", "brand": "Just Salad", "brand:wikidata": "Q23091823", "brand:wikipedia": "en:Just Salad", "cuisine": "salad", "name": "Just Salad", "takeaway": "yes", "wheelchair": "yes"}}, {"type": "node", "id": 2183010481, "lat": 40.7038875, "lon": -74.0117645, "tags": {"amenity": "fast_food", "brand": "Potbelly", "brand:wikidata": "Q7234777", "brand:wikipedia": "en:Potbelly Sandwich Shop", "cuisine": "sandwich", "name": "Potbelly", "official_name": "Potbelly Sandwich Works", "takeaway": "yes", "wheelchair": "yes"}}, {"type": "node", "id": 2183010482, "lat": 40.707064, "lon": -74.006986, "tags": {"amenity": "fast_food", "brand": "Potbelly", "brand:wikidata": "Q7234777", "brand:wikipedia": "en:Potbelly Sandwich Shop", "cuisine": "sandwich", "name": "Potbelly", "official_name": "Potbelly Sandwich Works", "takeaway": "yes", "wheelchair": "yes"}}, {"type": "node", "id": 2183010483, "lat": 40.7054601, "lon": -74.011721, "tags": {"addr:housenumber": "60", "addr:street": "Broad Street", "amenity": "fast_food", "brand": "Pret A Manger", "brand:wikidata": "Q2109109", "brand:wikipedia": "en:Pret a Manger", "cuisine": "sandwich", "name": "Pret A Manger", "short_name": "Pret", "takeaway": "yes", "wheelchair": "yes"}}, {"type": "node", "id": 2183010484, "lat": 40.7039938, "lon": -74.0104728, "tags": {"amenity": "fast_food", "name": "Ruben's Empanadas", "wheelchair": "no"}}, {"type": "node", "id": 2183010490, "lat": 40.7041023, "lon": -74.0105398, "tags": {"amenity": "fast_food", "cuisine": "seafood", "fax": "+1-212-809-0540", "name": "Terrace Fish & Chip", "opening_hours": "Mo-Fr 11:00-21:00; Sa 12:00-20:00", "phone": "+1-212-809-4604"}}, {"type": "node", "id": 2183010491, "lat": 40.7075612, "lon": -74.0075651, "tags": {"addr:housenumber": "83", "addr:postcode": "10038", "addr:street": "Maiden Lane", "amenity": "fast_food", "cuisine": "pizza", "delivery": "yes", "indoor_seating": "yes", "level": "0", "name": "Too Good Pizza", "opening_hours": "Mo-Sa 10:00-22:00", "outdoor_seating": "yes", "phone": "+1 212-547-8704", "takeaway": "yes", "website": "https://www.toogoodpizzamenu.com", "wheelchair": "yes"}}, {"type": "node", "id": 2183891969, "lat": 40.7050665, "lon": -74.0098062, "tags": {"addr:housenumber": "3", "addr:postcode": "10004", "addr:street": "Hanover Square", "amenity": "fast_food", "name": "Hanover Gourmet Deli", "shop": "convenience", "wheelchair": "yes"}}, {"type": "node", "id": 2183891974, "lat": 40.7057203, "lon": -74.0084586, "tags": {"addr:housenumber": "69A", "addr:postcode": "10005", "addr:street": "Wall Street", "amenity": "fast_food", "check_date": "2023-02-23", "cuisine": "american;asian", "name": "Proper Food", "opening_hours": "Mo-Th 08:00-14:30; Fr 08:00-14:00", "phone": "+1-212-280-1746", "website": "https://properfood.com"}}, {"type": "node", "id": 2186522366, "lat": 40.706856, "lon": -74.0086819, "tags": {"alt_name": "Dunkin' Donuts", "amenity": "fast_food", "brand": "Dunkin'", "brand:wikidata": "Q847743", "brand:wikipedia": "en:Dunkin' Donuts", "cuisine": "donut;coffee_shop", "indoor_seating": "yes", "name": "Dunkin'", "outdoor_seating": "no", "takeaway": "yes"}}, {"type": "node", "id": 2186614186, "lat": 40.7049092, "lon": -74.0097089, "tags": {"addr:housenumber": "3", "addr:postcode": "10004", "addr:street": "Hanover Square", "amenity": "fast_food", "name": "Leo's Bagels", "opening_hours": "Mo-Fr 06:00-17:00; Sa-Su 07:00-17:00", "phone": "+1-212-785-4700", "website": "https://leosbagels.com", "wheelchair": "yes"}}, {"type": "node", "id": 2186614192, "lat": 40.7049559, "lon": -74.0097378, "tags": {"addr:housenumber": "2A", "addr:postcode": "10005", "addr:street": "William Street", "amenity": "fast_food", "cuisine": "pizza", "fax": "+1-212-785-3436", "name": "Underground Pizza", "opening_hours": "Mo-Fr 08:00-21:00; Sa 10:00-20:00", "phone": "+1-212-425-4442", "website": "http://www.undergroundpizza.com", "wheelchair": "yes"}}, {"type": "node", "id": 2259025212, "lat": 40.6858116, "lon": -73.9158219}, {"type": "node", "id": 2262145185, "lat": 40.7372903, "lon": -73.990456, "tags": {"addr:city": "New York", "addr:country": "US", "addr:housenumber": "857", "addr:postcode": "10003", "addr:state": "NY", "addr:street": "Broadway", "addr:suburb": "Manhattan", "amenity": "fast_food", "brand": "Pret A Manger", "brand:wikidata": "Q2109109", "brand:wikipedia": "en:Pret a Manger", "cuisine": "sandwich", "delivery": "no", "internet_access": "yes", "internet_access:fee": "no", "name": "Pret A Manger", "opening_hours": "Mo-Sa 06:00-23:00; Su 07:00-22:00", "opening_hours:signed": "no", "operator": "Pret A Manger (USA) Ltd", "phone": "646 843 9650", "short_name": "Pret", "takeaway": "yes", "website": "https://www.pret.com/en-us/find-a-pret/857%20broadway", "wheelchair": "yes"}}, {"type": "node", "id": 2274517591, "lat": 40.7092006, "lon": -73.8301264, "tags": {"addr:city": "Kew Gardens", "addr:country": "US", "addr:housenumber": "80-60", "addr:postcode": "11415", "addr:state": "NY", "addr:street": "Lefferts Boulevard", "amenity": "fast_food", "cuisine": "burger", "name": "Flip Side", "website": "www.flipsideny.com"}}, {"type": "node", "id": 2274517664, "lat": 40.7091376, "lon": -73.8302632, "tags": {"amenity": "fast_food", "cuisine": "chinese"}}, {"type": "node", "id": 2275557558, "lat": 40.7367051, "lon": -73.9551788, "tags": {"amenity": "fast_food", "cuisine": "mexican", "name": "Acapulco"}}, {"type": "node", "id": 2275835633, "lat": 40.7594955, "lon": -73.9183791, "tags": {"amenity": "fast_food", "brand": "McDonald's", "brand:wikidata": "Q38076", "brand:wikipedia": "en:McDonald's", "cuisine": "burger", "name": "McDonald's", "takeaway": "yes", "toilets:wheelchair": "yes", "wheelchair": "yes"}}, {"type": "node", "id": 2276306875, "lat": 40.764369, "lon": -73.8852736, "tags": {"addr:city": "East Elmhurst", "addr:housename": "83-10 Astoria Blvd", "addr:postcode": "11370", "addr:state": "NY", "amenity": "fast_food", "brand": "Popeyes", "brand:wikidata": "Q1330910", "brand:wikipedia": "en:Popeyes", "cuisine": "chicken", "name": "Popeyes", "official_name": "Popeyes Louisiana Kitchen", "takeaway": "yes"}}, {"type": "node", "id": 2276306876, "lat": 40.7644677, "lon": -73.885865, "tags": {"alt_name": "Dunkin' Donuts", "amenity": "fast_food", "brand": "Dunkin'", "brand:wikidata": "Q847743", "brand:wikipedia": "en:Dunkin' Donuts", "cuisine": "donut;coffee_shop", "name": "Dunkin'", "takeaway": "yes"}}, {"type": "node", "id": 2276383000, "lat": 40.7947981, "lon": -73.9638838, "tags": {"amenity": "fast_food", "cuisine": "chinese", "name": "New Zhong Hua", "takeaway": "yes"}}, {"type": "node", "id": 2279513027, "lat": 40.7321799, "lon": -73.9815945, "tags": {"addr:city": "New York", "addr:housenumber": "266", "addr:postcode": "10003", "addr:state": "NY", "addr:street": "1st Avenue", "alt_name": "Dunkin' Donuts", "amenity": "fast_food", "brand": "Dunkin'", "brand:wikidata": "Q847743", "brand:wikipedia": "en:Dunkin' Donuts", "cuisine": "donut;coffee_shop", "drink:coffee": "yes", "drink:espresso": "yes", "name": "Dunkin'", "opening_hours": "Mo-Sa 05:00-23:00; Su 06:00-19:00", "takeaway": "yes"}}, {"type": "node", "id": 2279528512, "lat": 40.7322905, "lon": -73.9852467, "tags": {"addr:city": "New York", "addr:housenumber": "242", "addr:postcode": "10003", "addr:state": "NY", "addr:street": "East 14th Street", "alt_name": "Kentucky Fried Chicken", "amenity": "fast_food", "brand": "KFC", "brand:wikidata": "Q524757", "brand:wikipedia": "en:KFC", "cuisine": "chicken", "name": "KFC", "opening_hours": "Su-We 10:30-01:00; Th 10:30-02:00; Fr-Sa 10:30-03:00", "phone": "+1-212-533-7299", "takeaway": "yes", "website": "https://locations.kfc.com/ny/new-york/242-e-14th-st"}}, {"type": "node", "id": 2285673939, "lat": 40.7521845, "lon": -73.9344239, "tags": {"amenity": "fast_food", "cuisine": "pizza", "name": "Mike\u00b4s Pizza"}}, {"type": "node", "id": 2289643290, "lat": 40.7528636, "lon": -73.9330145, "tags": {"amenity": "fast_food", "name": "Zante Deli"}}, {"type": "node", "id": 2297761510, "lat": 40.7896106, "lon": -73.9738861, "tags": {"amenity": "fast_food", "brand": "Subway", "brand:wikidata": "Q244457", "brand:wikipedia": "en:Subway (restaurant)", "cuisine": "sandwich", "name": "Subway", "operator": "Subway", "takeaway": "yes"}}, {"type": "node", "id": 2300348736, "lat": 40.7398067, "lon": -73.9850517, "tags": {"alt_name": "Dunkin' Donuts", "amenity": "fast_food", "brand": "Dunkin'", "brand:wikidata": "Q847743", "brand:wikipedia": "en:Dunkin' Donuts", "cuisine": "donut;coffee_shop", "name": "Dunkin'", "opening_hours": "Mo-Fr 06:00-21:00; Sa-Su 06:00-20:00", "takeaway": "yes"}}, {"type": "node", "id": 2300348737, "lat": 40.7398144, "lon": -73.9850793, "tags": {"amenity": "fast_food", "cuisine": "pizza", "name": "Frank's Pizza"}}, {"type": "node", "id": 2302043669, "lat": 40.8748079, "lon": -73.9097826, "tags": {"addr:city": "Bronx", "addr:country": "US", "addr:housenumber": "5209", "addr:postcode": "10463", "addr:state": "NY", "addr:street": "Broadway", "amenity": "fast_food", "brand": "Subway", "brand:wikidata": "Q244457", "brand:wikipedia": "en:Subway (restaurant)", "cuisine": "sandwich", "name": "Subway", "opening_hours": "Mo-Fr 09:00-22:00; Sa-Su 10:00-22:00", "takeaway": "yes"}}, {"type": "node", "id": 2307147602, "lat": 40.6894307, "lon": -73.9923099, "tags": {"addr:housenumber": "139", "addr:postcode": "11201", "addr:street": "Court Street", "amenity": "fast_food", "cuisine": "pizza", "delivery": "yes", "diet:gluten_free": "yes", "fax": "+1-718-858-8910", "name": "Pronto Pizza", "opening_hours": "Su-Th 11:00-21:30; Fr-Sa 11:00-22:30", "phone": "+1-718-522-2225", "takeaway": "yes"}}, {"type": "node", "id": 2310485827, "lat": 40.9104447, "lon": -73.8826597, "tags": {"amenity": "fast_food", "brand": "Domino's", "brand:wikidata": "Q839466", "brand:wikipedia": "en:Domino's Pizza", "cuisine": "pizza", "name": "Domino's", "opening_hours": "Su-Th 10:00-24:00; Fr-Sa 10:00-01:00", "takeaway": "yes"}}, {"type": "node", "id": 2312065726, "lat": 40.7918466, "lon": -73.9679169, "tags": {"addr:city": "New York", "addr:country": "US", "addr:housenumber": "70", "addr:postcode": "10025", "addr:state": "NY", "addr:street": "West 95th Street", "amenity": "fast_food", "cuisine": "pizza", "name": "Daniello's", "opening_hours": "Mo-Su 09:00-24:00"}}, {"type": "node", "id": 2312065727, "lat": 40.8046074, "lon": -73.9667781, "tags": {"addr:city": "New York", "addr:country": "US", "addr:housenumber": "2847", "addr:postcode": "10025", "addr:state": "NY", "addr:street": "Broadway", "amenity": "fast_food", "brand": "Five Guys", "brand:wikidata": "Q1131810", "brand:wikipedia": "en:Five Guys", "cuisine": "burger", "name": "Five Guys", "official_name": "Five Guys Burgers and Fries", "opening_hours": "Mo-Su 11:00-23:00", "takeaway": "yes"}}, {"type": "node", "id": 2324950875, "lat": 40.677442, "lon": -73.982757, "tags": {"addr:housenumber": "671", "addr:postcode": "11215", "addr:street": "Union Street", "amenity": "fast_food", "cuisine": "bagel;coffee_shop;breakfast;sandwich", "drink:coffee": "yes", "drink:espresso": "yes", "name": "Brownstone Bread & Bagel Company", "opening_hours": "Mo-Fr 07:00-15:00; Sa-Su 08:00-15:00", "phone": "+1-718-622-6030", "takeaway": "yes"}}, {"type": "node", "id": 2339282739, "lat": 40.7094727, "lon": -74.1005148}, {"type": "node", "id": 2339282745, "lat": 40.7094864, "lon": -74.1005197}, {"type": "node", "id": 2339282749, "lat": 40.7094937, "lon": -74.1004121}, {"type": "node", "id": 2339282759, "lat": 40.7095057, "lon": -74.1004164}, {"type": "node", "id": 2339282770, "lat": 40.7095167, "lon": -74.1003627}, {"type": "node", "id": 2339282800, "lat": 40.7095612, "lon": -74.1006528}, {"type": "node", "id": 2339282813, "lat": 40.7095923, "lon": -74.1005007}, {"type": "node", "id": 2339282815, "lat": 40.7095986, "lon": -74.1004766}, {"type": "node", "id": 2339282818, "lat": 40.7096065, "lon": -74.1005057}, {"type": "node", "id": 2339282823, "lat": 40.7096115, "lon": -74.1004811}, {"type": "node", "id": 2339282829, "lat": 40.7096148, "lon": -74.1003977}, {"type": "node", "id": 2348610312, "lat": 40.8654567, "lon": -73.9269346, "tags": {"amenity": "fast_food", "cuisine": "mexican", "name": "El Buffet Restaurant", "opening_hours": "24/7"}}, {"type": "node", "id": 2348610315, "lat": 40.8651691, "lon": -73.9275289, "tags": {"addr:city": "New York", "addr:country": "US", "addr:housenumber": "208", "addr:postcode": "10034", "addr:state": "NY", "addr:street": "Dyckman Street", "amenity": "fast_food", "brand": "McDonald's", "brand:wikidata": "Q38076", "brand:wikipedia": "en:McDonald's", "cuisine": "burger", "internet_access": "wlan", "internet_access:fee": "no", "name": "McDonald's", "opening_hours": "24/7", "takeaway": "yes", "website": "http://www.mcnewyork.com/7762"}}, {"type": "node", "id": 2351576867, "lat": 40.7525017, "lon": -73.9946509, "tags": {"addr:housenumber": "315", "addr:postcode": "10036", "addr:street": "West 24th Street", "air_conditioning": "yes", "amenity": "fast_food", "brand": "Five Guys", "brand:wikidata": "Q1131810", "brand:wikipedia": "en:Five Guys", "capacity": "20", "check_date": "2022-09-05", "cuisine": "burger", "delivery": "yes", "drive_through": "no", "level": "0", "name": "Five Guys", "official_name": "Five Guys Burgers and Fries", "opening_hours": "Mo-Su 11:00-22:00", "payment:american_express": "yes", "payment:cash": "yes", "payment:discover_card": "yes", "payment:mastercard": "yes", "payment:visa": "yes", "phone": "+1 212-564-6115", "takeaway": "yes", "website": "https://order.fiveguys.com/menu/nyc-34th-st", "wheelchair": "limited"}}, {"type": "node", "id": 2357685322, "lat": 40.6736142, "lon": -73.9992579}, {"type": "node", "id": 2358048513, "lat": 40.7376843, "lon": -74.0000617, "tags": {"amenity": "fast_food", "brand": "Subway", "brand:wikidata": "Q244457", "brand:wikipedia": "en:Subway (restaurant)", "cuisine": "sandwich", "name": "Subway", "opening_hours": "Mo-Fr 07:15-23:45; Sa 08:15-23:45; Su 09:00-22:00", "takeaway": "yes"}}, {"type": "node", "id": 2366519599, "lat": 40.7474289, "lon": -74.0040709, "tags": {"addr:city": "New York", "addr:country": "US", "addr:housenumber": "470", "addr:postcode": "10011", "addr:state": "NY", "addr:street": "West 23rd Street", "amenity": "fast_food", "contact:instagram": "http://instagram.com/newyorkburgerco", "contact:twitter": "https://twitter.com/NewYorkBurgerCo", "cuisine": "burger", "delivery": "yes", "drink:beer": "yes", "drink:wine": "yes", "name": "New York Burger Co", "opening_hours": "Mo-Sa 11:00-23:00; Su 11:00-22:00", "phone": "+1 212-255-0400", "takeaway": "yes", "website": "https://www.newyorkburgerco.com"}}, {"type": "node", "id": 2372930707, "lat": 40.7552873, "lon": -73.9946765, "tags": {"alt_name": "Dunkin' Donuts", "amenity": "fast_food", "brand": "Dunkin'", "brand:wikidata": "Q847743", "brand:wikipedia": "en:Dunkin' Donuts", "cuisine": "donut;coffee_shop", "name": "Dunkin'", "takeaway": "yes"}}, {"type": "node", "id": 2377128140, "lat": 40.7431771, "lon": -73.9997533, "tags": {"addr:city": "New York", "addr:country": "US", "addr:housenumber": "194", "addr:postcode": "10011", "addr:state": "NY", "addr:street": "8th Avenue", "amenity": "fast_food", "level": "0", "name": "Jeannie's Deli", "outdoor_seating": "yes", "shop": "convenience", "wheelchair": "yes"}}, {"type": "node", "id": 2377128142, "lat": 40.7420072, "lon": -74.001146, "tags": {"addr:city": "New York", "addr:country": "US", "addr:housenumber": "149", "addr:postcode": "10011", "addr:state": "NY", "addr:street": "8th Avenue", "amenity": "fast_food", "brand": "Chipotle", "brand:wikidata": "Q465751", "brand:wikipedia": "en:Chipotle Mexican Grill", "cuisine": "mexican", "level": "0", "name": "Chipotle", "official_name": "Chipotle Mexican Grill", "opening_hours": "Su-Fr 10:45-22:00; Sa 10:45-15:00", "phone": "+1-212-620-4015", "takeaway": "yes", "website": "https://locations.chipotle.com/ny/new-york/149-8th-ave", "wheelchair": "yes"}}, {"type": "node", "id": 2377128153, "lat": 40.7439086, "lon": -73.9997496, "tags": {"addr:city": "New York", "addr:country": "US", "addr:housenumber": "209", "addr:postcode": "10011", "addr:state": "NY", "addr:street": "8th Avenue", "amenity": "fast_food", "cuisine": "chinese", "level": "0", "name": "Golden Wok", "phone": "+1-212-620-0712", "takeaway": "yes", "website": "http://www.chelseagoldenwok.com"}}, {"type": "node", "id": 2377128167, "lat": 40.7439385, "lon": -73.9997311, "tags": {"addr:city": "New York", "addr:country": "US", "addr:housenumber": "211", "addr:postcode": "10011", "addr:state": "NY", "addr:street": "8th Avenue", "amenity": "fast_food", "cuisine": "pizza", "delivery": "yes", "level": "0", "name": "Joe's Pizza", "opening_hours": "Tu-Fr 10:00-22:00", "phone": "+1-212-243-3226", "takeaway": "yes", "website": "https://www.joespizzaon8th.com"}}, {"type": "node", "id": 2377128170, "lat": 40.7475198, "lon": -73.9971461, "tags": {"addr:city": "New York", "addr:country": "US", "addr:housenumber": "335", "addr:postcode": "10001", "addr:state": "NY", "addr:street": "8th Avenue", "amenity": "fast_food", "brand": "McDonald's", "brand:wikidata": "Q38076", "brand:wikipedia": "en:McDonald's", "cuisine": "burger", "name": "McDonald's", "takeaway": "yes", "website": "http://www.mcnewyork.com/3653"}}, {"type": "node", "id": 2377128174, "lat": 40.7450158, "lon": -73.9984148, "tags": {"addr:city": "New York", "addr:country": "US", "addr:housenumber": "252", "addr:postcode": "10011", "addr:state": "NY", "addr:street": "8th Avenue", "amenity": "fast_food", "brand": "Popeyes", "brand:wikidata": "Q1330910", "brand:wikipedia": "en:Popeyes", "cuisine": "chicken", "delivery": "yes", "name": "Popeyes", "official_name": "Popeyes Louisiana Kitchen", "opening_hours": "Mo-Fr 11:00-20:00; Sa 11:00-19:00; Su 12:00-20:00", "phone": "+1-917-388-2023", "takeaway": "yes", "website": "https://www.popeyes.com/store-locator/store/restaurant_85434"}}, {"type": "node", "id": 2377128183, "lat": 40.7462136, "lon": -73.9975429, "tags": {"addr:city": "New York", "addr:country": "US", "addr:housenumber": "288", "addr:postcode": "10001", "addr:state": "NY", "addr:street": "8th Avenue", "amenity": "fast_food", "brand": "Subway", "brand:wikidata": "Q244457", "brand:wikipedia": "en:Subway (restaurant)", "cuisine": "sandwich", "name": "Subway", "opening_hours": "Mo-Fr 09:00-22:00; Sa-Su 09:00-21:00", "takeaway": "yes"}}, {"type": "node", "id": 2377128187, "lat": 40.7447092, "lon": -73.9985713, "tags": {"addr:city": "New York", "addr:country": "US", "addr:housenumber": "240", "addr:postcode": "10011", "addr:state": "NY", "addr:street": "8th Avenue", "amenity": "fast_food", "cuisine": "thai", "delivery": "yes", "level": "0", "name": "Royal Siam Thai", "takeaway": "yes", "website": "https://www.newyorkroyalsiam.com/"}}, {"type": "node", "id": 2384399626, "lat": 40.6076941, "lon": -74.1627482}, {"type": "node", "id": 2384892234, "lat": 40.7883033, "lon": -73.9711194, "tags": {"addr:city": "New York", "addr:country": "US", "addr:housenumber": "592", "addr:postcode": "10024", "addr:state": "NY", "addr:street": "Columbus Avenue", "amenity": "fast_food", "brand": "Domino's", "brand:wikidata": "Q839466", "brand:wikipedia": "en:Domino's Pizza", "cuisine": "pizza", "name": "Domino's", "opening_hours": "Mo-Su 10:00-02:00", "phone": "+1 212 496-5900", "ref": "3463", "takeaway": "yes", "website": "https://www.dominos.com/"}}, {"type": "node", "id": 2384892235, "lat": 40.7981227, "lon": -73.9696127, "tags": {"addr:city": "New York", "addr:country": "US", "addr:housenumber": "2661", "addr:postcode": "10025", "addr:state": "NY", "addr:street": "Broadway", "alt_name": "Dunkin' Donuts", "amenity": "fast_food", "brand": "Dunkin'", "brand:wikidata": "Q847743", "brand:wikipedia": "en:Dunkin' Donuts", "cuisine": "donut;coffee_shop", "internet_access": "wlan", "name": "Dunkin'", "opening_hours": "Mo-Su 06:00-22:00", "takeaway": "yes"}}, {"type": "node", "id": 2385856486, "lat": 40.5750727, "lon": -73.9780441}, {"type": "node", "id": 2385856497, "lat": 40.5753011, "lon": -73.978219}, {"type": "node", "id": 2407445501, "lat": 40.750135, "lon": -73.995213, "tags": {"addr:city": "New York", "addr:country": "US", "addr:housenumber": "413", "addr:postcode": "10001", "addr:state": "NY", "addr:street": "8th Avenue", "air_conditioning": "yes", "amenity": "fast_food", "capacity": "40", "check_date": "2022-09-05", "cuisine": "pizza", "drive_in": "no", "drive_through": "no", "internet_access": "no", "level": "0", "name": "Pizza Suprema", "outdoor_seating": "no", "payment:american_express": "yes", "payment:credit_cards": "yes", "payment:discover_card": "yes", "payment:mastercard": "yes", "payment:visa": "yes", "takeaway": "yes", "website": "http://www.nypizzasuprema.com", "wheelchair": "yes"}}, {"type": "node", "id": 2407894981, "lat": 40.7456359, "lon": -73.9984752, "tags": {"addr:city": "New York", "addr:housenumber": "269", "addr:postcode": "10001", "addr:street": "8th Avenue", "alt_name": "Dunkin' Donuts", "amenity": "fast_food", "brand": "Dunkin'", "brand:wikidata": "Q847743", "brand:wikipedia": "en:Dunkin' Donuts", "cuisine": "donut;coffee_shop", "name": "Dunkin'", "shop": "coffee", "takeaway": "yes", "website": "dunkindonuts.com"}}, {"type": "node", "id": 2409398831, "lat": 40.7856092, "lon": -73.9725691, "tags": {"addr:city": "New York", "addr:country": "US", "addr:housenumber": "517", "addr:postcode": "10024", "addr:state": "NY", "addr:street": "Columbus Avenue", "amenity": "fast_food", "cuisine": "burger", "name": "Jackson Hole", "opening_hours": "Mo-Th 07:00-23:00; Fr 07:00-24:00; Sa 08:00-24:00; Su 08:00-23:00", "takeaway": "yes", "website": "http://www.jacksonholeburgers.com/"}}, {"type": "node", "id": 2411819317, "lat": 40.7438728, "lon": -74.0030028, "tags": {"addr:city": "New York", "addr:housenumber": "144", "addr:postcode": "10011", "addr:street": "9th Avenue", "amenity": "fast_food", "cuisine": "pizza", "delivery": "yes", "indoor_seating": "yes", "name": "Gotham Pizza", "opening_hours": "Mo-Su 10:45-23:30; Fr 10:45-24:00", "phone": "+1 212-989-8858", "takeaway": "yes", "website": "http://www.eatgothampizzanyc.com"}}, {"type": "node", "id": 2412364226, "lat": 40.7406342, "lon": -73.9878454, "tags": {"addr:city": "New York", "addr:housenumber": "26", "addr:postcode": "10010", "addr:street": "East 23rd Street", "amenity": "fast_food", "brand": "McDonald's", "brand:wikidata": "Q38076", "brand:wikipedia": "en:McDonald's", "cuisine": "burger", "drive_through": "no", "name": "McDonald's", "opening_hours": "24/7", "outdoor_seating": "no", "takeaway": "yes", "wheelchair": "yes"}}, {"type": "node", "id": 2414094432, "lat": 40.7841636, "lon": -73.9778589, "tags": {"amenity": "fast_food", "cuisine": "mexican", "name": "Oaxaca Tacos", "website": "https://www.oaxacatacos.com/"}}, {"type": "node", "id": 2422377590, "lat": 40.7131976, "lon": -73.9622648, "tags": {"addr:city": "Brooklyn", "addr:housenumber": "326", "addr:postcode": "11249", "addr:state": "NY", "addr:street": "Bedford Avenue", "amenity": "fast_food", "cuisine": "sandwich", "diet:vegetarian": "yes", "drive_through": "no", "name": "Mission Sandwich", "opening_hours": "Mo-Sa 11:00-21:00; Su 12:00-19:00", "phone": "+1-718-387-8320", "website": "https://www.missionsandwich.com/"}}, {"type": "node", "id": 2443892135, "lat": 40.7778959, "lon": -73.9825105, "tags": {"addr:city": "New York", "addr:country": "US", "addr:housenumber": "2049", "addr:postcode": "10023", "addr:state": "NY", "addr:street": "Broadway", "air_conditioning": "yes", "amenity": "fast_food", "brand": "McDonald's", "brand:wikidata": "Q38076", "brand:wikipedia": "en:McDonald's", "cuisine": "burger", "delivery": "yes", "drive_through": "no", "internet_access": "wlan", "internet_access:fee": "no", "level": "0", "name": "McDonald's", "opening_hours": "24/7", "outdoor_seating": "no", "payment:american_express": "yes", "payment:coins": "yes", "payment:mastercard": "yes", "payment:notes": "yes", "payment:visa": "yes", "phone": "+1-212-724-0435", "smoking": "no", "takeaway": "yes", "website": "https://www.mcdonalds.com/us/en-us/location/ny/new-york/2049-broadway/2292.html", "wheelchair": "yes"}}, {"type": "node", "id": 2443892142, "lat": 40.7943168, "lon": -73.9724172, "tags": {"addr:city": "New York", "addr:country": "US", "addr:housenumber": "2547", "addr:postcode": "10025", "addr:state": "NY", "addr:street": "Broadway", "amenity": "fast_food", "cuisine": "pizza", "name": "La Vera Pizza", "opening_hours": "Su-We 11:30-23:00; Th-Sa 11:30-01:00", "takeaway": "yes", "website": "http://upperwestside.twoboots.com/"}}, {"type": "node", "id": 2466976767, "lat": 40.7228786, "lon": -73.8674785, "tags": {"alt_name": "Dunkin' Donuts", "amenity": "fast_food", "brand": "Dunkin'", "brand:wikidata": "Q847743", "brand:wikipedia": "en:Dunkin' Donuts", "cuisine": "donut;coffee_shop", "name": "Dunkin'", "takeaway": "yes"}}, {"type": "node", "id": 2477144568, "lat": 40.7035448, "lon": -73.8000747, "tags": {"addr:city": "Jamaica", "addr:housenumber": "159-01", "addr:postcode": "11432", "addr:state": "NY", "addr:street": "Jamaica Avenue", "amenity": "fast_food", "brand": "McDonald's", "brand:wikidata": "Q38076", "brand:wikipedia": "en:McDonald's", "cuisine": "burger", "name": "McDonald's", "opening_hours": "5:30-2:00", "phone": "+1-718-526-3725", "takeaway": "yes", "website": "https://www.mcdonalds.com/us/en-us/location/NY/JAMAICA/159-01-JAMAICA-AVENUE/10482.html"}}, {"type": "node", "id": 2478897615, "lat": 40.7395596, "lon": -73.9954916, "tags": {"addr:housenumber": "601", "addr:postcode": "10011", "addr:street": "6th Avenue", "amenity": "fast_food", "branch": "Chelsea", "cuisine": "burger", "disused:amenity": "restaurant", "old_name": "2 Bros. Pizza"}}, {"type": "node", "id": 2488911818, "lat": 40.7208443, "lon": -73.7610809, "tags": {"addr:housenumber": "204-11", "addr:postcode": "11423", "addr:street": "Hillside Avenue", "amenity": "fast_food", "brand": "McDonald's", "brand:wikidata": "Q38076", "brand:wikipedia": "en:McDonald's", "cuisine": "burger", "name": "McDonald's", "takeaway": "yes"}}, {"type": "node", "id": 2488912475, "lat": 40.7201167, "lon": -73.762092}, {"type": "node", "id": 2488912487, "lat": 40.7201401, "lon": -73.7620338}, {"type": "node", "id": 2488912577, "lat": 40.7203251, "lon": -73.7622363}, {"type": "node", "id": 2488912583, "lat": 40.7203367, "lon": -73.7621699}, {"type": "node", "id": 2488912589, "lat": 40.7203459, "lon": -73.7621468}, {"type": "node", "id": 2488912604, "lat": 40.7203747, "lon": -73.7621667}, {"type": "node", "id": 2494018923, "lat": 40.6506698, "lon": -73.9684699}, {"type": "node", "id": 2494018924, "lat": 40.6506713, "lon": -73.9684983}, {"type": "node", "id": 2494018925, "lat": 40.6506766, "lon": -73.968522}, {"type": "node", "id": 2494018926, "lat": 40.6506796, "lon": -73.9684763}, {"type": "node", "id": 2494018927, "lat": 40.6506917, "lon": -73.9684117}, {"type": "node", "id": 2494018928, "lat": 40.6507018, "lon": -73.9684183}, {"type": "node", "id": 2494018929, "lat": 40.6507022, "lon": -73.9685386}, {"type": "node", "id": 2494018930, "lat": 40.6507108, "lon": -73.9683942}, {"type": "node", "id": 2494018931, "lat": 40.6507166, "lon": -73.9685004}, {"type": "node", "id": 2494018932, "lat": 40.6507229, "lon": -73.9685045}, {"type": "node", "id": 2494018933, "lat": 40.6507275, "lon": -73.9683862}, {"type": "node", "id": 2494018934, "lat": 40.6507387, "lon": -73.9684465}, {"type": "node", "id": 2494018935, "lat": 40.6507435, "lon": -73.9684496}, {"type": "node", "id": 2494018936, "lat": 40.6507548, "lon": -73.9684039}, {"type": "node", "id": 2494057481, "lat": 40.6882687, "lon": -73.9897432}, {"type": "node", "id": 2494057492, "lat": 40.6882985, "lon": -73.9898196}, {"type": "node", "id": 2494057493, "lat": 40.6883037, "lon": -73.9897195}, {"type": "node", "id": 2494057500, "lat": 40.6883335, "lon": -73.9897959}, {"type": "node", "id": 2494064379, "lat": 40.6490598, "lon": -73.9644039, "tags": {"addr:housenumber": "1617", "addr:postcode": "11226", "addr:street": "Church Avenue", "amenity": "fast_food", "atm": "yes", "cuisine": "caribbean", "name": "Golden Crust", "opening_hours": "Mo-Sa 08:00-20:00; Su 09:00-19:00", "takeaway": "yes"}}, {"type": "node", "id": 2494064389, "lat": 40.6491271, "lon": -73.9642179, "tags": {"addr:housenumber": "1623", "addr:postcode": "11226", "addr:street": "Church Avenue", "amenity": "fast_food", "cuisine": "latin_american;chicken", "delivery": "yes", "name": "Kennedy Chicken", "phone": "+1-347-290-6446", "takeaway": "yes"}}, {"type": "node", "id": 2494064497, "lat": 40.7281476, "lon": -73.9851267, "tags": {"addr:housenumber": "145", "addr:postcode": "10003", "addr:street": "1st Avenue", "amenity": "fast_food", "cuisine": "chinese", "name": "Baji Baji", "phone": "+1-212-777-3888"}}, {"type": "node", "id": 2494067543, "lat": 40.69151, "lon": -73.9977701, "tags": {"addr:housenumber": "330", "addr:postcode": "11201", "addr:street": "Hicks Street", "amenity": "fast_food", "cuisine": "middle_eastern;pizza", "diet:vegetarian": "yes", "name": "Fatoosh", "opening_hours": "Mo-Su 11:30-22:00", "phone": "+1-718-243-0500", "takeaway": "yes", "website": "https://www.fatooshonline.com"}}, {"type": "node", "id": 2494067806, "lat": 40.6912362, "lon": -73.9973386, "tags": {"addr:housenumber": "87", "addr:postcode": "11201", "addr:street": "Atlantic Avenue", "amenity": "fast_food", "cuisine": "pizza", "drink:beer": "yes", "drink:wine": "yes", "happy_hours": "Mo-Th 15:00-18:00", "name": "Table 87 Coal Oven Pizza", "opening_hours": "Mo-Th 11:00-22:30; Fr-Sa 11:00-23:00; Su 11:00-22:00", "phone": "+1-718-797-9300", "website": "https://www.table87.com"}}, {"type": "node", "id": 2494077031, "lat": 40.6930188, "lon": -73.9699992, "tags": {"addr:city": "Brooklyn", "addr:housenumber": "400", "addr:postcode": "11205", "addr:state": "NY", "addr:street": "Myrtle Avenue", "amenity": "fast_food", "brand": "Subway", "brand:wikidata": "Q244457", "brand:wikipedia": "en:Subway (restaurant)", "cuisine": "sandwich", "name": "Subway", "opening_hours": "Mo-Fr 07:00-22:00; Sa 08:00-22:00; Su 09:00-21:00", "phone": "+1-718-797-4394", "takeaway": "yes", "website": "https://restaurants.subway.com/united-states/ny/brooklyn/400-myrtle-ave"}}, {"type": "node", "id": 2494077033, "lat": 40.6929818, "lon": -73.9693685, "tags": {"amenity": "fast_food", "atm": "yes", "cuisine": "bagel;breakfast;sandwich", "drink:coffee": "yes", "name": "Myrtle Bagel", "opening_hours": "Mo-Su 06:30-15:00", "phone": "+1-718-858-4916"}}, {"type": "node", "id": 2494078789, "lat": 40.6497183, "lon": -73.9620032, "tags": {"addr:housenumber": "1902", "addr:postcode": "11226", "addr:street": "Church Avenue", "amenity": "fast_food", "cuisine": "latin_american", "name": "Flatbush Latin Grill", "opening_hours": "Mo-Sa 06:00-22:00; Su 08:00-18:00", "phone": "+1-718-462-2022"}}, {"type": "node", "id": 2494088688, "lat": 40.6735357, "lon": -73.9503021, "tags": {"addr:housenumber": "736", "addr:postcode": "11216", "addr:street": "Nostrand Avenue", "amenity": "fast_food", "cuisine": "latin_american", "drink:coffee": "yes", "name": "JC Mar Restaurant", "opening_hours": "Mo-Sa 08:00-19:30"}}, {"type": "node", "id": 2494088708, "lat": 40.6727664, "lon": -73.9503863, "tags": {"addr:housenumber": "758B", "addr:postcode": "11216", "addr:street": "Nostrand Avenue", "alt_name": "Williamsburg Pizza", "amenity": "fast_food", "cuisine": "pizza", "diet:gluten_free": "yes", "diet:vegan": "yes", "diet:vegetarian": "yes", "name": "Brooklyn Pizza Crew", "phone": "+1-718-363-1122", "website": "https://pizzacrew.com"}}, {"type": "node", "id": 2494098730, "lat": 40.7756501, "lon": -73.983519, "tags": {"addr:city": "New York", "addr:housenumber": "165", "addr:postcode": "10023", "addr:street": "Amsterdam Avenue", "amenity": "fast_food", "craft": "caterer", "diet:vegan": "only", "name": "Blossom Du Jour", "opening_hours": "09:00-20:00", "phone": "+1 212 799-9010", "website": "http://www.blossomdujour.com/"}}, {"type": "node", "id": 2494104049, "lat": 40.6475264, "lon": -73.973924, "tags": {"addr:city": "Brooklyn", "addr:housenumber": "620", "addr:postcode": "11218", "addr:street": "Caton Avenue", "amenity": "fast_food", "atm": "yes", "cuisine": "pizza", "delivery": "yes", "drink:beer": "yes", "drink:wine": "yes", "name": "620 On Caton Pizzeria", "phone": "+1-718-436-3502", "takeaway": "yes", "website": "http://catonpizzeria.com"}}, {"type": "node", "id": 2494104055, "lat": 40.6475099, "lon": -73.9737749, "tags": {"addr:city": "Brooklyn", "addr:housenumber": "624", "addr:postcode": "11218", "addr:state": "NY", "addr:street": "Caton Avenue", "amenity": "fast_food", "cuisine": "chinese", "name": "624 Kam Hai", "phone": "+1-718-436-9748", "takeaway": "only", "wheelchair": "limited"}}, {"type": "node", "id": 2494114626, "lat": 40.6441552, "lon": -73.970714}, {"type": "node", "id": 2494114628, "lat": 40.6441596, "lon": -73.9706756}, {"type": "node", "id": 2494114653, "lat": 40.6441842, "lon": -73.9704181}, {"type": "node", "id": 2494114675, "lat": 40.6442353, "lon": -73.9707298}, {"type": "node", "id": 2494114681, "lat": 40.6442397, "lon": -73.9706915}, {"type": "node", "id": 2494114687, "lat": 40.6442448, "lon": -73.9706925}, {"type": "node", "id": 2494114702, "lat": 40.644274, "lon": -73.9704359}, {"type": "node", "id": 2494141537, "lat": 40.6978053, "lon": -73.9729527, "tags": {"amenity": "fast_food", "atm": "yes", "cuisine": "sandwich;burger", "name": "M&J Navy Yard Sub Shop", "opening_hours": "Mo-Fr 05:00-16:00; Sa 06:00-14:30", "phone": "+1-718-523-5150", "takeaway": "yes"}}, {"type": "node", "id": 2494176940, "lat": 40.7662931, "lon": -73.9310015}, {"type": "node", "id": 2494176941, "lat": 40.7662933, "lon": -73.9309818}, {"type": "node", "id": 2494176942, "lat": 40.7663061, "lon": -73.9309596}, {"type": "node", "id": 2494176943, "lat": 40.7663102, "lon": -73.9309686}, {"type": "node", "id": 2494176946, "lat": 40.7663211, "lon": -73.9309479}, {"type": "node", "id": 2494176948, "lat": 40.7663256, "lon": -73.9309578}, {"type": "node", "id": 2494176952, "lat": 40.7663349, "lon": -73.9310939}, {"type": "node", "id": 2494176958, "lat": 40.7663737, "lon": -73.9308994}, {"type": "node", "id": 2494176962, "lat": 40.7663807, "lon": -73.9309147}, {"type": "node", "id": 2494176976, "lat": 40.7664297, "lon": -73.931006}, {"type": "node", "id": 2494176979, "lat": 40.7664343, "lon": -73.9310161}, {"type": "node", "id": 2494176981, "lat": 40.7664453, "lon": -73.9308434}, {"type": "node", "id": 2494176989, "lat": 40.7664737, "lon": -73.9309588}, {"type": "node", "id": 2494176991, "lat": 40.766478, "lon": -73.9309682}, {"type": "node", "id": 2494176999, "lat": 40.7664913, "lon": -73.930945}, {"type": "node", "id": 2494180608, "lat": 40.6764452, "lon": -73.9989149, "tags": {"addr:housenumber": "169", "addr:postcode": "11231", "addr:street": "Nelson Street", "amenity": "fast_food", "atm": "yes", "cuisine": "chinese", "delivery": "yes", "name": "Wing Hua", "opening_hours": "Mo-Th 11:00-22:30; Fr-Sa 11:00-23:30", "phone": "+1-718-855-8797", "takeaway": "yes"}}, {"type": "node", "id": 2494180671, "lat": 40.6773487, "lon": -73.9981633}, {"type": "node", "id": 2494180824, "lat": 40.6761632, "lon": -74.0006676}, {"type": "node", "id": 2494181042, "lat": 40.6760363, "lon": -74.000533}, {"type": "node", "id": 2494181045, "lat": 40.6760418, "lon": -74.0005303}, {"type": "node", "id": 2494181051, "lat": 40.676054, "lon": -74.0006288}, {"type": "node", "id": 2494181054, "lat": 40.6760623, "lon": -74.0006248}, {"type": "node", "id": 2494181058, "lat": 40.6760677, "lon": -74.000677}, {"type": "node", "id": 2494181072, "lat": 40.676101, "lon": -74.000698}, {"type": "node", "id": 2494181078, "lat": 40.6761143, "lon": -74.0004949}, {"type": "node", "id": 2494181799, "lat": 40.6772601, "lon": -73.9980986}, {"type": "node", "id": 2494181822, "lat": 40.6772882, "lon": -73.9981941}, {"type": "node", "id": 2494181835, "lat": 40.6773206, "lon": -73.9980678}, {"type": "node", "id": 2494203010, "lat": 40.6919811, "lon": -73.9914436, "tags": {"addr:housenumber": "64", "addr:postcode": "11201", "addr:street": "Court Street", "amenity": "fast_food", "branch": "Downtown Brooklyn", "cuisine": "mexican", "delivery": "yes", "name": "Dos Toros Taqueria", "opening_hours": "Mo-Fr 11:00-22:00; Sa, Su 11:30-22:00", "payment:cash": "no", "phone": "+1 347-497-3339", "website": "https://www.dostoros.com/locations/new-york#downtown-brooklyn"}}, {"type": "node", "id": 2494203014, "lat": 40.6918575, "lon": -73.9915024, "tags": {"addr:housenumber": "66", "addr:postcode": "11201", "addr:street": "Court Street", "alt_name": "Chop n' Toss", "amenity": "fast_food", "brand": "Subway", "brand:wikidata": "Q244457", "brand:wikipedia": "en:Subway (restaurant)", "cuisine": "sandwich", "name": "Subway", "takeaway": "yes"}}, {"type": "node", "id": 2494208363, "lat": 40.6720373, "lon": -73.9837179, "tags": {"addr:housenumber": "339", "addr:postcode": "11215", "addr:street": "5th Avenue", "amenity": "fast_food", "atm": "yes", "bakery": "yes", "cuisine": "bagel;coffee_shop;breakfast;sandwich", "drink:coffee": "yes", "drink:espresso": "yes", "name": "Bagel World"}}, {"type": "node", "id": 2494243578, "lat": 40.6842683, "lon": -73.9948052, "tags": {"addr:housenumber": "285", "addr:postcode": "11231", "addr:street": "Court Street", "amenity": "fast_food", "atm": "yes", "cuisine": "bagel;breakfast;sandwich", "delivery": "yes", "drink:coffee": "yes", "drink:espresso": "yes", "drink:juice": "yes", "drink:smoothie": "yes", "fax": "+1-718-222-4358", "name": "Brothers Bagels", "opening_hours": "Tu-Mo 05:30-16:00; Sa-Su 05:30-15:00", "phone": "+1-718-222-4357", "takeaway": "yes"}}, {"type": "node", "id": 2494251480, "lat": 40.6804445, "lon": -73.9966351, "tags": {"addr:housenumber": "383", "addr:postcode": "11231", "addr:street": "Court Street", "amenity": "fast_food", "cuisine": "donut;breakfast;ice_cream", "drink:coffee": "yes", "internet_access": "wlan", "internet_access:fee": "no", "name": "Dunkin' Donuts/Baskin Robbins", "opening_hours": "Mo-Su 05:00-21:00", "outdoor_seating": "patio", "toilets": "yes", "toilets:access": "customers", "toilets:wheelchair": "yes", "wheelchair": "yes"}}, {"type": "node", "id": 2494252035, "lat": 40.6800603, "lon": -73.9968499, "tags": {"addr:housenumber": "387", "addr:postcode": "11231", "addr:street": "Court Street", "amenity": "fast_food", "cuisine": "pizza", "drink:beer": "draught", "drink:wine": "yes", "name": "Baby Luc's", "opening_hours": "Mo-Fr 16:00-22:00; Sa-Su 11:00-22:00", "outdoor_seating": "yes", "website": "https://www.babylucs.com"}}, {"type": "node", "id": 2494254696, "lat": 40.6927938, "lon": -73.9883016, "tags": {"addr:housenumber": "374", "addr:postcode": "11201", "addr:street": "Pearl Street", "amenity": "fast_food", "cuisine": "mexican", "name": "Taco Madre", "takeaway": "only", "website": "https://www.thetacomadre.com/location/brooklyn-ny/"}}, {"type": "node", "id": 2494254714, "lat": 40.6920543, "lon": -73.988461, "tags": {"addr:housenumber": "415", "addr:postcode": "11201", "addr:street": "Fulton Street", "amenity": "fast_food", "cuisine": "ice_cream;popcorn", "diet:kosher": "yes", "name": "Dippin' Dots/Doc Pocorn", "opening_hours": "Mo-Su 11:00-22:00"}}, {"type": "node", "id": 2494254718, "lat": 40.6919032, "lon": -73.9880918, "tags": {"addr:housenumber": "423", "addr:postcode": "11201", "addr:street": "Fulton Street", "amenity": "fast_food", "brand": "Panda Express", "brand:wikidata": "Q1358690", "brand:wikipedia": "en:Panda Express", "cuisine": "chinese", "name": "Panda Express", "opening_hours": "Mo-Sa 10:30-22:30; Su 11:00-22:00", "takeaway": "yes", "wheelchair": "yes"}}, {"type": "node", "id": 2494256369, "lat": 40.6931317, "lon": -73.9730002, "tags": {"addr:housenumber": "338", "addr:postcode": "11205", "addr:street": "Myrtle Avenue", "alt_name": "Chungchun Kitchen", "amenity": "fast_food", "cuisine": "chinese", "delivery": "yes", "name": "Chung Chun", "opening_hours": "Mo-Th 11:00-24:00; Fr-Sa 11:00-01:00; Su 12:00-24:00", "phone": "+1-718-855-5921", "takeaway": "yes"}}, {"type": "node", "id": 2494258000, "lat": 40.665229, "lon": -73.9644683}, {"type": "node", "id": 2494286092, "lat": 40.6351848, "lon": -73.9680497}, {"type": "node", "id": 2494286405, "lat": 40.6358574, "lon": -73.9679948}, {"type": "node", "id": 2494286570, "lat": 40.6351332, "lon": -73.9681533}, {"type": "node", "id": 2494286625, "lat": 40.6352853, "lon": -73.968069}, {"type": "node", "id": 2494286645, "lat": 40.6353561, "lon": -73.9681963}, {"type": "node", "id": 2494286654, "lat": 40.6353686, "lon": -73.9680851}, {"type": "node", "id": 2494286782, "lat": 40.6357365, "lon": -73.9683099}, {"type": "node", "id": 2494286785, "lat": 40.6357398, "lon": -73.9682786}, {"type": "node", "id": 2494286786, "lat": 40.6357426, "lon": -73.9682531}, {"type": "node", "id": 2494286788, "lat": 40.6357471, "lon": -73.9682799}, {"type": "node", "id": 2494286789, "lat": 40.6357489, "lon": -73.9681952}, {"type": "node", "id": 2494286790, "lat": 40.6357496, "lon": -73.9680892}, {"type": "node", "id": 2494286791, "lat": 40.6357498, "lon": -73.9682545}, {"type": "node", "id": 2494286796, "lat": 40.6357594, "lon": -73.9681971}, {"type": "node", "id": 2494286797, "lat": 40.6357616, "lon": -73.9679771}, {"type": "node", "id": 2494286802, "lat": 40.6357706, "lon": -73.9680931}, {"type": "node", "id": 2494286816, "lat": 40.6358254, "lon": -73.9683264}, {"type": "node", "id": 2494286823, "lat": 40.6358435, "lon": -73.9681579}, {"type": "node", "id": 2494286827, "lat": 40.635853, "lon": -73.9681597}, {"type": "node", "id": 2494286831, "lat": 40.6358705, "lon": -73.9679972}, {"type": "node", "id": 2494292509, "lat": 40.6725225, "lon": -73.9899527, "tags": {"addr:housenumber": "423", "addr:postcode": "11215", "addr:street": "3rd Avenue", "amenity": "fast_food", "capacity": "10", "cuisine": "breakfast;sandwich;latin_american", "drink:coffee": "yes", "drink:tea": "yes", "name": "Back To John's Deli", "phone": "+1 718 722 7547", "takeaway": "yes"}}, {"type": "node", "id": 2494292567, "lat": 40.6711405, "lon": -73.9883462, "tags": {"addr:housenumber": "430", "addr:postcode": "11215", "addr:street": "4th Avenue", "amenity": "fast_food", "atm": "yes", "cuisine": "chinese", "delivery": "yes", "name": "Taste of China", "opening_hours": "Mo-Th 10:45-22:30; Fr-Sa 10:45-23:00", "phone": "+1-718-768-5555", "takeaway": "yes"}}, {"type": "node", "id": 2494312953, "lat": 40.6984532, "lon": -73.9926721}, {"type": "node", "id": 2494312985, "lat": 40.6984912, "lon": -73.992808}, {"type": "node", "id": 2494313006, "lat": 40.6985031, "lon": -73.992648}, {"type": "node", "id": 2494313035, "lat": 40.6985411, "lon": -73.9927839}, {"type": "node", "id": 2494332410, "lat": 40.6751352, "lon": -73.9562023, "tags": {"addr:city": "Brooklyn", "addr:housenumber": "685", "addr:postcode": "11216", "addr:street": "Franklin Avenue", "amenity": "fast_food", "branch": "Crown Heights", "cuisine": "pizza", "diet:vegan": "yes", "name": "Screamer's Pizzeria", "opening_hours": "12:00-24:00", "phone": "+1-718-623-6000", "website": "http://www.screamerspizzeria.com"}}, {"type": "node", "id": 2494372629, "lat": 40.6773744, "lon": -73.9833346, "tags": {"addr:housenumber": "224", "addr:postcode": "11215", "addr:street": "4th Avenue", "amenity": "fast_food", "cuisine": "middle_eastern", "delivery": "yes", "name": "Taheni", "opening_hours": "Mo-Su 11:00-23:00", "phone": "+1-718-522-2083", "takeaway": "yes", "toilets": "yes", "toilets:access": "customers", "toilets:disposal": "flush", "toilets:wheelchair": "yes", "website": "https://www.taheni.com", "wheelchair": "yes"}}, {"type": "node", "id": 2494372659, "lat": 40.6781418, "lon": -73.9853976, "tags": {"addr:housenumber": "253", "addr:postcode": "11215", "addr:street": "3rd Avenue", "amenity": "fast_food", "cuisine": "salad;sandwich", "diet:halal": "yes", "disused:shop": "gift", "drink:coffee": "yes", "drink:juice": "yes", "drink:smoothie": "yes", "drink:tea": "yes", "name": "Hemo's Spot", "phone": "+1-347-916-1866", "takeaway": "only"}}, {"type": "node", "id": 2494384292, "lat": 40.7711169, "lon": -73.9270663, "tags": {"addr:housenumber": "28-02", "addr:postcode": "11102", "addr:street": "21st Street", "amenity": "fast_food", "cuisine": "mexican", "name": "Astoria Taco Factory"}}, {"type": "node", "id": 2495710933, "lat": 40.7446653, "lon": -74.006119, "tags": {"addr:city": "New York", "addr:housenumber": "130", "addr:postcode": "10011", "addr:street": "10th Avenue", "amenity": "fast_food", "delivery": "yes", "level": "0", "name": "Chelsea Square Market", "takeaway": "yes"}}, {"type": "node", "id": 2495726874, "lat": 40.6805821, "lon": -73.9506169, "tags": {"addr:city": "Brooklyn", "addr:housenumber": "1267", "addr:postcode": "11216", "addr:street": "Fulton Street", "amenity": "fast_food", "cuisine": "trinidadian", "diet:halal": "yes", "name": "Ali's Roti Shop", "old_name": "Ali's Trinidad Roti Shop", "takeaway": "only"}}, {"type": "node", "id": 2495728002, "lat": 40.6804346, "lon": -73.9479492, "tags": {"amenity": "fast_food", "cuisine": "trinidadian", "name": "A&A Bake & Doubles Shop", "phone": "+1-718-230-0753"}}, {"type": "node", "id": 2505402417, "lat": 40.7271407, "lon": -73.8532647, "tags": {"addr:city": "Forest Hills", "addr:housenumber": "100-05", "addr:postcode": "11375", "addr:street": "Queens Boulevard", "alt_name": "Dunkin' Donuts", "amenity": "fast_food", "brand": "Dunkin'", "brand:wikidata": "Q847743", "brand:wikipedia": "en:Dunkin' Donuts", "cuisine": "donut;coffee_shop", "name": "Dunkin'", "phone": "+1 718 793-3690", "takeaway": "yes", "website": "http://www.dunkindonuts.com/"}}, {"type": "node", "id": 2517052271, "lat": 40.7396985, "lon": -73.9742908, "tags": {"addr:city": "New York", "addr:housenumber": "440", "addr:postcode": "10016", "addr:street": "East 29th Street", "amenity": "fast_food", "name": "'wichcraft", "phone": "+1 212 780-0577", "website": "http://wichcraftnyc.com/"}}, {"type": "node", "id": 2518057294, "lat": 40.7335819, "lon": -73.8496791, "tags": {"addr:city": "Forest Hills", "addr:housenumber": "63-53", "addr:postcode": "11375", "addr:street": "108th Street", "amenity": "fast_food", "cuisine": "pizza", "name": "Singas Famous Pizza", "phone": "+1 718 459-3441", "website": "http://www.singaspizzas.com/"}}, {"type": "node", "id": 2518059328, "lat": 40.733474, "lon": -73.8496237, "tags": {"addr:city": "Forest Hills", "addr:housenumber": "63-59", "addr:postcode": "11375", "addr:street": "108th Street", "amenity": "fast_food", "cuisine": "chinese", "name": "Fan Shun Chinese Restaurant", "phone": "+1 718 897-7438"}}, {"type": "node", "id": 2522802850, "lat": 40.7761633, "lon": -73.9110242, "tags": {"addr:city": "Astoria", "addr:housenumber": "22-02", "addr:postcode": "11105", "addr:state": "NY", "addr:street": "31st Street", "amenity": "fast_food", "brand": "Krispy Kreme", "brand:wikidata": "Q1192805", "brand:wikipedia": "en:Krispy Kreme", "cuisine": "donut", "name": "Krispy Kreme", "opening_hours": "Mu-Th 06:00-22:00, Fr,Sa 06:00-23:00", "takeaway": "yes", "website": "https://site.krispykreme.com/ny/queens/22-02-31st-st"}}, {"type": "node", "id": 2523609805, "lat": 40.6911162, "lon": -73.9918459, "tags": {"addr:city": "Brooklyn", "addr:housenumber": "92", "addr:postcode": "11201", "addr:street": "Court Street", "amenity": "fast_food", "cuisine": "vietnamese;sandwich", "delivery": "yes", "drink:bubble_tea": "yes", "drink:coffee": "yes", "drink:tea": "yes", "name": "Bahnmigos", "opening_hours": "Mo-Su 11:30-21:00", "phone": "+1-929-337-6188", "takeaway": "yes", "website": "https://banhmigoscourtst.com"}}, {"type": "node", "id": 2523661391, "lat": 40.7034368, "lon": -73.9940857}, {"type": "node", "id": 2523661392, "lat": 40.7034394, "lon": -73.9941752}, {"type": "node", "id": 2523661393, "lat": 40.7035223, "lon": -73.9940815}, {"type": "node", "id": 2523661394, "lat": 40.7035248, "lon": -73.9941711}, {"type": "node", "id": 2523857904, "lat": 40.5176241, "lon": -74.2347712}, {"type": "node", "id": 2523857916, "lat": 40.5176437, "lon": -74.2346669}, {"type": "node", "id": 2523857929, "lat": 40.5176886, "lon": -74.2348043}, {"type": "node", "id": 2523857972, "lat": 40.5178076, "lon": -74.2348429}, {"type": "node", "id": 2523857977, "lat": 40.5178242, "lon": -74.2348313}, {"type": "node", "id": 2523857980, "lat": 40.51783, "lon": -74.2348005}, {"type": "node", "id": 2523857982, "lat": 40.5178326, "lon": -74.2347796}, {"type": "node", "id": 2523857985, "lat": 40.5178399, "lon": -74.2348037}, {"type": "node", "id": 2523857986, "lat": 40.5178418, "lon": -74.2347312}, {"type": "node", "id": 2523857988, "lat": 40.5178437, "lon": -74.2347833}, {"type": "node", "id": 2524539368, "lat": 40.6866682, "lon": -73.9906561, "tags": {"amenity": "fast_food", "cuisine": "donut;breakfast;ice_cream", "drink:coffee": "yes", "drink:espresso": "yes", "internet_access": "wlan", "internet_access:fee": "no", "name": "Dunkin' Donuts/Baskin Robbins", "opening_hours": "Mo-Su 05:00-22:00", "shop": "ice_cream"}}, {"type": "node", "id": 2525618310, "lat": 40.7197485, "lon": -74.0432789}, {"type": "node", "id": 2525704251, "lat": 40.71968, "lon": -74.0430598}, {"type": "node", "id": 2525704252, "lat": 40.7198162, "lon": -74.0432195}, {"type": "node", "id": 2525704254, "lat": 40.719797, "lon": -74.0430232}, {"type": "node", "id": 2527236064, "lat": 40.7459909, "lon": -73.9011801, "tags": {"addr:city": "Woodside", "addr:housename": "Jollibee", "addr:housenumber": "62-29", "addr:postcode": "11377", "addr:state": "NY", "addr:street": "Roosevelt Avenue", "amenity": "fast_food", "branch": "Woodside", "brand": "Jollibee", "brand:wikidata": "Q37614", "brand:wikipedia": "en:Jollibee", "cuisine": "burger", "delivery": "yes", "name": "Jollibee", "opening_hours": "8:00-22:00", "phone": "(718) 426-4445", "takeaway": "yes", "website": "https://locations.jollibeefoods.com/usa/ny/queens/6229-roosevelt-ave"}}, {"type": "node", "id": 2533032816, "lat": 40.5778511, "lon": -74.1642143}, {"type": "node", "id": 2533033674, "lat": 40.5853939, "lon": -74.1682762}, {"type": "node", "id": 2533033675, "lat": 40.5854376, "lon": -74.1680141}, {"type": "node", "id": 2533033677, "lat": 40.5855171, "lon": -74.1681579}, {"type": "node", "id": 2535746162, "lat": 40.8003373, "lon": -73.9660262, "tags": {"addr:city": "New York", "addr:housenumber": "932", "addr:state": "NY", "addr:street": "Amsterdam Avenue", "amenity": "fast_food", "drive_through": "no", "name": "Acosta Restaurant"}}, {"type": "node", "id": 2535746195, "lat": 40.7978573, "lon": -73.9678623, "tags": {"amenity": "fast_food", "name": "Ranch Deli", "shop": "convenience"}}, {"type": "node", "id": 2539225257, "lat": 40.7861966, "lon": -73.9778709, "tags": {"addr:city": "New York", "addr:country": "US", "addr:housenumber": "2298", "addr:postcode": "10024", "addr:state": "NY", "addr:street": "Broadway", "amenity": "fast_food", "brand": "Chipotle", "brand:wikidata": "Q465751", "brand:wikipedia": "en:Chipotle Mexican Grill", "cuisine": "mexican", "name": "Chipotle", "official_name": "Chipotle Mexican Grill", "opening_hours": "Mo-Su 11:00-22:00", "takeaway": "yes"}}, {"type": "node", "id": 2542066886, "lat": 40.6251651, "lon": -74.14739}, {"type": "node", "id": 2542066896, "lat": 40.6251767, "lon": -74.1474982}, {"type": "node", "id": 2542066898, "lat": 40.6251907, "lon": -74.1473777}, {"type": "node", "id": 2542066900, "lat": 40.6251915, "lon": -74.1473851}, {"type": "node", "id": 2542066903, "lat": 40.6252017, "lon": -74.1474936}, {"type": "node", "id": 2542066907, "lat": 40.6252028, "lon": -74.1475045}, {"type": "node", "id": 2542066926, "lat": 40.6252354, "lon": -74.1473569}, {"type": "node", "id": 2542066931, "lat": 40.6252367, "lon": -74.1473692}, {"type": "node", "id": 2542066935, "lat": 40.6252818, "lon": -74.1473484}, {"type": "node", "id": 2542066938, "lat": 40.6252834, "lon": -74.1473633}, {"type": "node", "id": 2542066968, "lat": 40.6254043, "lon": -74.1473243}, {"type": "node", "id": 2542066970, "lat": 40.6254061, "lon": -74.1473406}, {"type": "node", "id": 2542066971, "lat": 40.6254158, "lon": -74.1474437}, {"type": "node", "id": 2542066972, "lat": 40.625418, "lon": -74.1474648}, {"type": "node", "id": 2542066973, "lat": 40.6254337, "lon": -74.1473189}, {"type": "node", "id": 2542066974, "lat": 40.6254464, "lon": -74.147438}, {"type": "node", "id": 2542204133, "lat": 40.6256614, "lon": -74.1494173}, {"type": "node", "id": 2542209445, "lat": 40.6253922, "lon": -74.1493119}, {"type": "node", "id": 2542209461, "lat": 40.6254108, "lon": -74.1494688}, {"type": "node", "id": 2542209846, "lat": 40.6256428, "lon": -74.1492603}, {"type": "node", "id": 2543167586, "lat": 40.6077203, "lon": -74.162718}, {"type": "node", "id": 2543167607, "lat": 40.6077399, "lon": -74.1630187}, {"type": "node", "id": 2543167621, "lat": 40.6077648, "lon": -74.1630113}, {"type": "node", "id": 2543167625, "lat": 40.6077715, "lon": -74.1630509}, {"type": "node", "id": 2543167642, "lat": 40.6078192, "lon": -74.1627255}, {"type": "node", "id": 2543167658, "lat": 40.6078424, "lon": -74.1629929}, {"type": "node", "id": 2543167662, "lat": 40.6078484, "lon": -74.1630283}, {"type": "node", "id": 2543167666, "lat": 40.6078522, "lon": -74.16299}, {"type": "node", "id": 2543170658, "lat": 40.6579971, "lon": -73.8908347}, {"type": "node", "id": 2543170660, "lat": 40.6580867, "lon": -73.8906271}, {"type": "node", "id": 2543170663, "lat": 40.6581089, "lon": -73.8909179}, {"type": "node", "id": 2543170665, "lat": 40.6581487, "lon": -73.8908259}, {"type": "node", "id": 2543170667, "lat": 40.6581563, "lon": -73.8908315}, {"type": "node", "id": 2543170669, "lat": 40.6581795, "lon": -73.8907607}, {"type": "node", "id": 2543170671, "lat": 40.6581851, "lon": -73.8907649}, {"type": "node", "id": 2543170673, "lat": 40.6581979, "lon": -73.8907099}, {"type": "node", "id": 2543170676, "lat": 40.6582006, "lon": -73.8907119}, {"type": "node", "id": 2543228382, "lat": 40.6577499, "lon": -73.8897792}, {"type": "node", "id": 2543228384, "lat": 40.6577653, "lon": -73.8897069}, {"type": "node", "id": 2543228386, "lat": 40.6577774, "lon": -73.8897159}, {"type": "node", "id": 2543228387, "lat": 40.6578484, "lon": -73.889853}, {"type": "node", "id": 2543228389, "lat": 40.6578672, "lon": -73.8894723}, {"type": "node", "id": 2543228391, "lat": 40.6578752, "lon": -73.8897914}, {"type": "node", "id": 2543228393, "lat": 40.6578788, "lon": -73.8894981}, {"type": "node", "id": 2543228394, "lat": 40.6578844, "lon": -73.8894852}, {"type": "node", "id": 2543228396, "lat": 40.6578882, "lon": -73.8898011}, {"type": "node", "id": 2543228400, "lat": 40.6579286, "lon": -73.8897081}, {"type": "node", "id": 2543228401, "lat": 40.6579378, "lon": -73.889715}, {"type": "node", "id": 2543228403, "lat": 40.6579459, "lon": -73.8895483}, {"type": "node", "id": 2543228404, "lat": 40.6579531, "lon": -73.8896622},