{"version": 0.6, "generator": "Overpass API 0.7.60 f4c14d41", "osm3s": {"timestamp_osm_base": "2023-05-02T21:20:24Z", "copyright": "The data included in this document is from www.openstreetmap.org. The data is made available under ODbL."}, "elements": [{"type": "node", "id": 1608400444, "lat": -33.8157106, "lon": 150.9718448, "tags": {"addr:housenumber": "326-336", "addr:postcode": "2145", "addr:state": "NSW", "addr:street": "Great Western Highway", "addr:suburb": "Wentworthville", "addr:unit": "Shop 1", "name": "Sunrise Fresh", "phone": "+61296367264", "shop": "greengrocer", "website": "https://sunrisefresh.com.au"}}, {"type": "node", "id": 1613718828, "lat": -33.8323351, "lon": 150.968347, "tags": {"name": "Hilltop Fruit", "shop": "greengrocer"}}, {"type": "node", "id": 2189516444, "lat": -33.7712929, "lon": 150.8925542, "tags": {"shop": "greengrocer"}}, {"type": "node", "id": 2189527088, "lat": -33.7826618, "lon": 150.8264584, "tags": {"shop": "greengrocer"}}, {"type": "node", "id": 2339242333, "lat": -33.9556382, "lon": 150.8917037, "tags": {"shop": "greengrocer", "source": "voice"}}, {"type": "node", "id": 4228151689, "lat": -33.8803425, "lon": 150.6901506}, {"type": "node", "id": 4228151690, "lat": -33.8804802, "lon": 150.6902744}, {"type": "node", "id": 4228151691, "lat": -33.8804179, "lon": 150.6903804}, {"type": "node", "id": 4228151692, "lat": -33.8804263, "lon": 150.6903858}, {"type": "node", "id": 4228151693, "lat": -33.8803945, "lon": 150.6904368}, {"type": "node", "id": 4228151694, "lat": -33.8802999, "lon": 150.6903509}, {"type": "node", "id": 4228151695, "lat": -33.8803171, "lon": 150.6903234}, {"type": "node", "id": 4228151696, "lat": -33.8802643, "lon": 150.6902758}, {"type": "node", "id": 6765449985, "lat": -34.0199612, "lon": 150.7628488, "tags": {"name": "Grima Bros. Green Grocers", "operator": "Grima Brothers", "shop": "greengrocer"}}, {"type": "node", "id": 7016592448, "lat": -33.7667983, "lon": 150.6222377, "tags": {"name": "Glenbrook Greengrocer", "shop": "greengrocer"}}, {"type": "node", "id": 9170548986, "lat": -33.883813, "lon": 150.9262739, "tags": {"addr:housenumber": "221", "addr:street": "Canley Vale Road", "name": "Yung Lee Tropical Fruits", "shop": "greengrocer"}}, {"type": "node", "id": 9211879681, "lat": -34.0719955, "lon": 150.8039085, "tags": {"name": "Country Fresh Campbelltown", "shop": "greengrocer"}}, {"type": "node", "id": 9221214962, "lat": -33.9019711, "lon": 150.897076, "tags": {"addr:housenumber": "163", "addr:postcode": "2170", "addr:state": "NSW", "addr:street": "Meadows Road", "addr:suburb": "Mount Pritchard", "name": "Mount Pritchard Fruit Market", "phone": "+61298236419", "shop": "greengrocer"}}, {"type": "node", "id": 9226989661, "lat": -33.9500306, "lon": 150.8643021, "tags": {"name": "David's Fresh Prestons", "shop": "greengrocer"}}, {"type": "node", "id": 9465970331, "lat": -33.7952962, "lon": 150.7888784, "tags": {"name": "Trim's Fresh", "shop": "greengrocer", "source": "survey", "source:date": "2022-02", "strapline": "Think Trim's Think Fresh"}}, {"type": "node", "id": 9673034463, "lat": -33.9252501, "lon": 150.9222069, "tags": {"name": "Macquarie Fruit Shop", "shop": "greengrocer"}}, {"type": "node", "id": 9677054321, "lat": -33.9237241, "lon": 150.9232806, "tags": {"name": "Fresh City Fruit & Groceries", "shop": "greengrocer"}}, {"type": "node", "id": 10607522343, "lat": -33.9292873, "lon": 150.9503107}, {"type": "node", "id": 10607522344, "lat": -33.9293609, "lon": 150.9503142}, {"type": "node", "id": 10607522345, "lat": -33.9293614, "lon": 150.9503553}, {"type": "node", "id": 10607522346, "lat": -33.9295932, "lon": 150.9503634}, {"type": "node", "id": 10607522347, "lat": -33.9295744, "lon": 150.9506005}, {"type": "node", "id": 10607522348, "lat": -33.9295579, "lon": 150.9505979}, {"type": "node", "id": 10607522349, "lat": -33.9292762, "lon": 150.9505855}, {"type": "node", "id": 10607522350, "lat": -33.9293514, "lon": 150.9505898}, {"type": "node", "id": 10828406734, "lat": -33.9484109, "lon": 150.8998895, "tags": {"addr:housenumber": "1", "addr:postcode": "2170", "addr:state": "NSW", "addr:street": "Ingham Drive", "addr:suburb": "Casula", "name": "King Ananas", "opening_hours": "Mo-We,Fr-Su 08:00-18:00; Th 08:00-21:00", "shop": "greengrocer", "website": "https://www.casulamall.com.au/stores/king-ananas/"}}, {"type": "node", "id": 10838723486, "lat": -33.8082986, "lon": 150.9718691}, {"type": "node", "id": 10838723487, "lat": -33.8082358, "lon": 150.9715857}, {"type": "node", "id": 10838723488, "lat": -33.8082077, "lon": 150.9714593}, {"type": "node", "id": 10838723489, "lat": -33.8083927, "lon": 150.9718389}, {"type": "node", "id": 10838723490, "lat": -33.8083019, "lon": 150.9714291}, {"type": "node", "id": 10839374589, "lat": -33.8083277, "lon": 150.9715457}, {"type": "way", "id": 423121136, "nodes": [4228151689, 4228151690, 4228151691, 4228151692, 4228151693, 4228151694, 4228151695, 4228151696, 4228151689], "tags": {"addr:city": "Luddenham", "addr:housenumber": "2174", "addr:postcode": "2745", "addr:street": "The Northern Road", "building": "yes", "name": "David's Stall Fruit and Veg", "shop": "greengrocer", "source": "local_knowledge"}}, {"type": "way", "id": 1137983797, "nodes": [10607522343, 10607522344, 10607522345, 10607522346, 10607522347, 10607522348, 10607522350, 10607522349, 10607522343], "tags": {"building": "yes", "name": "Big Fresh Moorebank", "shop": "greengrocer"}}, {"type": "way", "id": 1165307308, "nodes": [10838723488, 10838723487, 10838723486, 10838723489, 10839374589, 10838723490, 10838723488], "tags": {"addr:housenumber": "39A", "addr:postcode": "2145", "addr:state": "NSW", "addr:street": "Station Street", "addr:suburb": "Wentworthville", "building": "yes", "name": "Ambey\u2019s Big Apple", "phone": "+61286777444", "shop": "greengrocer", "website": "https://ambeysbigapple.com.au/"}}]}