{"version": 0.6, "generator": "Overpass API 0.7.60 f4c14d41", "osm3s": {"timestamp_osm_base": "2023-05-02T21:17:24Z", "copyright": "The data included in this document is from www.openstreetmap.org. The data is made available under ODbL."}, "elements": [{"type": "node", "id": 319644388, "lat": 19.3495012, "lon": -99.1969644, "tags": {"amenity": "cafe", "brand": "Starbucks", "brand:wikidata": "Q37158", "brand:wikipedia": "en:Starbucks", "cuisine": "coffee_shop", "name": "Starbucks", "official_name": "Starbucks Coffee", "takeaway": "yes"}}, {"type": "node", "id": 331704809, "lat": 19.4265467, "lon": -99.2232449, "tags": {"amenity": "cafe", "brand": "Starbucks", "brand:wikidata": "Q37158", "brand:wikipedia": "en:Starbucks", "cuisine": "coffee_shop", "name": "Starbucks", "official_name": "Starbucks Coffee", "takeaway": "yes"}}, {"type": "node", "id": 333981273, "lat": 19.368185, "lon": -99.2628585, "tags": {"amenity": "cafe", "brand": "Starbucks", "brand:wikidata": "Q37158", "cuisine": "coffee_shop", "name": "Starbucks", "official_name": "Starbucks Coffee", "takeaway": "yes"}}, {"type": "node", "id": 343630688, "lat": 19.3591764, "lon": -99.1839298}, {"type": "node", "id": 343630689, "lat": 19.3590143, "lon": -99.1839776}, {"type": "node", "id": 343630690, "lat": 19.3592015, "lon": -99.1840222}, {"type": "node", "id": 343630691, "lat": 19.3590305, "lon": -99.1840755}, {"type": "node", "id": 381148591, "lat": 19.3512139, "lon": -99.1618279, "tags": {"addr:street": "Calle Cuauht\u00e9moc", "amenity": "cafe", "name": "El Jarocho", "takeaway": "only"}}, {"type": "node", "id": 434309918, "lat": 19.3734467, "lon": -99.1833423, "tags": {"amenity": "cafe", "name": "Cielito Lindo"}}, {"type": "node", "id": 473037851, "lat": 19.3962186, "lon": -99.1763346, "tags": {"amenity": "cafe", "name": "Cavi"}}, {"type": "node", "id": 473811680, "lat": 19.4026928, "lon": -99.1545679, "tags": {"amenity": "cafe"}}, {"type": "node", "id": 473817632, "lat": 19.3926097, "lon": -99.1731144, "tags": {"amenity": "cafe", "brand": "Starbucks", "brand:wikidata": "Q37158", "brand:wikipedia": "en:Starbucks", "cuisine": "coffee_shop", "name": "Starbucks", "official_name": "Starbucks Coffee", "takeaway": "yes"}}, {"type": "node", "id": 473826898, "lat": 19.3862741, "lon": -99.1770297, "tags": {"addr:city": "Ciudad de M\u00e9xico", "addr:housenumber": "255", "addr:postcode": "03810", "addr:street": "Calle Pennsylvania", "amenity": "cafe", "cuisine": "ice_cream;coffee_shop", "name": "Chiandoni", "opening_hours": "Mo-Su 11:00-21:00", "outdoor_seating": "yes", "phone": "5575920839", "website": "https://m.facebook.com/Chiandoni-oficial-305938346257345/"}}, {"type": "node", "id": 473857144, "lat": 19.4351024, "lon": -99.0834686, "tags": {"amenity": "cafe", "brand": "Starbucks", "brand:wikidata": "Q37158", "brand:wikipedia": "en:Starbucks", "cuisine": "coffee_shop", "name": "Starbucks", "official_name": "Starbucks Coffee", "smoking": "no", "takeaway": "yes"}}, {"type": "node", "id": 484177105, "lat": 19.432335, "lon": -99.1643219, "tags": {"addr:housenumber": "62", "addr:postcode": "06500", "addr:street": "Calle R\u00edo Amazonas", "amenity": "cafe", "internet_access": "wlan", "internet_access:fee": "no", "level": "0", "name": "Sal y Dulce Artesanos", "opening_hours": "Mo-Sa 07:00-20:00; PH unknown", "operator": "Artesanos del Dulce", "outdoor_seating": "yes", "takeaway": "yes", "toilets": "yes"}}, {"type": "node", "id": 484177882, "lat": 19.4324409, "lon": -99.1641049, "tags": {"addr:housenumber": "26-A", "addr:postcode": "06500", "addr:street": "Calle R\u00edo Amazonas", "amenity": "cafe", "name": "esquina 26", "outdoor_seating": "yes"}}, {"type": "node", "id": 484179844, "lat": 19.4290178, "lon": -99.1617407, "tags": {"amenity": "cafe"}}, {"type": "node", "id": 666970535, "lat": 19.2890675, "lon": -99.1665987, "tags": {"amenity": "cafe", "name": "Caf\u00e9 de la Selva"}}, {"type": "node", "id": 670425106, "lat": 19.295003, "lon": -99.1318719, "tags": {"amenity": "cafe"}}, {"type": "node", "id": 687144019, "lat": 19.3046935, "lon": -99.1024512}, {"type": "node", "id": 687144020, "lat": 19.3046641, "lon": -99.102049}, {"type": "node", "id": 687144021, "lat": 19.3050363, "lon": -99.1020184}, {"type": "node", "id": 687144022, "lat": 19.3050657, "lon": -99.1024206}, {"type": "node", "id": 846537201, "lat": 19.3460119, "lon": -99.177203, "tags": {"addr:housenumber": "287", "addr:postcode": "04310", "addr:street": "Miguel \u00c1ngel de Quevedo", "amenity": "cafe", "brand": "Starbucks", "brand:wikidata": "Q37158", "cuisine": "coffee_shop", "name": "Starbucks", "official_name": "Starbucks Coffee", "takeaway": "yes"}}, {"type": "node", "id": 883900365, "lat": 19.3540355, "lon": -99.1519149}, {"type": "node", "id": 901833376, "lat": 19.4261351, "lon": -99.1598233, "tags": {"amenity": "cafe", "cuisine": "coffee_shop", "name": "Caf\u00e9 Gabi's"}}, {"type": "node", "id": 959857321, "lat": 19.4305532, "lon": -99.1613163, "tags": {"amenity": "cafe", "brand": "Starbucks", "brand:wikidata": "Q37158", "brand:wikipedia": "en:Starbucks", "cuisine": "coffee_shop", "name": "Starbucks", "official_name": "Starbucks Coffee", "takeaway": "yes"}}, {"type": "node", "id": 981835553, "lat": 19.298861, "lon": -99.178046, "tags": {"addr:housenumber": "2", "addr:street": "Sabino 2, esq. Gonzalez Lobo", "amenity": "cafe", "description": "Dentro club deportivo ISSSTE", "name": "El Kiosko"}}, {"type": "node", "id": 994321976, "lat": 19.3776752, "lon": -99.170676}, {"type": "node", "id": 994321978, "lat": 19.3777768, "lon": -99.1704646}, {"type": "node", "id": 994321979, "lat": 19.3778017, "lon": -99.1706496}, {"type": "node", "id": 994321980, "lat": 19.3776393, "lon": -99.1704966}, {"type": "node", "id": 1097049990, "lat": 19.440114, "lon": -99.1846913, "tags": {"amenity": "cafe", "branch": "Parques Polanco", "brand": "Starbucks", "brand:wikidata": "Q37158", "cuisine": "coffee_shop", "name": "Starbucks", "official_name": "Starbucks Coffee", "takeaway": "yes"}}, {"type": "node", "id": 1134954690, "lat": 19.2818729, "lon": -99.1430652, "tags": {"amenity": "cafe", "brand": "Starbucks", "brand:wikidata": "Q37158", "brand:wikipedia": "en:Starbucks", "cuisine": "coffee_shop", "name": "Starbucks", "official_name": "Starbucks Coffee", "takeaway": "yes"}}, {"type": "node", "id": 1135208493, "lat": 19.3450047, "lon": -99.1651856, "tags": {"addr:housenumber": "624", "addr:street": "Avenida Miguel \u00c1ngel de Quevedo", "amenity": "cafe", "brand": "Starbucks", "brand:wikidata": "Q37158", "cuisine": "coffee_shop", "name": "Starbucks", "official_name": "Starbucks Coffee", "takeaway": "yes"}}, {"type": "node", "id": 1152082275, "lat": 19.3735335, "lon": -99.1675405, "tags": {"addr:housenumber": "1357", "addr:street": "Gabriel Mancera", "amenity": "cafe", "brand": "Starbucks", "brand:wikidata": "Q37158", "brand:wikipedia": "en:Starbucks", "cuisine": "coffee_shop", "name": "Starbucks", "official_name": "Starbucks Coffee", "operator": "Starbucks", "takeaway": "yes"}}, {"type": "node", "id": 1212748868, "lat": 19.4538769, "lon": -99.085237, "tags": {"amenity": "cafe", "name": "Cafeteria Kontiki"}}, {"type": "node", "id": 1228824614, "lat": 19.4327851, "lon": -99.1486139, "tags": {"amenity": "cafe"}}, {"type": "node", "id": 1244578455, "lat": 19.4242694, "lon": -99.1647455, "tags": {"amenity": "cafe", "name": "Cafe Emir"}}, {"type": "node", "id": 1412301629, "lat": 19.3322765, "lon": -99.1831899, "tags": {"amenity": "cafe", "cuisine": "coffee_shop", "internet_access": "wlan", "name": "Cafeter\u00eda Dise\u00f1o Industrial", "source": "Yahoo", "wheelchair": "yes"}}, {"type": "node", "id": 1414484678, "lat": 19.4873845, "lon": -99.1250996, "tags": {"amenity": "cafe", "name": "Sanborns Caf\u00e9", "opening_hours": "24/7", "operator": "Sanborns"}}, {"type": "node", "id": 1419644925, "lat": 19.3768169, "lon": -99.1620545}, {"type": "node", "id": 1419644927, "lat": 19.3768407, "lon": -99.1621694}, {"type": "node", "id": 1419644930, "lat": 19.3768795, "lon": -99.1620399}, {"type": "node", "id": 1419644932, "lat": 19.3769033, "lon": -99.1621548}, {"type": "node", "id": 1478218066, "lat": 19.3931626, "lon": -99.0651177, "tags": {"amenity": "cafe"}}, {"type": "node", "id": 1478223907, "lat": 19.3964251, "lon": -99.0669001, "tags": {"amenity": "cafe"}}, {"type": "node", "id": 1482031186, "lat": 19.337003, "lon": -99.1836654, "tags": {"amenity": "cafe", "name": "Gazuza"}}, {"type": "node", "id": 1482031191, "lat": 19.3369447, "lon": -99.1834966, "tags": {"amenity": "cafe", "cuisine": "coffee_shop", "name": "El Che"}}, {"type": "node", "id": 1482031204, "lat": 19.3360627, "lon": -99.1810269, "tags": {"addr:street": "Calle Odontolog\u00eda", "amenity": "cafe", "cuisine": "mexican", "name": "Zihuatlpiltzin"}}, {"type": "node", "id": 1582065361, "lat": 19.3413656, "lon": -99.1713602, "tags": {"addr:housename": "Caf\u00e9 Rikami", "addr:housenumber": "242-B", "addr:postcode": "04310", "addr:street": "Calle Omega", "amenity": "cafe", "cuisine": "coffee_shop", "designation": "Caf\u00e9 Rikami", "name": "Caf\u00e9 Rikami", "opening_hours": "Mo-Th 09:00-14:00, 15:00-18:00; Fr 09:00-13:00", "phone": "55542457", "website": "https://www.saketo.com/", "wifi": "no"}}, {"type": "node", "id": 1677312827, "lat": 19.4775846, "lon": -99.1246886, "tags": {"amenity": "cafe", "cuisine": "coffee_shop", "designation": "Local owner", "internet_access": "wlan", "internet_access:fee": "no", "name": "Caf\u00e9 \"El embrujo de Chiapas\""}}, {"type": "node", "id": 1677876271, "lat": 19.4279829, "lon": -99.1369573, "tags": {"amenity": "cafe", "name": "Caf\u00e9 Jeke Emir"}}, {"type": "node", "id": 1796489466, "lat": 19.3593298, "lon": -99.2702958, "tags": {"addr:housename": "Barcelona", "addr:housenumber": "482", "addr:postcode": "04349", "addr:street": "Santa Fe", "amenity": "cafe", "branch": "City Walk", "brand": "Starbucks", "brand:wikidata": "Q37158", "cuisine": "coffee_shop", "name": "Starbucks", "official_name": "Starbucks Coffee", "takeaway": "yes"}}, {"type": "node", "id": 1844652304, "lat": 19.3498425, "lon": -99.1510807, "tags": {"addr:housenumber": "2761", "addr:street": "Divisi\u00f3n del Norte", "amenity": "cafe", "cuisine": "coffee_shop", "name": "El Jarocho", "opening_hours": "24/7"}}, {"type": "node", "id": 1854446533, "lat": 19.3296073, "lon": -99.1111375}, {"type": "node", "id": 1854446534, "lat": 19.3295514, "lon": -99.1111602}, {"type": "node", "id": 1854446535, "lat": 19.3294955, "lon": -99.1111515}, {"type": "node", "id": 1854446536, "lat": 19.3294528, "lon": -99.1111672}, {"type": "node", "id": 1854446537, "lat": 19.3294002, "lon": -99.1111637}, {"type": "node", "id": 1854446538, "lat": 19.3293755, "lon": -99.1111828}, {"type": "node", "id": 1854446539, "lat": 19.329318, "lon": -99.1111672}, {"type": "node", "id": 1854446540, "lat": 19.3293541, "lon": -99.1111393}, {"type": "node", "id": 1854446541, "lat": 19.3293081, "lon": -99.1111166}, {"type": "node", "id": 1854446542, "lat": 19.3293476, "lon": -99.111094}, {"type": "node", "id": 1854446543, "lat": 19.3292951, "lon": -99.1110621}, {"type": "node", "id": 1854446544, "lat": 19.3293459, "lon": -99.1110243}, {"type": "node", "id": 1854446545, "lat": 19.3295481, "lon": -99.1110069}, {"type": "node", "id": 1854446546, "lat": 19.3296041, "lon": -99.1110312}, {"type": "node", "id": 1854446547, "lat": 19.3295481, "lon": -99.1110591}, {"type": "node", "id": 1854446548, "lat": 19.3296041, "lon": -99.11108}, {"type": "node", "id": 1854446549, "lat": 19.3295547, "lon": -99.1111079}, {"type": "node", "id": 2111363455, "lat": 19.4113169, "lon": -99.1764771, "tags": {"amenity": "cafe", "cuisine": "coffee_shop", "internet_access": "wlan", "internet_access:fee": "no", "name": "Cielito"}}, {"type": "node", "id": 2111373597, "lat": 19.4113179, "lon": -99.1763426, "tags": {"amenity": "cafe", "cuisine": "coffee_shop", "name": "Teavana"}}, {"type": "node", "id": 2111376702, "lat": 19.4116328, "lon": -99.1760489, "tags": {"amenity": "cafe", "cuisine": "coffee_shop", "name": "Caf\u00e9 Punto del Cielo"}}, {"type": "node", "id": 2111476469, "lat": 19.4124027, "lon": -99.1733586, "tags": {"amenity": "cafe", "brand": "Starbucks", "brand:wikidata": "Q37158", "brand:wikipedia": "en:Starbucks", "cuisine": "coffee_shop", "name": "Starbucks", "official_name": "Starbucks Coffee", "takeaway": "yes"}}, {"type": "node", "id": 2111476472, "lat": 19.4116526, "lon": -99.1715254, "tags": {"amenity": "cafe", "cuisine": "coffee_shop", "name": "Alas Crepas"}}, {"type": "node", "id": 2111494986, "lat": 19.411301, "lon": -99.1767838, "tags": {"amenity": "cafe", "cuisine": "ice_cream", "name": "Neve Gelato"}}, {"type": "node", "id": 2111500761, "lat": 19.4113115, "lon": -99.1765907, "tags": {"amenity": "cafe", "cuisine": "ice_cream", "name": "Moyo"}}, {"type": "node", "id": 2112441737, "lat": 19.4116082, "lon": -99.1735952, "tags": {"amenity": "cafe"}}, {"type": "node", "id": 2112441739, "lat": 19.4109549, "lon": -99.1688289, "tags": {"amenity": "cafe", "cuisine": "coffee_shop", "name": "Caf\u00e9 Toscano"}}, {"type": "node", "id": 2112482148, "lat": 19.4116247, "lon": -99.1605791, "tags": {"amenity": "cafe", "cuisine": "coffee_shop", "name": "Amsterdam Caf\u00e9"}}, {"type": "node", "id": 2112496843, "lat": 19.4178838, "lon": -99.1597764, "tags": {"amenity": "cafe", "cuisine": "coffee_shop", "name": "Caf\u00e9 de Carlo"}}, {"type": "node", "id": 2131712679, "lat": 19.3693072, "lon": -99.2211329, "tags": {"amenity": "cafe", "cuisine": "coffee_shop", "name": "Cafe Dorama", "wifi": "yes"}}, {"type": "node", "id": 2133330361, "lat": 19.4142197, "lon": -99.176869, "tags": {"amenity": "cafe", "cuisine": "ice_cream", "diet:vegan": "yes", "diet:vegetarian": "yes", "name": "Never\u00eda Roxy", "opening_hours": "Mo-Su 11:30-21:00", "wheelchair": "yes"}}, {"type": "node", "id": 2133330363, "lat": 19.4134102, "lon": -99.1671487, "tags": {"amenity": "cafe", "cuisine": "coffee_shop", "name": "Casava Roots"}}, {"type": "node", "id": 2133330364, "lat": 19.4087959, "lon": -99.1765847, "tags": {"amenity": "cafe", "cuisine": "ice_cream", "name": "Never\u00eda Roxy", "opening_hours": "Mo-Su 11:30-20:00"}}, {"type": "node", "id": 2133330367, "lat": 19.4131627, "lon": -99.1673216, "tags": {"amenity": "cafe", "bicycle_parking": "rack", "brand": "Starbucks", "brand:wikidata": "Q37158", "brand:wikipedia": "en:Starbucks", "cuisine": "coffee_shop", "internet_access": "yes", "name": "Starbucks", "official_name": "Starbucks Coffee", "takeaway": "yes"}}, {"type": "node", "id": 2133330372, "lat": 19.4166886, "lon": -99.159676, "tags": {"amenity": "cafe", "brand": "Starbucks", "brand:wikidata": "Q37158", "brand:wikipedia": "en:Starbucks", "cuisine": "coffee_shop", "internet_access": "wlan", "name": "Starbucks", "official_name": "Starbucks Coffee", "takeaway": "yes"}}, {"type": "node", "id": 2133330373, "lat": 19.4247758, "lon": -99.156165, "tags": {"amenity": "cafe", "cuisine": "coffee_shop", "internet_access": "wlan", "internet_access:fee": "no", "name": "La Pebeta"}}, {"type": "node", "id": 2133330382, "lat": 19.4217074, "lon": -99.1604968, "tags": {"amenity": "cafe", "cuisine": "coffee_shop", "internet_access": "wlan", "internet_access:fee": "no", "name": "Caf\u00e9 Toscano"}}, {"type": "node", "id": 2134513011, "lat": 19.4201575, "lon": -99.1584226, "tags": {"amenity": "cafe", "cuisine": "coffee_shop", "name": "La Cupcaker\u00eda"}}, {"type": "node", "id": 2134513013, "lat": 19.4348742, "lon": -99.146706, "tags": {"addr:street": "Avenida Ju\u00e1rez", "amenity": "cafe", "brand": "Starbucks", "brand:wikidata": "Q37158", "brand:wikipedia": "en:Starbucks", "cuisine": "coffee_shop", "internet_access": "wlan", "name": "Starbucks", "official_name": "Starbucks Coffee", "takeaway": "yes"}}, {"type": "node", "id": 2134513015, "lat": 19.4324145, "lon": -99.1548119, "tags": {"amenity": "cafe", "brand": "Starbucks", "brand:wikidata": "Q37158", "brand:wikipedia": "en:Starbucks", "cuisine": "coffee_shop", "internet_access": "wlan", "name": "Starbucks", "official_name": "Starbucks Coffee", "takeaway": "yes"}}, {"type": "node", "id": 2134513022, "lat": 19.4324703, "lon": -99.1511507, "tags": {"amenity": "cafe", "cuisine": "coffee_shop", "name": "Caf\u00e9 La Habana", "wifi": "no"}}, {"type": "node", "id": 2138638727, "lat": 19.465272, "lon": -99.1812561, "tags": {"amenity": "cafe", "name": "Caf\u00e9 en Clave", "smoking": "no", "wheelchair": "no"}}, {"type": "node", "id": 2141839483, "lat": 19.3484643, "lon": -99.1630402, "tags": {"amenity": "cafe", "name": "La Selva Caf\u00e9", "smoking": "no"}}, {"type": "node", "id": 2264161208, "lat": 19.2919143, "lon": -99.1608758}, {"type": "node", "id": 2264161210, "lat": 19.2913118, "lon": -99.1610089}, {"type": "node", "id": 2264161213, "lat": 19.2913498, "lon": -99.1610799}, {"type": "node", "id": 2264161215, "lat": 19.2917573, "lon": -99.1603877}, {"type": "node", "id": 2356692333, "lat": 19.4205131, "lon": -99.1662215}, {"type": "node", "id": 2356692334, "lat": 19.4205173, "lon": -99.166261}, {"type": "node", "id": 2356692335, "lat": 19.420549, "lon": -99.1662572}, {"type": "node", "id": 2356692336, "lat": 19.4205449, "lon": -99.1662178}, {"type": "node", "id": 2409265670, "lat": 19.4410691, "lon": -99.2064289, "tags": {"amenity": "cafe", "brand": "Starbucks", "brand:wikidata": "Q37158", "brand:wikipedia": "en:Starbucks", "cuisine": "coffee_shop", "name": "Starbucks", "official_name": "Starbucks Coffee", "takeaway": "yes"}}, {"type": "node", "id": 2425965082, "lat": 19.2896153, "lon": -99.014346, "tags": {"addr:housename": "Yopping\u00b4s", "addr:housenumber": "18", "addr:postcode": "13200", "addr:street": "Esteban Chavero", "amenity": "cafe", "cuisine": "ice_cream", "internet_access": "wlan", "internet_access:fee": "no", "name": "Yopping\u00b4s", "website": "Yopping's frozen yogurt & coffee | Facebook"}}, {"type": "node", "id": 2520667052, "lat": 19.3344799, "lon": -99.1839071}, {"type": "node", "id": 2520667053, "lat": 19.3342957, "lon": -99.1838897}, {"type": "node", "id": 2520667054, "lat": 19.3343102, "lon": -99.1837174}, {"type": "node", "id": 2520667055, "lat": 19.3344238, "lon": -99.1837281}, {"type": "node", "id": 2520667056, "lat": 19.3344279, "lon": -99.1836793}, {"type": "node", "id": 2520667057, "lat": 19.3344985, "lon": -99.1836859}, {"type": "node", "id": 2528950499, "lat": 19.3276087, "lon": -99.1418298}, {"type": "node", "id": 2528950501, "lat": 19.3276342, "lon": -99.1418546}, {"type": "node", "id": 2528950503, "lat": 19.3276108, "lon": -99.1418867}, {"type": "node", "id": 2528950505, "lat": 19.3275861, "lon": -99.1418597}, {"type": "node", "id": 2555098866, "lat": 19.3435998, "lon": -99.1815433, "tags": {"amenity": "cafe", "cuisine": "coffee_shop", "name": "Coraz\u00f3n de Caf\u00e9"}}, {"type": "node", "id": 2562317485, "lat": 19.3522834, "lon": -99.1650984, "tags": {"amenity": "cafe", "name": "Caf\u00e9 El Jarocho", "website": "www.cafeeljarocho.com.mx"}}, {"type": "node", "id": 2562323136, "lat": 19.3604922, "lon": -99.1708581, "tags": {"amenity": "cafe", "brand": "Starbucks", "brand:wikidata": "Q37158", "cuisine": "coffee_shop", "name": "Starbucks", "official_name": "Starbucks Coffee", "takeaway": "yes"}}, {"type": "node", "id": 2562323137, "lat": 19.3793474, "lon": -99.1611436, "tags": {"amenity": "cafe", "brand": "Starbucks", "brand:wikidata": "Q37158", "brand:wikipedia": "en:Starbucks", "cuisine": "coffee_shop", "name": "Starbucks", "official_name": "Starbucks Coffee", "takeaway": "yes"}}, {"type": "node", "id": 2581991602, "lat": 19.4112216, "lon": -99.1848598, "tags": {"amenity": "cafe"}}, {"type": "node", "id": 2603952495, "lat": 19.3870557, "lon": -99.1516863, "tags": {"addr:city": "Ciudad de M\u00e9xico", "addr:housenumber": "940", "addr:street": "Avenida Dr. Jos\u00e9 Maria Vertiz", "amenity": "cafe", "cuisine": "Cafecito_Tun_Tun", "name": "Cafecito Tun Tun"}}, {"type": "node", "id": 2640080750, "lat": 19.2954697, "lon": -99.1545323, "tags": {"addr:city": "Mexico City", "addr:housename": "Tabita Bakery and Gourmet Food", "addr:housenumber": "4456", "addr:postcode": "14050", "addr:street": "Calzada de Tlalpan", "amenity": "cafe", "cuisine": "regional,international", "ele": "3", "internet_access": "yes", "name": "Tabita Bakery and Gourmet Food", "note": "Arriba del Dr. Simi / Above Dr. Simi Drugstore", "opening_hours": "Mo-Sa 09:00-20:00", "payment:bitcoin": "yes", "payment:litecoin": "yes", "payment:peercoin": "yes", "phone": "+525566504799", "website": "http://tabita.mx/"}}, {"type": "node", "id": 2682783369, "lat": 19.439178, "lon": -99.2032103, "tags": {"amenity": "cafe", "brand": "Starbucks", "brand:wikidata": "Q37158", "brand:wikipedia": "en:Starbucks", "cuisine": "coffee_shop", "internet_access": "wlan", "name": "Starbucks", "name:en": "Starbucks: Antara", "name:es": "Starbucks: Antara", "official_name": "Starbucks Coffee", "takeaway": "yes"}}, {"type": "node", "id": 2811963604, "lat": 19.4360242, "lon": -99.1463623, "tags": {"addr:housenumber": "1", "addr:street": "Col\u00f3n", "amenity": "cafe", "cuisine": "italian", "name": "Cafeter\u00eda Trevi", "phone": "+525555123020"}}, {"type": "node", "id": 2945112003, "lat": 19.4359887, "lon": -99.1465579, "tags": {"amenity": "cafe", "name": "Caf\u00e9 de Enmedio"}}, {"type": "node", "id": 2974613611, "lat": 19.4979939, "lon": -99.1347312}, {"type": "node", "id": 2974613612, "lat": 19.4978902, "lon": -99.1347517}, {"type": "node", "id": 2974613613, "lat": 19.4978747, "lon": -99.1346635}, {"type": "node", "id": 2974613614, "lat": 19.4978831, "lon": -99.1346618}, {"type": "node", "id": 2974613615, "lat": 19.4978725, "lon": -99.1346015}, {"type": "node", "id": 2974613616, "lat": 19.4979522, "lon": -99.1345857}, {"type": "node", "id": 2974613617, "lat": 19.4979618, "lon": -99.1346401}, {"type": "node", "id": 2974613618, "lat": 19.4979773, "lon": -99.134637}, {"type": "node", "id": 2974613619, "lat": 19.4986977, "lon": -99.1345966}, {"type": "node", "id": 2974613620, "lat": 19.4986801, "lon": -99.1346228}, {"type": "node", "id": 2974613621, "lat": 19.4986051, "lon": -99.1346374}, {"type": "node", "id": 2974613622, "lat": 19.4985764, "lon": -99.1346198}, {"type": "node", "id": 2974613623, "lat": 19.4985626, "lon": -99.1345396}, {"type": "node", "id": 2974613624, "lat": 19.4985828, "lon": -99.1345091}, {"type": "node", "id": 2974613625, "lat": 19.4986595, "lon": -99.1344956}, {"type": "node", "id": 2974613626, "lat": 19.4986857, "lon": -99.1345174}, {"type": "node", "id": 2974613627, "lat": 19.4993589, "lon": -99.1345468}, {"type": "node", "id": 2974613628, "lat": 19.4992257, "lon": -99.134575}, {"type": "node", "id": 2974613629, "lat": 19.499189, "lon": -99.1343804}, {"type": "node", "id": 2974613630, "lat": 19.4993222, "lon": -99.1343522}, {"type": "node", "id": 2974613631, "lat": 19.5006151, "lon": -99.1342258}, {"type": "node", "id": 2974613632, "lat": 19.5006001, "lon": -99.1342485}, {"type": "node", "id": 2974625233, "lat": 19.500525, "lon": -99.1342653}, {"type": "node", "id": 2974625234, "lat": 19.5004976, "lon": -99.1342521}, {"type": "node", "id": 2974625235, "lat": 19.5004774, "lon": -99.1341677}, {"type": "node", "id": 2974625236, "lat": 19.5004945, "lon": -99.1341386}, {"type": "node", "id": 2974625237, "lat": 19.500576, "lon": -99.1341211}, {"type": "node", "id": 2974625238, "lat": 19.5006001, "lon": -99.1341448}, {"type": "node", "id": 2974625239, "lat": 19.5012718, "lon": -99.1341944}, {"type": "node", "id": 2974625240, "lat": 19.5011269, "lon": -99.1342274}, {"type": "node", "id": 2974625241, "lat": 19.5010795, "lon": -99.1339933}, {"type": "node", "id": 2974625242, "lat": 19.5012245, "lon": -99.1339603}, {"type": "node", "id": 2974625243, "lat": 19.5018893, "lon": -99.1339983}, {"type": "node", "id": 2974625244, "lat": 19.5017847, "lon": -99.134019}, {"type": "node", "id": 2974625245, "lat": 19.501766, "lon": -99.1339128}, {"type": "node", "id": 2974625246, "lat": 19.5017788, "lon": -99.1338883}, {"type": "node", "id": 2974625247, "lat": 19.5018669, "lon": -99.1338708}, {"type": "node", "id": 2974625248, "lat": 19.5025172, "lon": -99.1338606}, {"type": "node", "id": 2974625249, "lat": 19.5023923, "lon": -99.1338836}, {"type": "node", "id": 2974625250, "lat": 19.5023612, "lon": -99.1336927}, {"type": "node", "id": 2974625251, "lat": 19.5024861, "lon": -99.1336698}, {"type": "node", "id": 2981642741, "lat": 19.4302864, "lon": -99.1969769, "tags": {"addr:city": "Ciudad de M\u00e9xico", "addr:country": "MX", "addr:housenumber": "107", "addr:postcode": "11550", "addr:street": "Avenida Emilio Castelar", "amenity": "cafe", "cuisine": "coffee_shop", "internet_access": "wlan", "name": "Finca Kafeto", "outdoor_seating": "yes", "smoking": "outside"}}, {"type": "node", "id": 3003820822, "lat": 19.3290672, "lon": -99.1122871, "tags": {"amenity": "cafe"}}, {"type": "node", "id": 3028723033, "lat": 19.3740845, "lon": -99.1786063, "tags": {"amenity": "cafe", "brand": "Starbucks", "brand:wikidata": "Q37158", "cuisine": "coffee_shop", "internet_access": "yes", "name": "Starbucks", "official_name": "Starbucks Coffee", "takeaway": "yes"}}, {"type": "node", "id": 3045991220, "lat": 19.3687924, "lon": -99.2638085, "tags": {"amenity": "cafe", "cuisine": "coffee_shop", "internet_access": "yes", "name": "La Karpa", "smoking": "no", "wheelchair": "yes"}}, {"type": "node", "id": 3048159910, "lat": 19.3809246, "lon": -99.1679333, "tags": {"amenity": "cafe", "internet_access": "yes", "name": "Bajo Cero"}}, {"type": "node", "id": 3089688256, "lat": 19.4797531, "lon": -99.187644, "tags": {"amenity": "cafe", "cuisine": "ice_cream", "internet_access": "no", "name": "Santa Clara", "smoking": "no"}}, {"type": "node", "id": 3262187768, "lat": 19.3852282, "lon": -99.1552107, "tags": {"addr:housenumber": "420A", "addr:street": "Avenida Universidad", "amenity": "cafe", "name": "Alma Negra Caf\u00e9"}}, {"type": "node", "id": 3262187769, "lat": 19.3851966, "lon": -99.1552308, "tags": {"amenity": "cafe", "name": "Almanegra Caf\u00e9"}}, {"type": "node", "id": 3380713563, "lat": 19.2524906, "lon": -99.1736274, "tags": {"addr:street": "Reforma", "amenity": "cafe", "cuisine": "coffee_shop", "name": "Cafe del Pueblo"}}, {"type": "node", "id": 3383901541, "lat": 19.431968, "lon": -99.1291533, "tags": {"amenity": "cafe"}}, {"type": "node", "id": 3409742374, "lat": 19.4141984, "lon": -99.1583483, "tags": {"addr:housenumber": "90", "addr:street": "San Luis Potos\u00ed", "amenity": "cafe", "name": "Monona Roma", "phone": "67188888", "website": "@mononaroma"}}, {"type": "node", "id": 3415317582, "lat": 19.4137472, "lon": -99.1696156, "tags": {"amenity": "cafe", "brand": "Gloria Jean's", "brand:wikidata": "Q2666365", "brand:wikipedia": "en:Gloria Jean's Coffees", "cuisine": "coffee_shop", "name": "Gloria Jean's", "official_name": "Gloria Jean's Coffees", "opening_hours": "6:30-22:30", "smoking": "outside", "takeaway": "yes"}}, {"type": "node", "id": 3425955982, "lat": 19.5082652, "lon": -99.1321666}, {"type": "node", "id": 3425955984, "lat": 19.5082785, "lon": -99.1319988}, {"type": "node", "id": 3425955985, "lat": 19.5083452, "lon": -99.1321106}, {"type": "node", "id": 3426177399, "lat": 19.3493544, "lon": -99.1699697, "tags": {"addr:city": "M\u00e9xico D.F.", "addr:housenumber": "291", "addr:postcode": "04010", "addr:street": "Venustiano Carranza", "amenity": "cafe", "cuisine": "cafe;bakery", "name": "Cocoa Coyoac\u00e1n II", "opening_hours": "Mo-We 07:30-20:30; Sa 07:30-20:00", "phone": "01 55 5554 6528"}}, {"type": "node", "id": 3442137725, "lat": 19.4241547, "lon": -99.1952423}, {"type": "node", "id": 3442137726, "lat": 19.4240101, "lon": -99.195273}, {"type": "node", "id": 3442137727, "lat": 19.4240533, "lon": -99.1955288}, {"type": "node", "id": 3442137728, "lat": 19.4242071, "lon": -99.195494}, {"type": "node", "id": 3443102106, "lat": 19.374147, "lon": -99.1628891, "tags": {"addr:city": "distrito federal", "addr:housenumber": "767", "addr:postcode": "03100", "addr:street": "Avenida Universidad", "amenity": "cafe", "cuisine": "coffee_shop", "name": "El Ocho_Cafe recreativo", "note": "Hay Desayunos, Ensalada, pizzas, Sopas, Pasta, Hamburguesas y Carpaccio.", "phone": "+52 55 56044828"}}, {"type": "node", "id": 3443373504, "lat": 19.3774016, "lon": -99.1607992, "tags": {"addr:housenumber": "1000", "addr:street": "Avenida Universidad", "amenity": "cafe", "name": "Cielito Querido Caf\u00e9"}}, {"type": "node", "id": 3443941006, "lat": 19.3628921, "lon": -99.1822729, "tags": {"addr:housenumber": "1630", "addr:street": "Avenida Insurgentes Sur", "amenity": "cafe", "brand": "Le Pain Quotidien", "brand:wikidata": "Q2046903", "cuisine": "coffee_shop", "delivery": "no", "name": "Le Pain Quotidien", "phone": "55 5661 9314", "smoking": "no", "takeaway": "yes", "website": "http://www.lepainquotidien.mx/"}}, {"type": "node", "id": 3443941008, "lat": 19.3575041, "lon": -99.1846744, "tags": {"amenity": "cafe", "cuisine": "sandwich,_burger,_cafe", "name": "Garko Caf\u00e9 Cultural", "opening_hours": "Mo-Fr 07:00-22:00, Sa-Su 09:00-17:00", "phone": "55 5661 9175", "website": "http://www.garko.com.mx/"}}, {"type": "node", "id": 3444187995, "lat": 19.3754747, "lon": -99.1779462, "tags": {"amenity": "cafe", "brand": "Starbucks", "brand:wikidata": "Q37158", "cuisine": "coffee_shop", "name": "Starbucks", "official_name": "Starbucks Coffee", "takeaway": "yes"}}, {"type": "node", "id": 3445306342, "lat": 19.412293, "lon": -99.1634217, "tags": {"addr:housenumber": "157", "addr:street": "Chiapas", "amenity": "cafe", "cuisine": "Bakery,_tea,_dessert", "name": "Patisserie Dominique", "opening_hours": "Tu-Sa 07:30-18:30, Su 09:00-14:00", "phone": "55 5564 2010", "website": "https://www.facebook.com/PatisserieDominique"}}, {"type": "node", "id": 3445441092, "lat": 19.3958304, "lon": -99.1663449, "tags": {"addr:housenumber": "Local 237", "addr:postcode": "03100", "amenity": "cafe", "name": "Caf\u00e9 Passmar", "opening_hours": "Mo-Sa 07:30-19:30", "phone": "55 5669 1994", "website": "http://www.cafepassmar.com/"}}, {"type": "node", "id": 3446442705, "lat": 19.3942167, "lon": -99.1726376, "tags": {"amenity": "cafe", "brand": "Starbucks", "brand:wikidata": "Q37158", "cuisine": "coffee_shop", "name": "Starbucks", "official_name": "Starbucks Coffee", "takeaway": "yes"}}, {"type": "node", "id": 3447172754, "lat": 19.3948769, "lon": -99.1740961, "tags": {"amenity": "cafe", "brand": "Starbucks", "brand:wikidata": "Q37158", "brand:wikipedia": "en:Starbucks", "cuisine": "coffee_shop", "name": "Starbucks", "official_name": "Starbucks Coffee", "takeaway": "yes"}}, {"type": "node", "id": 3484587994, "lat": 19.378461, "lon": -99.1581623, "tags": {"amenity": "cafe"}}, {"type": "node", "id": 3487935703, "lat": 19.3738791, "lon": -99.1630563, "tags": {"amenity": "cafe", "brand": "Starbucks", "brand:wikidata": "Q37158", "brand:wikipedia": "en:Starbucks", "cuisine": "coffee_shop", "name": "Starbucks", "official_name": "Starbucks Coffee", "takeaway": "yes"}}, {"type": "node", "id": 3492948616, "lat": 19.3401485, "lon": -99.1900162, "tags": {"amenity": "cafe", "brand": "Starbucks", "brand:wikidata": "Q37158", "brand:wikipedia": "en:Starbucks", "cuisine": "coffee_shop", "internet_access": "wlan", "internet_access:fee": "customers", "name": "Starbucks", "official_name": "Starbucks Coffee", "takeaway": "yes"}}, {"type": "node", "id": 3507957514, "lat": 19.417799, "lon": -99.1022295, "tags": {"addr:city": "Ciudad de M\u00e9xico", "addr:postcode": "15900", "addr:street": "Diagonal", "amenity": "cafe", "brand": "Starbucks", "brand:wikidata": "Q37158", "brand:wikipedia": "en:Starbucks", "cuisine": "coffee_shop", "description": "Starbucks Cafe", "internet_access": "yes", "internet_access:fee": "no", "name": "Starbucks", "official_name": "Starbucks Coffee", "opening_hours": "Mo-Su 10:00-22:00", "outdoor_seating": "yes", "smoking": "outside", "takeaway": "yes", "wheelchair": "yes"}}, {"type": "node", "id": 3517364982, "lat": 19.3127388, "lon": -99.1362888, "tags": {"amenity": "cafe", "brand": "Starbucks", "brand:wikidata": "Q37158", "brand:wikipedia": "en:Starbucks", "cuisine": "coffee_shop", "internet_access": "wlan", "name": "Starbucks", "official_name": "Starbucks Coffee", "takeaway": "yes"}}, {"type": "node", "id": 3536401538, "lat": 19.3883967, "lon": -99.1519041, "tags": {"addr:city": "Ciudad de M\u00e9xico", "addr:housenumber": "903-A", "addr:street": "Avenida Dr. Jos\u00e9 Maria Vertiz", "amenity": "cafe", "cuisine": "coffee_shop", "name": "Apapacho Caf\u00e9"}}, {"type": "node", "id": 3586461657, "lat": 19.352382, "lon": -99.1634805, "tags": {"amenity": "cafe", "name": "El Jarocho"}}, {"type": "node", "id": 3649527396, "lat": 19.4059713, "lon": -99.1716257, "tags": {"amenity": "cafe", "name": "Bola de Oro", "website": "https://www.boladeoro.com.mx/"}}, {"type": "node", "id": 3649527397, "lat": 19.4064022, "lon": -99.1717397, "tags": {"amenity": "cafe", "brand": "Starbucks", "brand:wikidata": "Q37158", "brand:wikipedia": "en:Starbucks", "cuisine": "coffee_shop", "internet_access": "wlan", "name": "Starbucks", "official_name": "Starbucks Coffee", "takeaway": "yes"}}, {"type": "node", "id": 3649569754, "lat": 19.4305623, "lon": -99.1380405, "tags": {"addr:city": "Ciudad de M\u00e9xico", "addr:housenumber": "45", "addr:street": "Rep\u00fablica de Uruguay", "amenity": "cafe", "name": "Caf\u00e9 Emir"}}, {"type": "node", "id": 3657221917, "lat": 19.3841182, "lon": -99.0829431, "tags": {"addr:city": "Distrito Federal", "addr:housenumber": "1512", "addr:postcode": "09020", "addr:street": "Avenida Canal de Tezontle", "amenity": "cafe", "brand": "Starbucks", "brand:wikidata": "Q37158", "brand:wikipedia": "en:Starbucks", "cuisine": "coffee_shop", "internet_access": "wlan", "name": "Starbucks", "name:it": "Starbucks", "official_name": "Starbucks Coffee", "smoking": "no", "takeaway": "yes"}}, {"type": "node", "id": 3676904709, "lat": 19.4097181, "lon": -99.1729106, "tags": {"addr:city": "Ciudad de M\u00e9xico", "addr:country": "MX", "addr:postcode": "06100", "addr:street": "Avenida Nuevo Le\u00f3n", "amenity": "cafe", "internet_access": "wlan", "name": "Manduca"}}, {"type": "node", "id": 3676937925, "lat": 19.512487, "lon": -99.1373061}, {"type": "node", "id": 3676937926, "lat": 19.5124149, "lon": -99.1373775}, {"type": "node", "id": 3676937927, "lat": 19.5123467, "lon": -99.1372946}, {"type": "node", "id": 3676937928, "lat": 19.5124181, "lon": -99.1372236}, {"type": "node", "id": 3677657438, "lat": 19.4121767, "lon": -99.1735455, "tags": {"addr:housenumber": "61", "addr:street": "Avenida Tamaulipas", "amenity": "cafe", "brand": "Juan Valdez Caf\u00e9", "brand:wikidata": "Q6301102", "brand:wikipedia": "en:Juan Valdez Caf\u00e9", "cuisine": "coffee_shop", "internet_access": "yes", "name": "Juan Valdez Caf\u00e9", "shop": "coffee", "takeaway": "yes"}}, {"type": "node", "id": 3740432409, "lat": 19.4314654, "lon": -99.1827994, "tags": {"amenity": "cafe", "brand": "Starbucks", "brand:wikidata": "Q37158", "brand:wikipedia": "en:Starbucks", "cuisine": "coffee_shop", "internet_access": "yes", "name": "Starbucks", "official_name": "Starbucks Coffee", "source": "local knowledge", "takeaway": "yes"}}, {"type": "node", "id": 3750094509, "lat": 19.3074737, "lon": -99.2474959, "tags": {"amenity": "cafe"}}, {"type": "node", "id": 3750094524, "lat": 19.3073117, "lon": -99.2479787, "tags": {"amenity": "cafe"}}, {"type": "node", "id": 3750979959, "lat": 19.4312208, "lon": -99.1847521, "tags": {"amenity": "cafe", "cuisine": "coffee_shop", "name": "Garat", "source": "local knowledge"}}, {"type": "node", "id": 3750979963, "lat": 19.4326483, "lon": -99.1832856, "tags": {"addr:city": "Ciudad de M\u00e9xico", "addr:country": "MX", "addr:housenumber": "313", "addr:postcode": "11570", "addr:street": "Calle Torcuato Tasso", "amenity": "cafe", "cuisine": "ice_cream", "name": "Santa Clara", "source": "local knowledge"}}, {"type": "node", "id": 3754917231, "lat": 19.2980835, "lon": -99.1310035, "tags": {"amenity": "cafe", "brand": "Starbucks", "brand:wikidata": "Q37158", "cuisine": "coffee_shop", "name": "Starbucks", "official_name": "Starbucks Coffee", "takeaway": "yes"}}, {"type": "node", "id": 3769867814, "lat": 19.4013558, "lon": -99.1474132, "tags": {"amenity": "cafe"}}, {"type": "node", "id": 3769868664, "lat": 19.401127, "lon": -99.1476709, "tags": {"amenity": "cafe", "name": "Turco's Coffee"}}, {"type": "node", "id": 3772194040, "lat": 19.3616503, "lon": -99.1219564, "tags": {"amenity": "cafe", "name": "Cafeteria de Co"}}, {"type": "node", "id": 3772280290, "lat": 19.3618101, "lon": -99.12085, "tags": {"amenity": "cafe", "name": "La Casa del Gato"}}, {"type": "node", "id": 3775504275, "lat": 19.3009737, "lon": -99.1162437, "tags": {"amenity": "cafe"}}, {"type": "node", "id": 3776008570, "lat": 19.3934764, "lon": -99.144418, "tags": {"amenity": "cafe"}}, {"type": "node", "id": 3777034201, "lat": 19.3440686, "lon": -99.1607476, "tags": {"addr:street": "Avenida Miguel \u00c1ngel de Quevedo", "amenity": "cafe", "cuisine": "coffee_shop", "internet_access": "yes", "name": "Caf\u00e9 La Victoria"}}, {"type": "node", "id": 3777061262, "lat": 19.3357249, "lon": -99.1807499, "tags": {"amenity": "cafe", "cuisine": "coffee_shop", "internet_access": "yes", "name": "BB & BB"}}, {"type": "node", "id": 3777786242, "lat": 19.39405, "lon": -99.1722083, "tags": {"amenity": "cafe", "cuisine": "crepas_y_cafe", "name": "Dilicia"}}, {"type": "node", "id": 3779091557, "lat": 19.2644912, "lon": -99.1191019, "tags": {"amenity": "cafe", "name": "Cafeteria"}}, {"type": "node", "id": 3779138323, "lat": 19.4011151, "lon": -99.1492209, "tags": {"amenity": "cafe", "name": "Grela Cafe"}}, {"type": "node", "id": 3779151833, "lat": 19.3912995, "lon": -99.1770549, "tags": {"amenity": "cafe", "name": "Debarbas"}}, {"type": "node", "id": 3779151837, "lat": 19.3891191, "lon": -99.1760509, "tags": {"amenity": "cafe", "brand": "Le Pain Quotidien", "brand:wikidata": "Q2046903", "cuisine": "coffee_shop", "name": "Le Pain Quotidien", "shop": "bakery", "takeaway": "yes"}}, {"type": "node", "id": 3779151840, "lat": 19.3899046, "lon": -99.1784813, "tags": {"amenity": "cafe", "brand": "Starbucks", "brand:wikidata": "Q37158", "cuisine": "coffee_shop", "name": "Starbucks", "official_name": "Starbucks Coffee", "takeaway": "yes"}}, {"type": "node", "id": 3779168314, "lat": 19.4002312, "lon": -99.1549887, "tags": {"amenity": "cafe", "name": "Cafe Emic"}}, {"type": "node", "id": 3779351826, "lat": 19.3974478, "lon": -99.1528327, "tags": {"amenity": "cafe", "branch": "Esmeralda", "brand": "Costa", "brand:wikidata": "Q608845", "cuisine": "coffee_shop", "name": "Costa", "takeaway": "yes"}}, {"type": "node", "id": 3779353458, "lat": 19.3991812, "lon": -99.152044, "tags": {"amenity": "cafe", "name": "LeManie"}}, {"type": "node", "id": 3779387429, "lat": 19.4000041, "lon": -99.1484582, "tags": {"amenity": "cafe"}}, {"type": "node", "id": 3779387435, "lat": 19.3994436, "lon": -99.1497779, "tags": {"amenity": "cafe", "name": "Los Amigos"}}, {"type": "node", "id": 3779387440, "lat": 19.4003087, "lon": -99.1482949, "tags": {"amenity": "cafe"}}, {"type": "node", "id": 3779387446, "lat": 19.3999737, "lon": -99.1487061, "tags": {"amenity": "cafe"}}, {"type": "node", "id": 3779387449, "lat": 19.3998123, "lon": -99.1488623, "tags": {"amenity": "cafe", "description": "Cafe, Bar Foro Galeria Libroclub", "name": "La Gaya Scienza"}}, {"type": "node", "id": 3779390397, "lat": 19.3996851, "lon": -99.1475516, "tags": {"amenity": "cafe", "name": "Cafe Son Son de Cafe"}}, {"type": "node", "id": 3779658224, "lat": 19.310659, "lon": -99.1592969, "tags": {"amenity": "cafe"}}, {"type": "node", "id": 3779665504, "lat": 19.3114139, "lon": -99.1604297, "tags": {"amenity": "cafe"}}, {"type": "node", "id": 3779674980, "lat": 19.3115796, "lon": -99.1610028, "tags": {"amenity": "cafe"}}, {"type": "node", "id": 3779689206, "lat": 19.3112472, "lon": -99.1626313, "tags": {"amenity": "cafe"}}, {"type": "node", "id": 3779780887, "lat": 19.3096768, "lon": -99.1560817, "tags": {"amenity": "cafe"}}, {"type": "node", "id": 3779780889, "lat": 19.3099593, "lon": -99.1578487, "tags": {"amenity": "cafe"}}, {"type": "node", "id": 3789508640, "lat": 19.3916522, "lon": -99.150613, "tags": {"amenity": "cafe"}}, {"type": "node", "id": 3789508653, "lat": 19.3980548, "lon": -99.1483207, "tags": {"amenity": "cafe"}}, {"type": "node", "id": 3789608510, "lat": 19.3980716, "lon": -99.1506232, "tags": {"amenity": "cafe"}}, {"type": "node", "id": 3789608520, "lat": 19.3953359, "lon": -99.1508654, "tags": {"amenity": "cafe"}}, {"type": "node", "id": 3789659760, "lat": 19.394967, "lon": -99.152377, "tags": {"amenity": "cafe"}}, {"type": "node", "id": 3789659761, "lat": 19.3963775, "lon": -99.1511714, "tags": {"amenity": "cafe"}}, {"type": "node", "id": 3789659768, "lat": 19.3940324, "lon": -99.1524082, "tags": {"amenity": "cafe"}}, {"type": "node", "id": 3789659770, "lat": 19.3952782, "lon": -99.1501076, "tags": {"amenity": "cafe"}}, {"type": "node", "id": 3789674491, "lat": 19.3882923, "lon": -99.1492486, "tags": {"amenity": "cafe"}}, {"type": "node", "id": 3789674496, "lat": 19.3917979, "lon": -99.1573017, "tags": {"amenity": "cafe"}}, {"type": "node", "id": 3789674498, "lat": 19.3920307, "lon": -99.1467145, "tags": {"amenity": "cafe"}}, {"type": "node", "id": 3802632432, "lat": 19.4168631, "lon": -99.1171619, "tags": {"addr:city": "Venustiano Carranza", "addr:country": "MX", "addr:housenumber": "4358", "addr:street": "Lorenzo Boturini", "amenity": "cafe", "name": "El Principio Cafe", "opening_hours": "09:00-00:30"}}, {"type": "node", "id": 3802797171, "lat": 19.4509428, "lon": -99.159734, "tags": {"addr:city": "Ciudad de M\u00e9xico", "addr:housenumber": "158", "addr:postcode": "06400", "addr:street": "Calle Sabino", "amenity": "cafe", "cuisine": "coffee_shop", "name": "Bello Caf\u00e9", "opening_hours": "09:00-22:00"}}, {"type": "node", "id": 3803090012, "lat": 19.4190192, "lon": -99.1169438, "tags": {"addr:housenumber": "1422", "addr:street": "Sur 103", "amenity": "cafe", "name": "Caf\u00e9 los Alcatraces", "opening_hours": "10:00-22:00"}}, {"type": "node", "id": 3803090014, "lat": 19.4194904, "lon": -99.1166158, "tags": {"addr:city": "Venustiano Carranza", "addr:housenumber": "1407", "addr:street": "Sur 105", "amenity": "cafe", "name": "La Ocurrencia Helados a la plancha", "opening_hours": "14:00-22:00"}}, {"type": "node", "id": 3803114480, "lat": 19.416909, "lon": -99.115255, "tags": {"addr:city": "Venustiano Carranza", "addr:country": "MX", "addr:housenumber": "300", "addr:postcode": "15900", "addr:street": "Lic. Lazaro Pavia", "amenity": "cafe", "cuisine": "pastries", "level": "ground floor (0)", "name": "El Globo Balbuena", "opening_hours": "8:00-21:30"}}, {"type": "node", "id": 3803139251, "lat": 19.4166015, "lon": -99.1151629, "tags": {"addr:city": "Venustiano Carranza", "addr:country": "MX", "addr:housenumber": "635", "addr:postcode": "15900", "addr:street": "Lorenzo Boturini", "amenity": "cafe", "name": "Endora Cafeteria", "opening_hours": "12:00-18:30", "phone": "+52 55 6550 3519"}}, {"type": "node", "id": 3803151620, "lat": 19.4485274, "lon": -99.1567531, "tags": {"addr:city": "Ciudad de M\u00e9xico", "addr:housenumber": "96", "addr:postcode": "06400", "addr:street": "Salvador Diaz Mir\u00f3n", "amenity": "cafe", "name": "Alameda"}}, {"type": "node", "id": 3803155139, "lat": 19.446609, "lon": -99.1573056, "tags": {"addr:city": "Ciudad de M\u00e9xico", "addr:housenumber": "111", "addr:postcode": "06400", "addr:street": "Santa Mar\u00eda Ribera", "amenity": "cafe", "name": "Caf\u00e9 The News"}}, {"type": "node", "id": 3803162091, "lat": 19.4457629, "lon": -99.1574532, "tags": {"addr:city": "Ciudad de M\u00e9xico", "addr:housenumber": "91", "addr:postcode": "06400", "addr:street": "Santa Maria Ribera", "amenity": "cafe", "name": "Cafe con Arte"}}, {"type": "node", "id": 3805401658, "lat": 19.419867, "lon": -99.1606547}, {"type": "node", "id": 3805401659, "lat": 19.4198809, "lon": -99.1605089}, {"type": "node", "id": 3806156061, "lat": 19.3352459, "lon": -99.1806755, "tags": {"addr:city": "Ciudad de M\u00e9xico", "addr:housenumber": "69 B", "addr:postcode": "04360", "addr:street": "Odontolog\u00eda", "amenity": "cafe", "name": "Caf\u00e9 R\u00e9bora", "opening_hours": "Mo-Fr 7:00-21:30; Sa 8:00-16:30", "smoking": "no", "website": "https://www.facebook.com/Caf%C3%A9-R%C3%A9bora-376597155838214/?fref=ts", "wheelchair": "no"}}, {"type": "node", "id": 3814801927, "lat": 19.4109597, "lon": -99.1680593, "tags": {"amenity": "cafe", "cuisine": "Frutos Prohibidos"}}, {"type": "node", "id": 3872277126, "lat": 19.4252403, "lon": -99.1769436, "tags": {"amenity": "cafe", "brand": "Starbucks", "brand:wikidata": "Q37158", "brand:wikipedia": "en:Starbucks", "cuisine": "coffee_shop", "name": "Starbucks", "official_name": "Starbucks Coffee", "takeaway": "yes"}}, {"type": "node", "id": 3916786696, "lat": 19.2827297, "lon": -99.1645925, "tags": {"amenity": "cafe", "brand": "Starbucks", "brand:wikidata": "Q37158", "brand:wikipedia": "en:Starbucks", "cuisine": "coffee_shop", "name": "Starbucks", "official_name": "Starbucks Coffee", "takeaway": "yes"}}, {"type": "node", "id": 3950804705, "lat": 19.3595934, "lon": -99.0715126, "tags": {"amenity": "cafe", "name": "Coffe Connection"}}, {"type": "node", "id": 3954647606, "lat": 19.3699625, "lon": -99.0723262, "tags": {"addr:city": "Iztapalapa", "addr:postcode": "09300", "addr:street": "Ignacio Allende", "amenity": "cafe", "cuisine": "cafe", "internet_access": "yes", "name": "Caffe Larte", "opening_hours": "Mo-Su 11:30-22:30", "smoking": "outside"}}, {"type": "node", "id": 3954666547, "lat": 19.3699496, "lon": -99.0723193, "tags": {"amenity": "cafe", "name": "KUAPIK Cafe Tostado"}}, {"type": "node", "id": 3974576865, "lat": 19.4121413, "lon": -99.1735156, "tags": {"amenity": "cafe", "brand": "Juan Valdez Caf\u00e9", "brand:wikidata": "Q6301102", "brand:wikipedia": "en:Juan Valdez Caf\u00e9", "cuisine": "coffee_shop", "name": "Juan Valdez Caf\u00e9", "shop": "coffee", "takeaway": "yes"}}, {"type": "node", "id": 4009123359, "lat": 19.4454763, "lon": -99.1060251}, {"type": "node", "id": 4009123360, "lat": 19.4455653, "lon": -99.10599}, {"type": "node", "id": 4009123700, "lat": 19.4455285, "lon": -99.106174}, {"type": "node", "id": 4009123701, "lat": 19.4456175, "lon": -99.1061389}, {"type": "node", "id": 4009126190, "lat": 19.4198343, "lon": -99.14012, "tags": {"amenity": "cafe", "cuisine": "coffee_shop", "internet_access": "yes", "name": "Jarocho"}}, {"type": "node", "id": 4022980082, "lat": 19.3250709, "lon": -99.1850659}, {"type": "node", "id": 4022980083, "lat": 19.3250108, "lon": -99.1849913}, {"type": "node", "id": 4022980084, "lat": 19.3252188, "lon": -99.1848031}, {"type": "node", "id": 4022980085, "lat": 19.3252789, "lon": -99.1848777}, {"type": "node", "id": 4036640829, "lat": 19.3778888, "lon": -99.1714264, "tags": {"amenity": "cafe", "diet:vegetarian": "yes", "name": "The Coffee Company", "opening_hours": "Mo-Su,PH 08:00-22:30", "wheelchair": "no"}}, {"type": "node", "id": 4036863109, "lat": 19.3866677, "lon": -99.1729362, "tags": {"amenity": "cafe", "name": "Ann's Bakery"}}, {"type": "node", "id": 4036894579, "lat": 19.3865967, "lon": -99.1726313, "tags": {"amenity": "cafe", "name": "La Finca"}}, {"type": "node", "id": 4036934524, "lat": 19.3857027, "lon": -99.1690405, "tags": {"amenity": "cafe", "name": "Flavourite"}}, {"type": "node", "id": 4037011021, "lat": 19.3899302, "lon": -99.1726184, "tags": {"amenity": "cafe", "name": "Dorell"}}, {"type": "node", "id": 4037023394, "lat": 19.3902658, "lon": -99.1697511, "tags": {"amenity": "cafe", "name": "Santa Clara"}}, {"type": "node", "id": 4037027656, "lat": 19.3884817, "lon": -99.1686408, "tags": {"amenity": "cafe", "name": "Caf\u00e9 Del Valle"}}, {"type": "node", "id": 4055689103, "lat": 19.3617009, "lon": -99.144931, "tags": {"addr:city": "Ciudad de M\u00e9xico", "addr:housenumber": "70", "addr:street": "Pirineos", "amenity": "cafe", "cuisine": "sandwich", "internet_access": "yes", "name": "Cafetop\u00eda", "opening_hours": "Mo-Sa 08:00-21:00", "smoking": "outside"}}, {"type": "node", "id": 4055689104, "lat": 19.3630115, "lon": -99.1461283, "tags": {"amenity": "cafe", "internet_access": "wlan", "name": "El Callej\u00f3n"}}, {"type": "node", "id": 4066846459, "lat": 19.3756024, "lon": -99.1538214, "tags": {"addr:city": "Ciudad de M\u00e9xico", "addr:housenumber": "1274", "addr:street": "Avenida Doctor Jos\u00e9 Mar\u00eda V\u00e9rtiz", "amenity": "cafe", "name": "Cafe El Silo Vertiz", "phone": "55 5674 0276"}}, {"type": "node", "id": 4070528797, "lat": 19.4018314, "lon": -99.1598157, "tags": {"amenity": "cafe", "brand": "Starbucks", "brand:wikidata": "Q37158", "brand:wikipedia": "en:Starbucks", "cuisine": "coffee_shop", "name": "Starbucks", "official_name": "Starbucks Coffee", "takeaway": "yes"}}, {"type": "node", "id": 4072770229, "lat": 19.36577, "lon": -99.1721897, "tags": {"amenity": "cafe", "brand": "Starbucks", "brand:wikidata": "Q37158", "cuisine": "coffee_shop", "name": "Starbucks", "official_name": "Starbucks Coffee", "takeaway": "yes"}}, {"type": "node", "id": 4081638496, "lat": 19.4336348, "lon": -99.136783, "tags": {"amenity": "cafe", "brand": "Starbucks", "brand:wikidata": "Q37158", "brand:wikipedia": "en:Starbucks", "cuisine": "coffee_shop", "name": "Starbucks", "official_name": "Starbucks Coffee", "takeaway": "yes"}}, {"type": "node", "id": 4101116891, "lat": 19.3620048, "lon": -99.1488215, "tags": {"addr:city": "Ciudad de M\u00e9xico", "addr:housenumber": "81", "addr:street": "Ajusco", "amenity": "cafe", "cuisine": "cake;coffee_shop", "internet_access": "wlan", "name": "Caf\u00e9 Moreno", "opening_hours": "Mo-Su 10:00-22:00"}}, {"type": "node", "id": 4103943390, "lat": 19.4069519, "lon": -99.1730167, "tags": {"addr:city": "Ciudad de M\u00e9xico", "addr:housenumber": "232", "addr:postcode": "06100", "addr:street": "Calle Alfonso Reyes", "amenity": "cafe", "internet_access": "wlan", "name": "Chiquitito Caf\u00e9", "opening_hours": "Mo-Fr 07:30-20:30, Su 08:30-19:00, Sa 07:30-20:30", "phone": "+525552116123", "website": "http://www.chiquititocafe.com/"}}, {"type": "node", "id": 4123980678, "lat": 19.4268673, "lon": -99.1589627, "tags": {"addr:city": "Ciudad de M\u00e9xico", "addr:housenumber": "66", "addr:postcode": "06600", "addr:street": "Liverpool", "amenity": "cafe", "cuisine": "coffee_shop", "internet_access": "wlan", "name": "Distrito Fijo Club de Ciclismo", "smoking": "outside", "wholesale": "bicycles"}}, {"type": "node", "id": 4123990590, "lat": 19.4056059, "lon": -99.1700994, "tags": {"addr:city": "Ciudad de M\u00e9xico", "addr:housenumber": "5", "addr:postcode": "06100", "addr:street": "Villahemosa", "amenity": "cafe", "internet_access": "no", "name": "Arrebato Caf\u00e9"}}, {"type": "node", "id": 4139667690, "lat": 19.3061293, "lon": -99.1659626, "tags": {"amenity": "cafe", "name": "Santa Clara"}}, {"type": "node", "id": 4141968019, "lat": 19.2964787, "lon": -99.2413689}, {"type": "node", "id": 4141968031, "lat": 19.2964655, "lon": -99.2414189}, {"type": "node", "id": 4141968032, "lat": 19.2964287, "lon": -99.2414341}, {"type": "node", "id": 4141968033, "lat": 19.2963941, "lon": -99.2414412}, {"type": "node", "id": 4141968034, "lat": 19.2963711, "lon": -99.2414311}, {"type": "node", "id": 4141968035, "lat": 19.2963635, "lon": -99.2414229}, {"type": "node", "id": 4141968036, "lat": 19.2963615, "lon": -99.2413965}, {"type": "node", "id": 4141968037, "lat": 19.2963778, "lon": -99.241367}, {"type": "node", "id": 4141968038, "lat": 19.2964036, "lon": -99.2413565}, {"type": "node", "id": 4141968039, "lat": 19.2964124, "lon": -99.2413572}, {"type": "node", "id": 4141968040, "lat": 19.2964239, "lon": -99.2413762}, {"type": "node", "id": 4141968041, "lat": 19.2964306, "lon": -99.2413863}, {"type": "node", "id": 4141968042, "lat": 19.296445, "lon": -99.2413863}, {"type": "node", "id": 4141968043, "lat": 19.2964575, "lon": -99.2413813}, {"type": "node", "id": 4141968044, "lat": 19.2964633, "lon": -99.2413622}, {"type": "node", "id": 4148047313, "lat": 19.3520776, "lon": -99.1630246, "tags": {"amenity": "cafe", "cuisine": "coffee_shop", "internet_access": "yes", "name": "El Mundo del Caf\u00e9", "opening_hours": "07:00-23:00", "smoking": "no"}}, {"type": "node", "id": 4148050793, "lat": 19.3514814, "lon": -99.1636498, "tags": {"addr:city": "Ciudad de M\u00e9xico", "addr:housenumber": "33", "addr:postcode": "04100", "addr:street": "Calle Centenario", "amenity": "cafe", "cuisine": "coffee_shop", "internet_access": "yes", "name": "El Mundo del Caf\u00e9", "opening_hours": "07:00-23:00", "smoking": "separated"}}, {"type": "node", "id": 4154583193, "lat": 19.4551314, "lon": -99.1435224, "tags": {"amenity": "cafe", "name": "Retrocaf\u00e9"}}, {"type": "node", "id": 4156669245, "lat": 19.36062, "lon": -99.152457, "tags": {"amenity": "cafe", "name": "Caf\u00e9 Puro Caf\u00e9"}}, {"type": "node", "id": 4156700092, "lat": 19.4336642, "lon": -99.138514, "tags": {"amenity": "cafe", "brand": "Starbucks", "brand:wikidata": "Q37158", "brand:wikipedia": "en:Starbucks", "cuisine": "coffee_shop", "name": "Starbucks", "official_name": "Starbucks Coffee", "takeaway": "yes"}}, {"type": "node", "id": 4156712497, "lat": 19.4319154, "lon": -99.1349765, "tags": {"amenity": "cafe", "brand": "Starbucks", "brand:wikidata": "Q37158", "brand:wikipedia": "en:Starbucks", "cuisine": "coffee_shop", "name": "Starbucks", "official_name": "Starbucks Coffee", "takeaway": "yes"}}, {"type": "node", "id": 4156725718, "lat": 19.4329179, "lon": -99.14014, "tags": {"amenity": "cafe", "name": "Cielito Querido Caf\u00e9"}}, {"type": "node", "id": 4156725721, "lat": 19.4343673, "lon": -99.1432165, "tags": {"addr:housenumber": "32", "addr:street": "Avenida Ju\u00e1rez", "amenity": "cafe", "brand": "Starbucks", "brand:wikidata": "Q37158", "brand:wikipedia": "en:Starbucks", "cuisine": "coffee_shop", "name": "Starbucks", "official_name": "Starbucks Coffee", "takeaway": "yes"}}, {"type": "node", "id": 4160266490, "lat": 19.4534551, "lon": -99.1414585, "tags": {"amenity": "cafe", "name": "Late Caf\u00e9"}}, {"type": "node", "id": 4162393492, "lat": 19.3605437, "lon": -99.1704102, "tags": {"amenity": "cafe", "internet_access": "wlan", "name": "Cielito Querido Caf\u00e9"}}, {"type": "node", "id": 4162397091, "lat": 19.3512121, "lon": -99.1616154, "tags": {"amenity": "cafe"}}, {"type": "node", "id": 4162398397, "lat": 19.3495848, "lon": -99.1630948, "tags": {"amenity": "cafe", "name": "Caf\u00e9 del Barrio Viejo"}}, {"type": "node", "id": 4162398399, "lat": 19.3495892, "lon": -99.160729, "tags": {"amenity": "cafe", "name": "Tostare Caf\u00e9"}}, {"type": "node", "id": 4162398405, "lat": 19.4021464, "lon": -99.1526803, "tags": {"amenity": "cafe", "name": "Paoletas"}}, {"type": "node", "id": 4164067491, "lat": 19.4266318, "lon": -99.1515217, "tags": {"amenity": "cafe", "name": "La buena taza"}}, {"type": "node", "id": 4164069190, "lat": 19.426742, "lon": -99.1509908, "tags": {"amenity": "cafe", "name": "3/8 Loft Caf\u00e9"}}, {"type": "node", "id": 4164069289, "lat": 19.4267937, "lon": -99.1507858, "tags": {"amenity": "cafe", "name": "Noma Express"}}, {"type": "node", "id": 4164102291, "lat": 19.4187999, "lon": -99.1642692, "tags": {"amenity": "cafe", "name": "Expreso Caf\u00e9"}}, {"type": "node", "id": 4164133092, "lat": 19.4118603, "lon": -99.1734435, "tags": {"addr:housenumber": "66", "addr:postcode": "06100", "addr:street": "Avenida Tamaulipas", "amenity": "cafe", "cuisine": "teahouse", "name": "Tom\u00e1s T\u00e9 - Condesa", "opening_hours": "Mo-Fr 08:00-22:00; Sa-Su 09:00-22:00", "phone": "55 4444 3918"}}, {"type": "node", "id": 4164135589, "lat": 19.4215209, "lon": -99.1583042, "tags": {"amenity": "cafe", "name": "Caf\u00e9 Aroma"}}, {"type": "node", "id": 4164136089, "lat": 19.4151153, "lon": -99.1680837, "tags": {"amenity": "cafe", "name": "Boulangerie 41"}}, {"type": "node", "id": 4164186789, "lat": 19.4132855, "lon": -99.1755377, "tags": {"amenity": "cafe", "name": "L'appart"}}, {"type": "node", "id": 4164304126, "lat": 19.4148519, "lon": -99.1674444, "tags": {"amenity": "cafe"}}, {"type": "node", "id": 4168564890, "lat": 19.4354693, "lon": -99.1479962, "tags": {"addr:street": "Avenida Ju\u00e1rez", "amenity": "cafe", "name": "Samborns Caf\u00e9"}}, {"type": "node", "id": 4169841748, "lat": 19.3690993, "lon": -99.1561987}, {"type": "node", "id": 4169956598, "lat": 19.4136732, "lon": -99.1199963, "tags": {"addr:city": "Venustiano Carranza", "addr:street": "Topolobampo", "amenity": "cafe", "name": "Bios Caf\u00e9", "opening_hours": "17:00-22:00", "smoking": "no"}}, {"type": "node", "id": 4170720092, "lat": 19.4285637, "lon": -99.1630162, "tags": {"amenity": "cafe", "brand": "Starbucks", "brand:wikidata": "Q37158", "brand:wikipedia": "en:Starbucks", "cuisine": "coffee_shop", "name": "Starbucks", "official_name": "Starbucks Coffee", "takeaway": "yes"}}, {"type": "node", "id": 4170720096, "lat": 19.4336917, "lon": -99.1544913, "tags": {"amenity": "cafe", "brand": "Starbucks", "brand:wikidata": "Q37158", "brand:wikipedia": "en:Starbucks", "cuisine": "coffee_shop", "name": "Starbucks", "official_name": "Starbucks Coffee", "takeaway": "yes"}}, {"type": "node", "id": 4170720989, "lat": 19.4242642, "lon": -99.1722948, "tags": {"amenity": "cafe", "brand": "Juan Valdez Caf\u00e9", "brand:wikidata": "Q6301102", "brand:wikipedia": "en:Juan Valdez Caf\u00e9", "cuisine": "coffee_shop", "name": "Juan Valdez Caf\u00e9", "shop": "coffee", "takeaway": "yes"}}, {"type": "node", "id": 4170721190, "lat": 19.4260977, "lon": -99.1683429, "tags": {"amenity": "cafe", "brand": "Starbucks", "brand:wikidata": "Q37158", "brand:wikipedia": "en:Starbucks", "cuisine": "coffee_shop", "name": "Starbucks", "official_name": "Starbucks Coffee", "takeaway": "yes"}}, {"type": "node", "id": 4170721889, "lat": 19.4280399, "lon": -99.1668597, "tags": {"amenity": "cafe", "brand": "Starbucks", "brand:wikidata": "Q37158", "brand:wikipedia": "en:Starbucks", "cuisine": "coffee_shop", "name": "Starbucks", "official_name": "Starbucks Coffee", "takeaway": "yes"}}, {"type": "node", "id": 4170721989, "lat": 19.4270912, "lon": -99.1662235, "tags": {"amenity": "cafe", "brand": "Starbucks", "brand:wikidata": "Q37158", "brand:wikipedia": "en:Starbucks", "cuisine": "coffee_shop", "name": "Starbucks", "official_name": "Starbucks Coffee", "takeaway": "yes"}}, {"type": "node", "id": 4170733091, "lat": 19.4305126, "lon": -99.1613972, "tags": {"amenity": "cafe", "brand": "Juan Valdez Caf\u00e9", "brand:wikidata": "Q6301102", "cuisine": "coffee_shop", "name": "Juan Valdez Caf\u00e9", "shop": "coffee", "takeaway": "yes"}}, {"type": "node", "id": 4170733192, "lat": 19.4357221, "lon": -99.1557736, "tags": {"amenity": "cafe", "name": "Caf\u00e9 Don Porfirio"}}, {"type": "node", "id": 4170735893, "lat": 19.435816, "lon": -99.1558175, "tags": {"amenity": "cafe", "name": "Punta del Cielo"}}, {"type": "node", "id": 4172090198, "lat": 19.3837428, "lon": -99.1392991, "tags": {"amenity": "cafe", "brand": "Starbucks", "brand:wikidata": "Q37158", "brand:wikipedia": "en:Starbucks", "cuisine": "coffee_shop", "name": "Starbucks", "official_name": "Starbucks Coffee", "takeaway": "yes"}}, {"type": "node", "id": 4172108592, "lat": 19.2583554, "lon": -99.103284, "tags": {"amenity": "cafe", "name": "Soconus Coffee"}}, {"type": "node", "id": 4172136296, "lat": 19.2590727, "lon": -99.10666, "tags": {"amenity": "cafe", "name": "Don Juan"}}, {"type": "node", "id": 4172187089, "lat": 19.351702, "lon": -99.159165, "tags": {"addr:street": "Calle Cuauht\u00e9moc", "amenity": "cafe", "name": "Alverre Caf\u00e9 Bistro"}}, {"type": "node", "id": 4173294189, "lat": 19.3659055, "lon": -99.1674339, "tags": {"amenity": "cafe", "brand": "Starbucks", "brand:wikidata": "Q37158", "cuisine": "coffee_shop", "name": "Starbucks", "official_name": "Starbucks Coffee", "takeaway": "yes"}}, {"type": "node", "id": 4181864727, "lat": 19.4357184, "lon": -99.1376076, "tags": {"addr:city": "Centro", "addr:housenumber": "28", "addr:street": "Calle Tacuba", "amenity": "cafe", "cuisine": "regional", "internet_access": "no", "name": "Caf\u00e9 de Tacuba", "opening_hours": "08:00-23:30", "phone": "+52 55 55212048"}}, {"type": "node", "id": 4185743848, "lat": 19.3316042, "lon": -99.1832382, "tags": {"amenity": "cafe", "cuisine": "cake", "internet_access": "no", "name": "Caf\u00e9 Dise\u00f1o"}}, {"type": "node", "id": 4185746094, "lat": 19.3292256, "lon": -99.176039}, {"type": "node", "id": 4185746095, "lat": 19.3292802, "lon": -99.1759619}, {"type": "node", "id": 4185746096, "lat": 19.3290503, "lon": -99.1757737}, {"type": "node", "id": 4185746097, "lat": 19.3290025, "lon": -99.1758389}, {"type": "node", "id": 4187282004, "lat": 19.4176504, "lon": -99.1640903, "tags": {"addr:housenumber": "104", "addr:postcode": "06700", "addr:street": "Avenida Monterrey", "amenity": "cafe", "brand": "Le Pain Quotidien", "brand:wikidata": "Q2046903", "brand:wikipedia": "en:Le Pain Quotidien", "cuisine": "coffee_shop", "diet:vegetarian": "yes", "name": "Le Pain Quotidien", "opening_hours": "Mo-Su 08:00-21:00", "takeaway": "yes", "website": "https://www.lepainquotidien.com/mx"}}, {"type": "node", "id": 4190081121, "lat": 19.3624852, "lon": -99.1831445, "tags": {"amenity": "cafe", "brand": "Starbucks", "brand:wikidata": "Q37158", "brand:wikipedia": "en:Starbucks", "cuisine": "coffee_shop", "internet_access": "yes", "name": "Starbucks", "official_name": "Starbucks Coffee", "smoking": "outside", "takeaway": "yes"}}, {"type": "node", "id": 4213001090, "lat": 19.40998, "lon": -99.1703021, "tags": {"addr:housenumber": "7", "addr:street": "Chilpancingo", "amenity": "cafe", "internet_access": "wlan", "name": "Aime\u00e9 Caf\u00e9"}}, {"type": "node", "id": 4222791152, "lat": 19.3922626, "lon": -99.1791165, "tags": {"addr:city": "Mexico", "addr:housenumber": "81", "addr:postcode": "038100", "addr:street": "Texas", "amenity": "cafe", "check_date:opening_hours": "2022-12-12", "internet_access": "yes", "name": "Hey! Brew Bar", "opening_hours": "09:00-22:00", "smoking": "outside", "website": "heybrewbar.com"}}, {"type": "node", "id": 4231404689, "lat": 19.4164639, "lon": -99.1589401, "tags": {"amenity": "cafe", "name": "Ocho"}}, {"type": "node", "id": 4238774746, "lat": 19.4990769, "lon": -99.1450352}, {"type": "node", "id": 4238774747, "lat": 19.4992128, "lon": -99.1449668}, {"type": "node", "id": 4238774748, "lat": 19.4991748, "lon": -99.144883}, {"type": "node", "id": 4238774749, "lat": 19.4990358, "lon": -99.1449534}, {"type": "node", "id": 4238775036, "lat": 19.4991391, "lon": -99.1449011}, {"type": "node", "id": 4238775038, "lat": 19.4991981, "lon": -99.1449344}, {"type": "node", "id": 4238775062, "lat": 19.5046279, "lon": -99.1354141}, {"type": "node", "id": 4238775063, "lat": 19.5045229, "lon": -99.1354289}, {"type": "node", "id": 4238775064, "lat": 19.5045141, "lon": -99.1353699}, {"type": "node", "id": 4238775065, "lat": 19.504485, "lon": -99.1353752}, {"type": "node", "id": 4238775066, "lat": 19.5044736, "lon": -99.1353095}, {"type": "node", "id": 4238775067, "lat": 19.5046076, "lon": -99.1352907}, {"type": "node", "id": 4247164039, "lat": 19.3899649, "lon": -99.1524008, "tags": {"amenity": "cafe", "brand": "Starbucks", "brand:wikidata": "Q37158", "brand:wikipedia": "en:Starbucks", "cuisine": "coffee_shop", "name": "Starbucks", "official_name": "Starbucks Coffee", "takeaway": "yes"}}, {"type": "node", "id": 4252006143, "lat": 19.3968729, "lon": -99.1547967, "tags": {"amenity": "cafe", "cuisine": "coffee_shop", "name": "Chapata Vive"}}, {"type": "node", "id": 4252008096, "lat": 19.417507, "lon": -99.1569442, "tags": {"addr:city": "Ciudad de M\u00e9xico", "addr:housenumber": "132", "addr:street": "Merida", "amenity": "cafe", "cuisine": "mexican", "internet_access": "wlan", "name": "Caf\u00e9 De Ra\u00edz"}}, {"type": "node", "id": 4268154254, "lat": 19.3553144, "lon": -99.1502424, "tags": {"amenity": "cafe", "cuisine": "coffee_shop", "internet_access": "yes", "name": "Caf\u00e9 San Diego"}}, {"type": "node", "id": 4269195292, "lat": 19.3225795, "lon": -99.150996, "tags": {"amenity": "cafe", "name": "gato cafe", "opening_hours": "24/7"}}, {"type": "node", "id": 4274813194, "lat": 19.3627897, "lon": -99.1464138, "tags": {"amenity": "cafe", "name": "Nuestro Caf\u00e9"}}, {"type": "node", "id": 4311700038, "lat": 19.4212209, "lon": -99.1565577, "tags": {"amenity": "cafe", "name": "Memorias de un barista"}}, {"type": "node", "id": 4312089768, "lat": 19.4307359, "lon": -99.1974209, "tags": {"addr:city": "Ciudad de M\u00e9xico", "addr:country": "MX", "addr:housenumber": "30", "addr:postcode": "11560", "addr:street": "Calle Oscar Wilde", "amenity": "cafe", "branch": "Panader\u00eda & Caf\u00e9", "brand": "Le Pain Quotidien", "brand:wikidata": "Q2046903", "cuisine": "coffee_shop", "name": "Le Pain Quotidien", "opening_hours": "Mo-We 07:00-23:00, Th-Fr 07:00-24:00, Sa 08:00-24:00, Su 08:00-22:00", "shop": "bakery", "takeaway": "yes"}}, {"type": "node", "id": 4332340314, "lat": 19.430727, "lon": -99.197493, "tags": {"amenity": "cafe", "brand": "Le Pain Quotidien", "brand:wikidata": "Q2046903", "brand:wikipedia": "en:Le Pain Quotidien", "cuisine": "coffee_shop", "internet_access": "wlan", "name": "Le Pain Quotidien", "opening_hours": "Mo-We 07:00-23:00, Th-Fr 07:00-24:00, Sa 08:00-24:00, Su 08:00-23:00", "takeaway": "yes"}}, {"type": "node", "id": 4332572757, "lat": 19.3984206, "lon": -99.1523325, "tags": {"addr:city": "Ciudad de M\u00e9xico", "addr:housenumber": "1112", "addr:street": "Morena", "amenity": "cafe", "phone": "55386724"}}, {"type": "node", "id": 4333043689, "lat": 19.3686615, "lon": -99.1215453, "tags": {"amenity": "cafe", "brand": "Starbucks", "brand:wikidata": "Q37158", "brand:wikipedia": "en:Starbucks", "cuisine": "coffee_shop", "name": "Starbucks", "official_name": "Starbucks Coffee", "takeaway": "yes"}}, {"type": "node", "id": 4335676893, "lat": 19.4335422, "lon": -99.1374793, "tags": {"addr:housenumber": "71", "addr:street": "Francisco I. Madero", "amenity": "cafe", "cuisine": "ice_cream", "name": "Helados Santa Clara", "operator": "Santa Clara", "phone": "5521 2581"}}, {"type": "node", "id": 4335707493, "lat": 19.4321776, "lon": -99.1370059, "tags": {"addr:city": "Ciudad de M\u00e9xico", "addr:housenumber": "60", "addr:street": "16 de Septiembre", "amenity": "cafe", "cuisine": "ice_cream", "name": "Helados Santa Clara", "operator": "Santa Clara"}}, {"type": "node", "id": 4337116290, "lat": 19.437213, "lon": -99.1868864, "tags": {"amenity": "cafe", "cuisine": "tea;coffee_shop", "internet_access": "wlan", "name": "Cielito Querido Caf\u00e9 Dos Patios"}}, {"type": "node", "id": 4340195747, "lat": 19.3481673, "lon": -99.1694442, "tags": {"addr:housenumber": "1 Bis", "addr:street": "Aurora", "amenity": "cafe", "cuisine": "coffee_shop", "internet_access": "wlan", "name": "Caf\u00e9 Ruta de la Seda", "phone": "+525538694888", "website": "https://www.caferutadelaseda.com/"}}, {"type": "node", "id": 4340196518, "lat": 19.3488575, "lon": -99.1688649, "tags": {"addr:housenumber": "267", "addr:street": "Venustiano Carranza", "amenity": "cafe", "internet_access": "wlan", "name": "El Olvidado", "opening_hours": "Mo-Su 09:00-22:00"}}, {"type": "node", "id": 4340248803, "lat": 19.3487943, "lon": -99.1713298, "tags": {"addr:housenumber": "202", "addr:postcode": "04010", "addr:street": "Francisco Sosa", "amenity": "cafe", "cuisine": "local", "internet_access": "wlan", "name": "Aurelia"}}, {"type": "node", "id": 4348835091, "lat": 19.3482498, "lon": -99.1606896, "tags": {"addr:housenumber": "40", "addr:street": "Higuera", "amenity": "cafe", "email": "cafe_avellaneda@hotmail.com", "internet_access": "wlan", "name": "Caf\u00e9 Avellaneda", "opening_hours": "Mo-Su 08:00-22:00"}}, {"type": "node", "id": 4348849493, "lat": 19.3473636, "lon": -99.1596817, "tags": {"addr:housenumber": "81 B", "addr:street": "Calle Vallarta", "amenity": "cafe", "name": "Fortunata Caf\u00e9"}}, {"type": "node", "id": 4348902089, "lat": 19.3475471, "lon": -99.1596046, "tags": {"addr:street": "Calle Vallarta", "amenity": "cafe", "name": "Helados y Crepas"}}, {"type": "node", "id": 4396518889, "lat": 19.3713118, "lon": -99.1227974, "tags": {"amenity": "cafe", "name": "Bisquets Obregon", "name:es": "Bisquets Obregon"}}, {"type": "node", "id": 4400539790, "lat": 19.366972, "lon": -99.1457217, "tags": {"addr:city": "Ciudad de M\u00e9xico", "addr:housenumber": "506", "addr:postcode": "03300", "addr:street": "B\u00e9lgica", "amenity": "cafe", "cuisine": "coffee_shop", "internet_access": "wlan", "name": "Distinto Caf\u00e9", "name:es": "Distinto Caf\u00e9", "opening_hours": "Mo-Th 09:00-21:00; Fr 09:00-22:00; Sa-Su 16:00-21:00", "phone": "+525523127158", "website": "https://twitter.com/distintoC"}}, {"type": "node", "id": 4405821605, "lat": 19.3625391, "lon": -99.1486509, "tags": {"amenity": "cafe", "cuisine": "coffee_shop", "name": "The Little Bakery", "name:es": "The Little Bakery"}}, {"type": "node", "id": 4407367334, "lat": 19.2744068, "lon": -99.1241768, "tags": {"amenity": "cafe"}}, {"type": "node", "id": 4411354490, "lat": 19.3780473, "lon": -99.1004066, "tags": {"amenity": "cafe"}}, {"type": "node", "id": 4411645389, "lat": 19.3769349, "lon": -99.254035, "tags": {"amenity": "cafe", "brand": "Starbucks", "brand:wikidata": "Q37158", "cuisine": "coffee_shop", "name": "Starbucks", "name:es": "Starbucks", "official_name": "Starbucks Coffee", "takeaway": "yes"}}, {"type": "node", "id": 4411685889, "lat": 19.3767676, "lon": -99.2546115, "tags": {"amenity": "cafe", "brand": "Starbucks", "brand:wikidata": "Q37158", "brand:wikipedia": "en:Starbucks", "cuisine": "coffee_shop", "name": "Starbucks", "name:es": "Starbuck's", "official_name": "Starbucks Coffee", "takeaway": "yes"}}, {"type": "node", "id": 4417075689, "lat": 19.4149838, "lon": -99.1721568, "tags": {"addr:city": "Ciudad de M\u00e9xico", "addr:housenumber": "49", "addr:street": "Avenida Parque Espa\u00f1a", "alt_name": "Rococ\u00f3 Caf\u00e9", "amenity": "cafe", "name": "El Roco", "name:es": "El Roco", "opening_hours": "Mo-Sa 06:45-22:00; Su 07:45-20:00", "phone": "5256-0882"}}, {"type": "node", "id": 4419232189, "lat": 19.3511446, "lon": -99.172418, "tags": {"addr:housenumber": "175", "addr:street": "G. Perez Valenzuela", "amenity": "cafe", "name": "Julyana", "name:es": "Julyana"}}, {"type": "node", "id": 4419232190, "lat": 19.3347764, "lon": -99.1418568, "tags": {"addr:housenumber": "2323", "addr:street": "Tlalpan", "amenity": "cafe", "name": "El Globo", "name:es": "El Globo", "opening_hours": "Mo-Fr 08:00-21:30; Sa-Su 08:00-21:00"}}, {"type": "node", "id": 4419565889, "lat": 19.4217378, "lon": -99.1606401, "tags": {"addr:housenumber": "41", "addr:street": "Orizaba", "amenity": "cafe", "cuisine": "french", "email": "B41Boulangerie@gmail.com", "name": "B41 Boulangerie", "name:es": "B41 Boulangerie", "phone": "52072427"}}, {"type": "node", "id": 4440588590, "lat": 19.3738937, "lon": -99.156675, "tags": {"addr:city": "Ciudad de M\u00e9xico", "addr:housenumber": "1114", "addr:postcode": "03620", "addr:street": "Miguel Laurent", "amenity": "cafe", "cuisine": "sandwich;breakfast", "internet_access": "wlan", "name": "El Patio Caf\u00e9", "name:es": "El Patio Caf\u00e9", "opening_hours": "Mo-Fr 08:00-21:30; Sa-Su 09:30-21:30", "phone": "46333542"}}, {"type": "node", "id": 4440646890, "lat": 19.3737348, "lon": -99.1551549, "tags": {"amenity": "cafe", "name": "Caf\u00e9-Restaurant Dharamsala"}}, {"type": "node", "id": 4454347791, "lat": 19.2768715, "lon": -99.2092565, "tags": {"addr:street": "Blv. Picacho Ajusco", "amenity": "cafe", "cuisine": "coffee_shop;local;mexican;tea;cake;donut;breakfast;deli", "internet_access": "wlan", "name": "Cafeter\u00eda Calle Qatro", "opening_hours": "Mo-Su 09:00-22:00"}}, {"type": "node", "id": 4455577852, "lat": 19.4174149, "lon": -99.1584535, "tags": {"addr:housenumber": "125", "addr:postcode": "06700", "addr:street": "Cordoba", "amenity": "cafe", "cuisine": "teahouse", "name": "Tom\u00e1s T\u00e9 - Roma", "opening_hours": "Mo-Su 9:00-21:00", "phone": "55 7591 9877"}}, {"type": "node", "id": 4455791789, "lat": 19.4280696, "lon": -99.1700605, "tags": {"addr:city": "Ciudad de M\u00e9xico", "addr:housenumber": "179", "addr:postcode": "06500", "addr:street": "R\u00edo Lerma", "amenity": "cafe", "cuisine": "coffee_shop", "name": "Chiquitito"}}, {"type": "node", "id": 4470120166, "lat": 19.4144142, "lon": -99.1665671, "tags": {"addr:housenumber": "309", "addr:postcode": "06140", "addr:street": "Avenida Amsterdam", "amenity": "cafe", "branch": "Condesa", "brand": "Le Pain Quotidien", "brand:wikidata": "Q2046903", "brand:wikipedia": "en:Le Pain Quotidien", "cuisine": "coffee_shop", "internet_access": "wlan", "name": "Le Pain Quotidien", "takeaway": "yes"}}, {"type": "node", "id": 4476106501, "lat": 19.4403449, "lon": -99.1764866, "tags": {"amenity": "cafe", "brand": "Starbucks", "brand:wikidata": "Q37158", "brand:wikipedia": "en:Starbucks", "cuisine": "coffee_shop", "name": "Starbucks", "official_name": "Starbucks Coffee", "takeaway": "yes"}}, {"type": "node", "id": 4484172793, "lat": 19.3500089, "lon": -99.1641557, "tags": {"amenity": "cafe", "cuisine": "coffee_shop", "internet_access": "wlan", "name": "Caf\u00e9 Negro", "name:es": "Caf\u00e9 Negro"}}, {"type": "node", "id": 4485019178, "lat": 19.4184876, "lon": -99.1599607, "tags": {"addr:housenumber": "101", "addr:postcode": "06720", "addr:street": "Orizaba", "amenity": "cafe", "cuisine": "teahouse", "name": "Caravanserai", "opening_hours": "Mo-Su 11:00-21:00", "website": "http://www.caravanserai.com.mx/"}}, {"type": "node", "id": 4504967090, "lat": 19.3869596, "lon": -99.2527357, "tags": {"amenity": "cafe", "name": "Starbucks", "name:en": "Starbucks", "name:es": "Starbucks"}}, {"type": "node", "id": 4506759767, "lat": 19.3957023, "lon": -99.0915442, "tags": {"amenity": "cafe"}}, {"type": "node", "id": 4506885498, "lat": 19.3845017, "lon": -99.0793264, "tags": {"amenity": "cafe", "brand": "Starbucks", "brand:wikidata": "Q37158", "brand:wikipedia": "en:Starbucks", "cuisine": "coffee_shop", "name": "Starbucks", "official_name": "Starbucks Coffee", "takeaway": "yes"}}, {"type": "node", "id": 4524581708, "lat": 19.3511753, "lon": -99.161548, "tags": {"amenity": "cafe", "name": "La Chocolateria la Rifa", "name:es": "La Chocolateria la Rifa"}}, {"type": "node", "id": 4527203497, "lat": 19.3766924, "lon": -99.095383, "tags": {"amenity": "cafe", "brand": "Starbucks", "brand:wikidata": "Q37158", "brand:wikipedia": "en:Starbucks", "cuisine": "coffee_shop", "name": "Starbucks", "official_name": "Starbucks Coffee", "takeaway": "yes"}}, {"type": "node", "id": 4528492599, "lat": 19.4379821, "lon": -99.1513537, "tags": {"amenity": "cafe", "name": "sushi hoko-ki", "name:es": "sushi hoko-ki"}}, {"type": "node", "id": 4530742807, "lat": 19.2955858, "lon": -99.1083383, "tags": {"amenity": "cafe", "brand": "Starbucks", "brand:wikidata": "Q37158", "brand:wikipedia": "en:Starbucks", "cuisine": "coffee_shop", "name": "Starbucks", "official_name": "Starbucks Coffee", "takeaway": "yes"}}, {"type": "node", "id": 4530913215, "lat": 19.3401263, "lon": -99.1294819}, {"type": "node", "id": 4530913216, "lat": 19.340125, "lon": -99.129388}, {"type": "node", "id": 4530913217, "lat": 19.3400389, "lon": -99.1293894}, {"type": "node", "id": 4530913218, "lat": 19.3400402, "lon": -99.1294832}, {"type": "node", "id": 4530914149, "lat": 19.3401259, "lon": -99.1294528}, {"type": "node", "id": 4532801505, "lat": 19.4302813, "lon": -99.1929935, "tags": {"addr:city": "Ciudad de M\u00e9xico", "addr:country": "MX", "addr:housenumber": "38", "addr:postcode": "11560", "addr:street": "Calle Galileo", "amenity": "cafe", "cuisine": "sandwich;bagel;breakfast;tea;mexican;coffee_shop", "internet_access": "wlan", "name": "Chai", "name:es": "Chai", "opening_hours": "Mo-Su 08:00-20:00", "operator": "Operadora POC SA de CV", "website": "http://www.chai.com.mx"}}, {"type": "node", "id": 4564592558, "lat": 19.4181678, "lon": -99.1583587, "tags": {"amenity": "cafe", "cuisine": "teahouse", "name": "Casa Tassel"}}, {"type": "node", "id": 4564596893, "lat": 19.4219432, "lon": -99.1605045, "tags": {"addr:housenumber": "42", "addr:postcode": "06700", "addr:street": "Orizaba", "amenity": "cafe", "name": "Buna 42"}}, {"type": "node", "id": 4574271691, "lat": 19.4317036, "lon": -99.1466552, "tags": {"addr:city": "Ciudad de M\u00e9xico", "addr:housenumber": "47", "addr:street": "Calle Revillagigedo", "amenity": "cafe", "cuisine": "mexican", "diet:gluten_free": "yes", "diet:vegan": "yes", "diet:vegetarian": "yes", "internet_access": "wlan", "internet_access:fee": "no", "name": "Vegamo MX", "name:es": "Vegamo MX", "outdoor_seating": "yes", "website": "https://vegamomx.com"}}, {"type": "node", "id": 4595836890, "lat": 19.4280883, "lon": -99.1700209, "tags": {"addr:city": "Ciudad de M\u00e9xico", "addr:housenumber": "179", "addr:street": "R\u00edo Lerma", "amenity": "cafe", "name": "Chiquito Cafe 2"}}, {"type": "node", "id": 4595863989, "lat": 19.4305495, "lon": -99.1423019, "tags": {"addr:city": "Ciudad de M\u00e9xico", "addr:housenumber": "68", "addr:street": "L\u00f3pez", "amenity": "cafe", "name": "Cafe Villarias"}}, {"type": "node", "id": 4596020096, "lat": 19.4188906, "lon": -99.1556341, "tags": {"addr:housenumber": "24", "addr:street": "Avenida \u00c1lvaro Obreg\u00f3n", "amenity": "cafe", "name": "Churreria El Moro", "name:en": "El Moro", "name:es": "Churreria El Moro \u00c1lvaro Obreg\u00f3n", "name:ja": "EL MORO \u00c1lvaro Obreg\u00f3n"}}, {"type": "node", "id": 4598996324, "lat": 19.295687, "lon": -99.1317672, "tags": {"amenity": "cafe", "name": "Caf\u00e9 de la Selva"}}, {"type": "node", "id": 4600489326, "lat": 19.2988774, "lon": -99.135956, "tags": {"amenity": "cafe", "name": "Punta del Cielo"}}, {"type": "node", "id": 4600489329, "lat": 19.2996495, "lon": -99.1370397, "tags": {"amenity": "cafe", "brand": "Starbucks", "brand:wikidata": "Q37158", "brand:wikipedia": "en:Starbucks", "cuisine": "coffee_shop", "name": "Starbucks", "official_name": "Starbucks Coffee", "takeaway": "yes"}}, {"type": "node", "id": 4600666899, "lat": 19.2982404, "lon": -99.1398157, "tags": {"amenity": "cafe"}}, {"type": "node", "id": 4602999819, "lat": 19.2854043, "lon": -99.1374375, "tags": {"amenity": "cafe", "brand": "Starbucks", "brand:wikidata": "Q37158", "brand:wikipedia": "en:Starbucks", "cuisine": "coffee_shop", "name": "Starbucks", "official_name": "Starbucks Coffee", "takeaway": "yes"}}, {"type": "node", "id": 4603033795, "lat": 19.3084756, "lon": -99.1357175, "tags": {"amenity": "cafe", "name": "Cielito Querido"}}, {"type": "node", "id": 4606028197, "lat": 19.4281117, "lon": -99.1379609, "tags": {"addr:housenumber": "24", "addr:street": "Calle Regina", "amenity": "cafe", "internet_access": "wlan", "name": "Caf\u00e9 Regina", "name:es": "Caf\u00e9 Regina"}}, {"type": "node", "id": 4610800048, "lat": 19.3729015, "lon": -99.1831002, "tags": {"amenity": "cafe", "delivery": "no", "internet_access": "no", "name": "Cielito Lindo", "smoking": "outside", "takeaway": "yes", "wheelchair": "limited"}}, {"type": "node", "id": 4613198089, "lat": 19.2901254, "lon": -99.1314755, "tags": {"amenity": "cafe"}}, {"type": "node", "id": 4616078990, "lat": 19.4340865, "lon": -99.1412926, "tags": {"addr:housenumber": "14", "addr:postcode": "06000", "addr:street": "Avenida Ju\u00e1rez", "amenity": "cafe", "description": "cafe in Sears building with a great view", "name": "Finca Don Porfirio"}}, {"type": "node", "id": 4616110089, "lat": 19.4339366, "lon": -99.1407354, "tags": {"addr:housenumber": "2", "addr:street": "L\u00e1zaro C\u00e1rdenas", "amenity": "cafe", "name": "Cafe de la Gran Cuidad", "name:pl": "Kawiarnia na 9 pietrze"}}, {"type": "node", "id": 4619835986, "lat": 19.2920571, "lon": -99.1610181, "tags": {"amenity": "cafe", "name": "Caf\u00e9 de la Selva"}}, {"type": "node", "id": 4619836786, "lat": 19.2920217, "lon": -99.1601075, "tags": {"amenity": "cafe", "brand": "Starbucks", "brand:wikidata": "Q37158", "brand:wikipedia": "en:Starbucks", "cuisine": "coffee_shop", "name": "Starbucks", "official_name": "Starbucks Coffee", "takeaway": "yes"}}, {"type": "node", "id": 4622762992, "lat": 19.3794234, "lon": -99.1793928, "tags": {"addr:housenumber": "69A", "addr:street": "Avenida Porfirio Diaz", "amenity": "cafe", "cuisine": "breakfast;mexican;coffee_shop", "internet_access": "wlan", "name": "Village Caf\u00e9", "name:es": "Village Caf\u00e9"}}, {"type": "node", "id": 4623071389, "lat": 19.4247227, "lon": -99.1603045, "tags": {"addr:city": "Ciudad de M\u00e9xico", "addr:housenumber": "83", "addr:postcode": "06600", "addr:street": "Havre", "amenity": "cafe", "name": "TEO Luncheonette", "opening_hours": "Mo-Fr 09:00-18:00; Sa-Su 09:00-18:00"}}, {"type": "node", "id": 4623071489, "lat": 19.4293446, "lon": -99.1569585, "tags": {"addr:city": "Ciudad de M\u00e9xico", "addr:housenumber": "44", "addr:postcode": "06600", "addr:street": "Mil\u00e1n", "amenity": "cafe", "name": "Rompeolas", "opening_hours": "Mo-Sa 09:00-19:00; Su 10:00-19:00"}}, {"type": "node", "id": 4629686380, "lat": 19.3865352, "lon": -99.2473488, "tags": {"amenity": "cafe", "building": "kiosk", "name": "Super K", "outdoor_seating": "yes"}}, {"type": "node", "id": 4629686381, "lat": 19.387575, "lon": -99.2476895, "tags": {"amenity": "cafe", "cuisine": "regional", "description": "Cafeteria y panaderia, pan dulce mexicano.", "internet_access": "yes", "name": "Nugat", "opening_hours": "10:00-20:00", "smoking": "no"}}, {"type": "node", "id": 4629692850, "lat": 19.3874247, "lon": -99.2476855, "tags": {"amenity": "cafe", "name": "El Globo"}}, {"type": "node", "id": 4629692855, "lat": 19.3875218, "lon": -99.2476613, "tags": {"amenity": "cafe", "name": "Starbucks"}}, {"type": "node", "id": 4629692900, "lat": 19.3875275, "lon": -99.2478005, "tags": {"amenity": "cafe", "cuisine": "fast_food", "name": "VIPS"}}, {"type": "node", "id": 4635187956, "lat": 19.2962892, "lon": -99.1592964, "tags": {"amenity": "cafe", "brand": "Starbucks", "brand:wikidata": "Q37158", "brand:wikipedia": "en:Starbucks", "cuisine": "coffee_shop", "name": "Starbucks", "takeaway": "yes"}}, {"type": "node", "id": 4638766116, "lat": 19.2857633, "lon": -99.1373773, "tags": {"amenity": "cafe", "name": "Caf\u00e9 Jekemir"}}, {"type": "node", "id": 4640535027, "lat": 19.4305118, "lon": -99.1960775, "tags": {"amenity": "cafe", "name": "Sal y Dulce"}}, {"type": "node", "id": 4640535032, "lat": 19.4299783, "lon": -99.1966326, "tags": {"amenity": "cafe", "name": "Jos\u00e9lo Caf\u00e9"}}, {"type": "node", "id": 4650614469, "lat": 19.295688, "lon": -99.1337674, "tags": {"amenity": "cafe", "name": "C@fenet"}}, {"type": "node", "id": 4650635590, "lat": 19.3032984, "lon": -99.1730721, "tags": {"amenity": "cafe", "name": "Caf\u00e9 Jekemir"}}, {"type": "node", "id": 4653702240, "lat": 19.3064655, "lon": -99.1665781, "tags": {"amenity": "cafe", "cuisine": "coffee_shop", "name": "Starbucks"}}, {"type": "node", "id": 4653702243, "lat": 19.3058352, "lon": -99.1658539, "tags": {"amenity": "cafe", "name": "Sanborns"}}, {"type": "node", "id": 4657810590, "lat": 19.4156299, "lon": -99.1729258, "tags": {"addr:housenumber": "13", "addr:street": "Calle Atlixco", "amenity": "cafe", "cuisine": "breakfast", "internet_access": "wlan", "name": "Enhorabuena"}}, {"type": "node", "id": 4660938308, "lat": 19.2998386, "lon": -99.1362303, "tags": {"amenity": "cafe", "brand": "Starbucks", "brand:wikidata": "Q37158", "brand:wikipedia": "en:Starbucks", "cuisine": "coffee_shop", "name": "Starbucks", "official_name": "Starbucks Coffee", "takeaway": "yes"}}, {"type": "node", "id": 4661405061, "lat": 19.3053729, "lon": -99.1665615, "tags": {"amenity": "cafe", "name": "Garabatos"}}, {"type": "node", "id": 4666428295, "lat": 19.2961963, "lon": -99.1536889, "tags": {"amenity": "cafe", "name": "Salamandras Caf\u00e9"}}, {"type": "node", "id": 4673927098, "lat": 19.2937391, "lon": -99.1569112, "tags": {"amenity": "cafe", "name": "Coffee Me"}}, {"type": "node", "id": 4673928570, "lat": 19.2918974, "lon": -99.1608232}, {"type": "node", "id": 4673928581, "lat": 19.2919047, "lon": -99.1608461}, {"type": "node", "id": 4673929605, "lat": 19.2917607, "lon": -99.1609313}, {"type": "node", "id": 4673929607, "lat": 19.2918878, "lon": -99.1607934}, {"type": "node", "id": 4687361074, "lat": 19.3553092, "lon": -99.1644314, "tags": {"amenity": "cafe", "name": "Que Llueva Caf\u00e9"}}, {"type": "node", "id": 4695884289, "lat": 19.4277818, "lon": -99.1584029, "tags": {"amenity": "cafe", "name": "Cicatriz", "name:en": "Cicatriz", "name:es": "Cicatriz"}}, {"type": "node", "id": 4697715920, "lat": 19.3922731, "lon": -99.186782, "tags": {"amenity": "cafe", "contact:phone": "+52 55 6721 0496", "contact:website": "http://edicionesdelermitano.com", "name": "Libreria del Ermita\u00f1o", "opening_hours": "Mo-Fr 09:00-21:00; Sa, Su 12:00-21:00"}}, {"type": "node", "id": 4698340013, "lat": 19.3353534, "lon": -99.1570337, "tags": {"amenity": "cafe", "brand": "Starbucks", "brand:wikidata": "Q37158", "cuisine": "coffee_shop", "name": "Starbucks", "official_name": "Starbucks Coffee", "takeaway": "yes"}}, {"type": "node", "id": 4701787576, "lat": 19.4297128, "lon": -99.1630521, "tags": {"amenity": "cafe", "internet_access": "wlan", "name": "Tierra Garat Caf\u00e9"}}, {"type": "node", "id": 4709210892, "lat": 19.3691869, "lon": -99.148787, "tags": {"addr:city": "Ciudad de M\u00e9xico", "addr:housenumber": "135", "addr:street": "Avenida Municipio Libre", "amenity": "cafe", "cuisine": "coffee_shop;sandwich;bagel;deli", "name": "Bon Vivant Caf\u00e9", "website": "https://m.facebook.com/Bon-Vivant-Cafe-1791241561200971/"}}, {"type": "node", "id": 4709288489, "lat": 19.3355402, "lon": -99.1210174, "tags": {"addr:housenumber": "3 d", "addr:street": "J. Hidalgo", "amenity": "cafe", "name": "Horus", "name:es": "Horus"}}, {"type": "node", "id": 4711947946, "lat": 19.3360048, "lon": -99.1467682, "tags": {"addr:street": "Avenida Divisi\u00f3n del Norte", "amenity": "cafe", "name": "Lucky Sushi"}}, {"type": "node", "id": 4711947951, "lat": 19.337233, "lon": -99.145342, "tags": {"amenity": "cafe", "name": "Ergo Sum"}}, {"type": "node", "id": 4715478819, "lat": 19.3954409, "lon": -99.1690063, "tags": {"addr:housenumber": "305", "addr:street": "Pedro Romero de Terreros", "amenity": "cafe", "cuisine": "caf\u00e9_colombianos", "name": "Momentto Caf\u00e9"}}, {"type": "node", "id": 4718716792, "lat": 19.4331227, "lon": -99.1345777, "tags": {"amenity": "cafe"}}, {"type": "node", "id": 4719264369, "lat": 19.3245626, "lon": -99.1837322, "tags": {"amenity": "cafe", "name": "La K'FE", "outdoor_seating": "yes"}}, {"type": "node", "id": 4719264370, "lat": 19.324598, "lon": -99.183703}, {"type": "node", "id": 4719264371, "lat": 19.3245264, "lon": -99.1836934}, {"type": "node", "id": 4719264372, "lat": 19.3245214, "lon": -99.1837608}, {"type": "node", "id": 4719264373, "lat": 19.324593, "lon": -99.1837697}, {"type": "node", "id": 4737375094, "lat": 19.4116535, "lon": -99.1677287, "tags": {"amenity": "cafe", "name": "Matisse"}}, {"type": "node", "id": 4750114402, "lat": 19.3356161, "lon": -99.1608985, "tags": {"amenity": "cafe", "internet_access": "yes", "name": "Punta del Cielo"}}, {"type": "node", "id": 4753706625, "lat": 19.3884015, "lon": -99.174489, "tags": {"amenity": "cafe", "name": "Cielito Querido Caf\u00e9"}}, {"type": "node", "id": 4758412475, "lat": 19.3181419, "lon": -99.1776805, "tags": {"amenity": "cafe", "name": "Cafeter\u00eda Polakas"}}, {"type": "node", "id": 4797330213, "lat": 19.4258415, "lon": -99.1672942, "tags": {"amenity": "cafe", "brand": "Starbucks", "brand:wikidata": "Q37158", "brand:wikipedia": "en:Starbucks", "cuisine": "coffee_shop", "name": "Starbucks", "official_name": "Starbucks Coffee", "takeaway": "yes"}}, {"type": "node", "id": 4811776939, "lat": 19.3357177, "lon": -99.1447536, "tags": {"addr:housenumber": "60-C", "addr:postcode": "04370", "addr:street": "Gladiolas", "amenity": "cafe", "name": "Caf\u00e9 Lueso", "opening_hours": "Mo-Fr 10:00-21:30; Sa 10:30-19:00"}}, {"type": "node", "id": 4812052024, "lat": 19.4315561, "lon": -99.1968763, "tags": {"amenity": "cafe", "brand": "Starbucks", "brand:wikidata": "Q37158", "brand:wikipedia": "en:Starbucks", "cuisine": "coffee_shop", "name": "Starbucks", "name:en": "Starbucks", "official_name": "Starbucks Coffee", "takeaway": "yes"}}, {"type": "node", "id": 4818233323, "lat": 19.427913, "lon": -99.1950268, "tags": {"addr:city": "Ciudad de M\u00e9xico", "addr:country": "MX", "addr:housenumber": "247", "addr:postcode": "11570", "addr:street": "Campos El\u00edseos", "amenity": "cafe", "brand": "Starbucks", "brand:wikidata": "Q37158", "brand:wikipedia": "en:Starbucks", "cuisine": "coffee_shop", "name": "Starbucks", "name:en": "Starbucks", "name:es": "Starbucks", "name:ru": "Starbucks", "official_name": "Starbucks Coffee", "takeaway": "yes"}}, {"type": "node", "id": 4818246421, "lat": 19.4282888, "lon": -99.1934317, "tags": {"addr:city": "Ciudad de M\u00e9xico", "addr:housenumber": "8", "addr:postcode": "11560", "addr:street": "Calle Galileo", "amenity": "cafe", "brand": "Starbucks", "brand:wikidata": "Q37158", "brand:wikipedia": "en:Starbucks", "cuisine": "coffee_shop", "name": "Starbucks", "name:en": "Starbucks", "name:es": "Starbucks", "name:ru": "Starbucks", "official_name": "Starbucks Coffee", "takeaway": "yes"}}, {"type": "node", "id": 4820173322, "lat": 19.4330822, "lon": -99.1868269, "tags": {"addr:housenumber": "326", "addr:street": "Avenida Horacio", "amenity": "cafe", "brand": "Starbucks", "brand:wikidata": "Q37158", "brand:wikipedia": "en:Starbucks", "cuisine": "coffee_shop", "name": "Starbucks", "name:en": "Starbucks", "name:es": "Starbucks", "name:ru": "Starbucks", "official_name": "Starbucks Coffee", "takeaway": "yes"}}, {"type": "node", "id": 4825811221, "lat": 19.4244722, "lon": -99.184715, "tags": {"amenity": "cafe", "brand": "Starbucks", "brand:wikidata": "Q37158", "brand:wikipedia": "en:Starbucks", "cuisine": "coffee_shop", "name": "Starbucks", "name:en": "Starbucks", "name:es": "Starbucks", "name:ru": "Starbucks", "official_name": "Starbucks Coffee", "takeaway": "yes"}}, {"type": "node", "id": 4829507131, "lat": 19.4487651, "lon": -99.1561765, "tags": {"amenity": "cafe", "name": "Huma"}}, {"type": "node", "id": 4829539623, "lat": 19.4505947, "lon": -99.156193, "tags": {"addr:city": "Ciudad de M\u00e9xico", "addr:housenumber": "99 Local 14", "addr:postcode": "06400", "addr:street": "Manuel Carpio", "amenity": "cafe", "name": "El Globo", "website": "https://elglobo.com.mx/"}}, {"type": "node", "id": 4829610821, "lat": 19.4466794, "lon": -99.1565793, "tags": {"addr:city": "Ciudad de M\u00e9xico", "addr:housenumber": "141 Local 1", "addr:postcode": "06400", "addr:street": "Dr. Atl", "amenity": "cafe", "name": "The Latte Caf\u00e9"}}, {"type": "node", "id": 4831727133, "lat": 19.4509261, "lon": -99.1517528, "tags": {"amenity": "cafe", "brand": "Starbucks", "brand:wikidata": "Q37158", "brand:wikipedia": "en:Starbucks", "cuisine": "coffee_shop", "name": "Starbucks", "official_name": "Starbucks Coffee", "takeaway": "yes"}}, {"type": "node", "id": 4831757421, "lat": 19.4359578, "lon": -99.1495889, "tags": {"amenity": "cafe", "brand": "Starbucks", "brand:wikidata": "Q37158", "brand:wikipedia": "en:Starbucks", "cuisine": "coffee_shop", "name": "Starbucks", "name:en": "Starbucks coffee", "name:es": "Starbucks coffee", "official_name": "Starbucks Coffee", "takeaway": "yes"}}, {"type": "node", "id": 4831760420, "lat": 19.4484222, "lon": -99.1622191, "tags": {"addr:city": "Ciudad de M\u00e9xico", "addr:housenumber": "159 A2", "addr:postcode": "06400", "addr:street": "Cedro", "amenity": "cafe", "name": "The Latte Cafe Cedro", "opening_hours": "PH,Mo-Su 10:00-20:00+"}}, {"type": "node", "id": 4839250121, "lat": 19.4166432, "lon": -99.1669184, "tags": {"addr:street": "\u00c1lvaro Obregon", "amenity": "cafe", "name": "Bizarro caf\u00e9", "smoking": "no"}}, {"type": "node", "id": 4852759523, "lat": 19.4291054, "lon": -99.1925331, "tags": {"amenity": "cafe", "name": "Caf\u00e9 Toscano", "name:es": "Caf\u00e9 Toscano"}}, {"type": "node", "id": 4856880421, "lat": 19.4277445, "lon": -99.2094897, "tags": {"addr:housenumber": "324", "addr:postcode": "11000", "addr:street": "Prado Norte", "amenity": "cafe", "branch": "Prado Norte", "brand": "Starbucks", "brand:wikidata": "Q37158", "cuisine": "coffee_shop", "name": "Starbucks", "official_name": "Starbucks Coffee", "takeaway": "yes"}}, {"type": "node", "id": 4862796824, "lat": 19.4290394, "lon": -99.203516, "tags": {"amenity": "cafe", "brand": "Starbucks", "brand:wikidata": "Q37158", "brand:wikipedia": "en:Starbucks", "cuisine": "coffee_shop", "name": "Starbucks", "name:en": "Starbucks", "name:es": "Starbucks", "name:ru": "Starbucks", "official_name": "Starbucks Coffee", "takeaway": "yes"}}, {"type": "node", "id": 4904378122, "lat": 19.3525593, "lon": -99.1591037, "tags": {"addr:housenumber": "83", "addr:street": "Calle Valent\u00edn G\u00f3mez Far\u00edas", "amenity": "cafe", "name": "Profit Caf\u00e9", "name:de": "Profit Caf\u00e9", "name:en": "Profit Caf\u00e9"}}, {"type": "node", "id": 4906552902, "lat": 19.4366633, "lon": -99.0799967, "tags": {"amenity": "cafe", "brand": "Starbucks", "brand:wikidata": "Q37158", "brand:wikipedia": "en:Starbucks", "cuisine": "coffee_shop", "name": "Starbucks", "note": "Inside security", "official_name": "Starbucks Coffee", "takeaway": "yes"}}, {"type": "node", "id": 4932676223, "lat": 19.3350702, "lon": -99.1801544, "tags": {"amenity": "cafe", "name": "Cocoa", "name:es": "Cocoa"}}, {"type": "node", "id": 4953928621, "lat": 19.4186829, "lon": -99.1613568, "tags": {"addr:housenumber": "99", "addr:postcode": "06170", "addr:street": "Calle Jalapa", "amenity": "cafe", "diet:vegetarian": "yes", "drink:beer": "yes", "name": "Boicot caf\u00e9", "opening_hours": "Mo-Fr 07:00-22:00; Sa,Su 08:00-22:00"}}, {"type": "node", "id": 4966731426, "lat": 19.4202193, "lon": -99.1579136, "tags": {"addr:housenumber": "114", "addr:street": "Colima", "amenity": "cafe", "cuisine": "sandwich;breakfast;cake;tea;coffee_shop", "name": "Abarrotes Delirio", "name:es": "Abarrotes Delirio", "opening_hours": "Mo-Sa 08:00-21:00; Su 09:00-19:00"}}, {"type": "node", "id": 4977348792, "lat": 19.3473452, "lon": -99.1829018, "tags": {"amenity": "cafe", "name": "El jarocho"}}, {"type": "node", "id": 4980243349, "lat": 19.3392027, "lon": -99.1901579, "tags": {"amenity": "cafe", "name": "SBUX"}}, {"type": "node", "id": 5002382577, "lat": 19.4313294, "lon": -99.1971228, "tags": {"amenity": "cafe", "name": "Snob Bistro", "outdoor_seating": "yes"}}, {"type": "node", "id": 5004102704, "lat": 19.4300353, "lon": -99.1961903, "tags": {"addr:city": "Ciudad de M\u00e9xico", "addr:country": "MX", "addr:housenumber": "40", "addr:postcode": "11560", "addr:street": "Calle Virgilio", "amenity": "cafe", "name": "Magnolia Bakery", "outdoor_seating": "yes"}}, {"type": "node", "id": 5005413424, "lat": 19.4674889, "lon": -99.1235921, "tags": {"amenity": "cafe", "name": "Quetzal Caf\u00e9"}}, {"type": "node", "id": 5008545539, "lat": 19.4306826, "lon": -99.2001624, "tags": {"addr:city": "Ciudad de M\u00e9xico", "addr:country": "MX", "addr:housenumber": "185", "addr:postcode": "11560", "addr:street": "Avenida Emilio Castelar", "amenity": "cafe", "name": "Caf\u00e9 del Parque", "opening_hours": "Mo-Fr 08:00-22:00; Sa-Su 09:00-19:00", "phone": "+52 55 5281 8623"}}, {"type": "node", "id": 5010528248, "lat": 19.4284332, "lon": -99.1921006, "tags": {"addr:city": "Ciudad de M\u00e9xico", "addr:housenumber": "189", "addr:postcode": "11560", "addr:street": "Campos El\u00edseos", "amenity": "cafe", "name": "Debbie & Peponne - Healthy Food & Bakery", "opening_hours": "Mo-Sa 08:00-23:00; Su 08:00-20:00"}}, {"type": "node", "id": 5015283170, "lat": 19.3448162, "lon": -99.1912073, "tags": {"amenity": "cafe", "cuisine": "coffee_shop", "level": "0", "name": "S\u00f3lo Dios", "opening_hours": "08:00-20:00", "organic": "yes", "outdoor_seating": "yes", "shop": "coffee", "smoking": "outside", "takeaway": "yes", "wheelchair": "no"}}, {"type": "node", "id": 5016807321, "lat": 19.3467957, "lon": -99.1604732, "tags": {"amenity": "cafe", "name": "Fortunata", "name:es": "Fortunata"}}, {"type": "node", "id": 5017191020, "lat": 19.3614376, "lon": -99.1353355, "tags": {"amenity": "cafe"}}, {"type": "node", "id": 5018601025, "lat": 19.3713619, "lon": -99.1779788, "tags": {"amenity": "cafe", "name": "El Jekemir", "name:es": "El Jekemir"}}, {"type": "node", "id": 5018934406, "lat": 19.3889306, "lon": -99.2037076, "tags": {"addr:city": "M\u00c9XICO", "addr:housenumber": "1", "addr:postcode": "01170", "addr:street": "MANZANA 2 GRUPO 1", "amenity": "cafe", "internet_access": "yes", "name": "CREPAS LA ESQUINITA", "opening_hours": "Mo-Fr 09:00-21:00 Sat-18:00-23:00"}}, {"type": "node", "id": 5018994721, "lat": 19.4354837, "lon": -99.1333273, "tags": {"amenity": "cafe", "name": "Cafe R\u00edo"}}, {"type": "node", "id": 5022838521, "lat": 19.4073923, "lon": -99.1602992, "tags": {"addr:housenumber": "5A", "addr:street": "Tepic", "amenity": "cafe", "internet_access": "wlan", "name": "Dulce Romita", "opening_hours": "Mo-Fr 08:30-20:30; Sa-Su 09:30-17:00", "phone": "5570095043"}}, {"type": "node", "id": 5023169423, "lat": 19.2517674, "lon": -99.1193928, "tags": {"amenity": "cafe", "name": "Cafeter\u00eda Don Miguel", "name:es": "Cafeter\u00eda Don Miguel"}}, {"type": "node", "id": 5029559898, "lat": 19.4312651, "lon": -99.1895677, "tags": {"addr:housenumber": "194", "addr:street": "Avenida Presidente Masaryk", "amenity": "cafe", "cuisine": "ice_cream", "name": "Santa Clara", "takeaway": "yes", "wheelchair": "yes"}}, {"type": "node", "id": 5029610492, "lat": 19.4313257, "lon": -99.1908413, "tags": {"amenity": "cafe", "brand": "Caf\u00e9 Punta del Cielo", "brand:wikidata": "Q5739148", "brand:wikipedia": "es:Caf\u00e9 Punta del Cielo", "cuisine": "coffee_shop", "name": "Caf\u00e9 Punta del Cielo", "takeaway": "yes"}}, {"type": "node", "id": 5042022561, "lat": 19.4364684, "lon": -99.1489115, "tags": {"amenity": "cafe", "brand": "Starbucks", "brand:wikidata": "Q37158", "brand:wikipedia": "en:Starbucks", "cuisine": "coffee_shop", "name": "Starbucks", "official_name": "Starbucks Coffee", "takeaway": "yes"}}, {"type": "node", "id": 5059370523, "lat": 19.3926179, "lon": -99.1002557, "tags": {"amenity": "cafe"}}, {"type": "node", "id": 5060997425, "lat": 19.4308015, "lon": -99.166911, "tags": {"amenity": "cafe", "name": "Mexcafe", "name:en": "Mexcafe", "name:es": "Mexcafe"}}, {"type": "node", "id": 5062513735, "lat": 19.4277903, "lon": -99.1706514, "tags": {"amenity": "cafe", "name": "Florecer", "name:es": "Florecer"}}, {"type": "node", "id": 5062513738, "lat": 19.4277255, "lon": -99.1707887, "tags": {"amenity": "cafe", "name": "Cuililo Querido", "name:es": "Cuililo Querido"}}, {"type": "node", "id": 5067957821, "lat": 19.3962977, "lon": -99.1598616, "tags": {"amenity": "cafe", "name": "El cadecito"}}, {"type": "node", "id": 5071672821, "lat": 19.3453118, "lon": -99.1676201, "tags": {"amenity": "cafe", "name": "El Jarocho", "name:es": "El Jarocho"}}, {"type": "node", "id": 5084840727, "lat": 19.4172963, "lon": -99.1692076, "tags": {"amenity": "cafe", "name:en": "Churros"}}, {"type": "node", "id": 5085063923, "lat": 19.4103125, "lon": -99.1697615, "tags": {"amenity": "cafe", "name": "La Ruta", "name:es": "La Ruta"}}, {"type": "node", "id": 5085064022, "lat": 19.4149033, "lon": -99.1694593, "tags": {"amenity": "cafe", "name": "Dek", "name:es": "Dek"}}, {"type": "node", "id": 5085064023, "lat": 19.4103892, "lon": -99.1710885, "tags": {"amenity": "cafe", "name": "Marque", "name:es": "Marque"}},