{"version": 0.6, "generator": "Overpass API 0.7.60 f4c14d41", "osm3s": {"timestamp_osm_base": "2023-05-02T21:19:24Z", "copyright": "The data included in this document is from www.openstreetmap.org. The data is made available under ODbL."}, "elements": [{"type": "node", "id": 5297777788, "lat": 41.107518, "lon": 28.8616128}, {"type": "node", "id": 5297777789, "lat": 41.1075409, "lon": 28.8620054}, {"type": "node", "id": 5297777790, "lat": 41.1074954, "lon": 28.8620109}, {"type": "node", "id": 5297777791, "lat": 41.1074138, "lon": 28.8618325}, {"type": "node", "id": 5297777792, "lat": 41.1073752, "lon": 28.8618585}, {"type": "node", "id": 5297777794, "lat": 41.1073204, "lon": 28.8616768}, {"type": "node", "id": 5297777795, "lat": 41.1074321, "lon": 28.8616336}, {"type": "node", "id": 5667673923, "lat": 41.0642351, "lon": 28.854324, "tags": {"addr:city": "Istanbul", "addr:district": "Ba\u011fc\u0131lar", "addr:street": "Pazar Sokak", "name": "Seyitler", "name:ar": "\u0633\u064a\u062a\u0644\u064a\u0631", "shop": "greengrocer"}}, {"type": "node", "id": 9510410737, "lat": 41.051763, "lon": 28.9180988, "tags": {"addr:city": "\u0130stanbul", "addr:district": "Ey\u00fcpsultan", "addr:housenumber": "12/B", "addr:neighbourhood": "Rami Yenimahalle", "addr:postcode": "34055", "addr:street": "Mazharbey Caddesi", "name": "Ya\u011fmur Mini Hal", "shop": "greengrocer"}}, {"type": "node", "id": 9916946417, "lat": 41.1073836, "lon": 28.8617133}, {"type": "node", "id": 9916946418, "lat": 41.1074679, "lon": 28.8616905}, {"type": "node", "id": 10046986944, "lat": 41.102305, "lon": 28.867095, "tags": {"shop": "greengrocer"}}, {"type": "node", "id": 10104719827, "lat": 41.0754524, "lon": 28.9322839, "tags": {"mobile": "+905362825713", "name": "Kumluca Mini Hal", "shop": "greengrocer"}}, {"type": "node", "id": 10110158443, "lat": 41.0761687, "lon": 28.9299725, "tags": {"name": "K\u0131smet", "shop": "greengrocer"}}, {"type": "way", "id": 548382691, "nodes": [5297777788, 5297777789, 5297777790, 9916946418, 9916946417, 5297777791, 5297777792, 5297777794, 5297777795, 5297777788], "tags": {"building": "yes", "name": "Sultangazi Halk Pazar\u0131", "shop": "greengrocer"}}]}