{"version": 0.6, "generator": "Overpass API 0.7.60 f4c14d41", "osm3s": {"timestamp_osm_base": "2023-05-02T21:17:24Z", "copyright": "The data included in this document is from www.openstreetmap.org. The data is made available under ODbL."}, "elements": [{"type": "node", "id": 288821886, "lat": 41.0709509, "lon": 29.0626164, "tags": {"amenity": "restaurant", "name": "\u0130TO ESHV Tesisleri", "name:ar": "\u0645\u0637\u0639\u0645 \u0627\u064a\u062a\u0648 \u0627\u064a\u0635\u0647\u0627\u0641"}}, {"type": "node", "id": 355914234, "lat": 41.1098522, "lon": 29.0568636}, {"type": "node", "id": 355914235, "lat": 41.1097094, "lon": 29.0568608}, {"type": "node", "id": 355914236, "lat": 41.109707, "lon": 29.0570412}, {"type": "node", "id": 355914237, "lat": 41.1098517, "lon": 29.0570457}, {"type": "node", "id": 481337275, "lat": 41.1354436, "lon": 29.089699, "tags": {"amenity": "restaurant"}}, {"type": "node", "id": 482032813, "lat": 41.1217558, "lon": 29.0708274, "tags": {"amenity": "restaurant", "name": "Iskele Restaurant", "name:ar": "\u0645\u0637\u0639\u0645 \u0627\u0633\u0643\u064a\u0644\u064a"}}, {"type": "node", "id": 772686807, "lat": 41.0847588, "lon": 29.0429654, "tags": {"amenity": "restaurant", "cuisine": "pizza", "name": "Po\u011fa\u00e7ac\u0131", "name:ar": "\u0628\u064a\u062a\u0632\u0627 \u0628\u0648\u063a\u0627\u062c\u0627\u062c\u064a", "note": "was Pop\u00fcler Pizza"}}, {"type": "node", "id": 954989438, "lat": 41.114686, "lon": 29.058002, "tags": {"amenity": "restaurant", "description": "Fish", "name": "Fishvar", "name:ar": "\u0645\u0637\u0639\u0645 \u0641\u064a\u0634\u0641\u0627\u0631 \u0644\u0644\u0633\u0645\u0643"}}, {"type": "node", "id": 1457211986, "lat": 41.1773925, "lon": 29.0936969, "tags": {"amenity": "restaurant"}}, {"type": "node", "id": 1457211988, "lat": 41.1776512, "lon": 29.0955312, "tags": {"amenity": "restaurant"}}, {"type": "node", "id": 1457212000, "lat": 41.1779064, "lon": 29.0947642, "tags": {"amenity": "restaurant"}}, {"type": "node", "id": 1484074147, "lat": 41.0708579, "lon": 29.0425191, "tags": {"amenity": "restaurant", "name": "Taskin Kofte", "name:ar": "\u0645\u0637\u0639\u0645 \u062a\u0627\u0633\u0643\u064a\u0646 \u0644\u0644\u0643\u0641\u062a\u0629"}}, {"type": "node", "id": 1697171839, "lat": 41.0511155, "lon": 28.9926497, "tags": {"amenity": "restaurant", "diet:vegetarian": "only", "name": "Falafel Veggie"}}, {"type": "node", "id": 1768294237, "lat": 41.0913113, "lon": 29.0666699, "tags": {"amenity": "restaurant", "name": "Lacivert"}}, {"type": "node", "id": 1768294289, "lat": 41.0640804, "lon": 29.0331316, "tags": {"amenity": "restaurant", "name": "Sunset"}}, {"type": "node", "id": 1863058677, "lat": 41.0806378, "lon": 29.0355521, "tags": {"addr:housenumber": "No: 1/2", "addr:postcode": "34337", "addr:street": "B\u0131y\u0131kl\u0131 Mehmet Pa\u015fa Sok.", "amenity": "restaurant", "cuisine": "international", "name": "Allsports Cafe", "website": "http://www.allsportscafe.com"}}, {"type": "node", "id": 1918327840, "lat": 41.086955, "lon": 29.006026, "tags": {"amenity": "restaurant", "created_by": "iLOE 1.9", "name": "Ka\u015f\u0131k\u00e7\u0131 Pilav"}}, {"type": "node", "id": 1920284168, "lat": 41.049468, "lon": 29.0762049, "tags": {"amenity": "restaurant", "cuisine": "turkish", "name": "Pa\u015fa \u00c7ad\u0131r\u0131"}}, {"type": "node", "id": 2055997023, "lat": 41.0665216, "lon": 28.973324, "tags": {"amenity": "restaurant", "name": "KARDE\u015eLER LOKANTASI"}}, {"type": "node", "id": 2201741096, "lat": 41.1722647, "lon": 29.0659218, "tags": {"amenity": "restaurant", "cuisine": "turkish", "designation": "Military", "name": "Yenimahalle Astsubay Orduevi"}}, {"type": "node", "id": 2261194405, "lat": 41.0682401, "lon": 29.0009827, "tags": {"amenity": "restaurant", "cuisine": "turkish", "name": "Salon Cafe"}}, {"type": "node", "id": 2261241220, "lat": 41.0686953, "lon": 29.0019483, "tags": {"amenity": "restaurant", "cuisine": "international", "name": "Akademi Lezzet"}}, {"type": "node", "id": 2261241222, "lat": 41.0684001, "lon": 29.001605, "tags": {"amenity": "restaurant"}}, {"type": "node", "id": 2261241223, "lat": 41.0689377, "lon": 29.0020583, "tags": {"amenity": "restaurant", "cuisine": "turkish", "name": "\u0130mer Cafe"}}, {"type": "node", "id": 2261380678, "lat": 41.0632132, "lon": 29.0662247, "tags": {"amenity": "restaurant", "name": "Rasathane Kebap"}}, {"type": "node", "id": 2275021365, "lat": 41.0691421, "lon": 29.0003068}, {"type": "node", "id": 2280003591, "lat": 41.0678138, "lon": 29.0067149, "tags": {"amenity": "restaurant", "name": "Limma"}}, {"type": "node", "id": 2378238756, "lat": 41.0860548, "lon": 29.0484362, "tags": {"amenity": "restaurant", "cuisine": "regional", "name": "Yenice"}}, {"type": "node", "id": 2383708227, "lat": 41.074314, "lon": 29.0581857, "tags": {"addr:city": "\u00dcsk\u00fcdar -  \u0130stanbul", "addr:housenumber": "17", "addr:street": "Kandilli \u0130skele Caddesi", "amenity": "restaurant", "cuisine": "seafood", "name": "Suna'n\u0131n Yeri", "note": "Great seafood right at the Bosperus", "phone": "+90 0216 332 32 41", "website": "http://www.sunaninyeri.com/"}}, {"type": "node", "id": 2385038543, "lat": 41.0571211, "lon": 29.0728664, "tags": {"amenity": "restaurant"}}, {"type": "node", "id": 2391545874, "lat": 41.0804956, "lon": 29.0658984}, {"type": "node", "id": 2391545879, "lat": 41.0804007, "lon": 29.0657614}, {"type": "node", "id": 2391545882, "lat": 41.0806255, "lon": 29.0655096}, {"type": "node", "id": 2391545885, "lat": 41.0807138, "lon": 29.0656488}, {"type": "node", "id": 2561648214, "lat": 41.1029448, "lon": 29.0281677}, {"type": "node", "id": 2561648215, "lat": 41.1028508, "lon": 29.0281938}, {"type": "node", "id": 2561648216, "lat": 41.102874, "lon": 29.0283571}, {"type": "node", "id": 2561648217, "lat": 41.1029634, "lon": 29.028334}, {"type": "node", "id": 2766607503, "lat": 41.0862571, "lon": 29.0080208, "tags": {"amenity": "restaurant", "name": "Captain"}}, {"type": "node", "id": 2766607505, "lat": 41.0855803, "lon": 29.0084838, "tags": {"amenity": "restaurant", "cuisine": "K\u00f6fte", "name": "Cafe Levent", "price": "TRY 15"}}, {"type": "node", "id": 2766607506, "lat": 41.0854096, "lon": 29.0087314, "tags": {"amenity": "restaurant", "name": "1972 \u00c7evre Pasta Cafe Restaurant"}}, {"type": "node", "id": 2766607509, "lat": 41.0857296, "lon": 29.0085524, "tags": {"amenity": "restaurant", "name": "on1 Bistro"}}, {"type": "node", "id": 2766607511, "lat": 41.0858347, "lon": 29.0084532, "tags": {"amenity": "restaurant", "cuisine": "k\u00f6fte", "name": "Sefik"}}, {"type": "node", "id": 2766607513, "lat": 41.0859059, "lon": 29.0087094, "tags": {"amenity": "restaurant", "name": "Capital"}}, {"type": "node", "id": 2766607520, "lat": 41.0860694, "lon": 29.0085729, "tags": {"amenity": "restaurant", "name": "Y\u00fccel simit"}}, {"type": "node", "id": 2766607523, "lat": 41.0864045, "lon": 29.0082634, "tags": {"amenity": "restaurant", "name": "Sehr-i Simit"}}, {"type": "node", "id": 2766607525, "lat": 41.0864774, "lon": 29.0082443, "tags": {"amenity": "restaurant", "name": "Arka Bahcemiz"}}, {"type": "node", "id": 2773225752, "lat": 41.0645058, "lon": 29.031933, "tags": {"addr:housenumber": "71", "addr:street": "Ahmet Adnan Saygun Caddesi", "amenity": "restaurant", "contact:email": "rezervasyon.29@ulus29.com", "cuisine": "regional", "name": "Ulus 29", "note": "Amazing view over Bosperus", "opening_hours": "18:30+ \"Dinner\"; Mo-Fr 12:00-15:00 \"Lunch\"", "phone": "+90 212 358 29 29", "smoking": "no", "website": "http://www.group-29.com/"}}, {"type": "node", "id": 2773225859, "lat": 41.0882536, "lon": 29.0568235, "tags": {"amenity": "restaurant", "cuisine": "seafood", "name": "Iskele"}}, {"type": "node", "id": 2773225874, "lat": 41.0987375, "lon": 29.0533167, "tags": {"amenity": "restaurant", "cuisine": "seafood", "name": "Angel Blue"}}, {"type": "node", "id": 2773225910, "lat": 41.1687636, "lon": 29.0578491, "tags": {"amenity": "restaurant", "name": "Aquarius"}}, {"type": "node", "id": 2773225927, "lat": 41.1685623, "lon": 29.0577779, "tags": {"amenity": "restaurant", "cuisine": "seafood", "name": "Dolphin"}}, {"type": "node", "id": 2773226249, "lat": 41.1831753, "lon": 29.075266, "tags": {"addr:city": "Rumeli", "addr:housenumber": "29", "addr:street": "Kavak \u0130skele Cadessi", "amenity": "restaurant", "cuisine": "seafood", "name": "Super Yedig\u00fcn", "phone": "+90 (0212) 271 0084", "smoking": "no"}}, {"type": "node", "id": 2777269814, "lat": 41.2481442, "lon": 29.0708014}, {"type": "node", "id": 2777269816, "lat": 41.24816, "lon": 29.0710062}, {"type": "node", "id": 2777269818, "lat": 41.2479012, "lon": 29.0710415}, {"type": "node", "id": 2777269820, "lat": 41.2478854, "lon": 29.0708367}, {"type": "node", "id": 2841625804, "lat": 41.0517354, "lon": 29.0100024}, {"type": "node", "id": 2841625805, "lat": 41.0515144, "lon": 29.0099373}, {"type": "node", "id": 2841625808, "lat": 41.0512522, "lon": 29.0103108}, {"type": "node", "id": 2841625809, "lat": 41.0514335, "lon": 29.0103642}, {"type": "node", "id": 2841625810, "lat": 41.0514562, "lon": 29.0102285}, {"type": "node", "id": 2841625811, "lat": 41.0517034, "lon": 29.0103015}, {"type": "node", "id": 2847377853, "lat": 41.2033084, "lon": 29.0704392, "tags": {"amenity": "restaurant", "name": "K\u00fc\u00e7\u00fck Evim Ev Yemekleri"}}, {"type": "node", "id": 2847377883, "lat": 41.204818, "lon": 29.0733666, "tags": {"amenity": "restaurant", "name": "Yemekhane"}}, {"type": "node", "id": 2847384013, "lat": 41.2049719, "lon": 29.0733588, "tags": {"amenity": "restaurant", "name": "Mio"}}, {"type": "node", "id": 2847384015, "lat": 41.2049624, "lon": 29.0734297, "tags": {"amenity": "restaurant", "name": "Lokma Kamp\u00fcs"}}, {"type": "node", "id": 2847384024, "lat": 41.2050621, "lon": 29.0733457, "tags": {"amenity": "restaurant", "name": "Divan Sports Cafe"}}, {"type": "node", "id": 2964388849, "lat": 41.0501822, "lon": 29.0523473, "tags": {"addr:city": "Istanbul", "addr:postcode": "34684", "addr:street": "\u00dcsk\u00fcdar", "amenity": "restaurant", "cuisine": "regional,_local,_Turkish", "name": "\u00c7\u0131naralt\u0131 Cafe \u00c7engelk\u00f6y", "smoking": "outside"}}, {"type": "node", "id": 3061369462, "lat": 41.2104687, "lon": 29.0191599}, {"type": "node", "id": 3061369463, "lat": 41.2104586, "lon": 29.019113}, {"type": "node", "id": 3061369464, "lat": 41.2104737, "lon": 29.019109}, {"type": "node", "id": 3061369465, "lat": 41.2104616, "lon": 29.0190446}, {"type": "node", "id": 3061369466, "lat": 41.2104404, "lon": 29.0190553}, {"type": "node", "id": 3061369467, "lat": 41.2104324, "lon": 29.0190178}, {"type": "node", "id": 3061369468, "lat": 41.2103385, "lon": 29.0190553}, {"type": "node", "id": 3061369469, "lat": 41.2103597, "lon": 29.0191881}, {"type": "node", "id": 3137363960, "lat": 41.1385724, "lon": 29.0536668, "tags": {"amenity": "restaurant", "name": "Alimento Bal\u0131k"}}, {"type": "node", "id": 3181116593, "lat": 41.1046076, "lon": 29.0205794, "tags": {"amenity": "restaurant", "name": "Fanfan", "wheelchair": "no"}}, {"type": "node", "id": 3188826614, "lat": 41.1744437, "lon": 29.0879115, "tags": {"amenity": "restaurant"}}, {"type": "node", "id": 3190096461, "lat": 41.084624, "lon": 29.013777, "tags": {"amenity": "restaurant", "cuisine": "kebab", "name": "K\u00f6\u015feba\u015f\u0131"}}, {"type": "node", "id": 3305039673, "lat": 41.0517129, "lon": 29.0101366}, {"type": "node", "id": 3305039676, "lat": 41.0517326, "lon": 29.0101435}, {"type": "node", "id": 3305041972, "lat": 41.0517159, "lon": 29.0101187}, {"type": "node", "id": 3306615870, "lat": 41.0529816, "lon": 29.0109427}, {"type": "node", "id": 3306615871, "lat": 41.0530051, "lon": 29.0107059}, {"type": "node", "id": 3306615872, "lat": 41.0529827, "lon": 29.010702}, {"type": "node", "id": 3306615873, "lat": 41.0529864, "lon": 29.0106653}, {"type": "node", "id": 3306615874, "lat": 41.0529581, "lon": 29.0106604}, {"type": "node", "id": 3306615875, "lat": 41.0529613, "lon": 29.0106283}, {"type": "node", "id": 3306615876, "lat": 41.0528685, "lon": 29.0106121}, {"type": "node", "id": 3306615877, "lat": 41.0528658, "lon": 29.0106393}, {"type": "node", "id": 3306615884, "lat": 41.0528326, "lon": 29.0109559}, {"type": "node", "id": 3306615885, "lat": 41.05283, "lon": 29.010982}, {"type": "node", "id": 3306615886, "lat": 41.0529227, "lon": 29.0109982}, {"type": "node", "id": 3306615887, "lat": 41.0529258, "lon": 29.0109673}, {"type": "node", "id": 3306615888, "lat": 41.0529543, "lon": 29.0109723}, {"type": "node", "id": 3306615889, "lat": 41.0529576, "lon": 29.0109385}, {"type": "node", "id": 3315359708, "lat": 41.0524326, "lon": 29.0109076}, {"type": "node", "id": 3315359709, "lat": 41.0525652, "lon": 29.0109026}, {"type": "node", "id": 3315359710, "lat": 41.0525628, "lon": 29.0107919}, {"type": "node", "id": 3315359711, "lat": 41.0524302, "lon": 29.010797}, {"type": "node", "id": 3406990699, "lat": 41.0567731, "lon": 29.0116228, "tags": {"amenity": "restaurant", "cuisine": "turkish", "designation": "Milk Cafe", "name": "Milk Cafe", "source": "Survey"}}, {"type": "node", "id": 3418422338, "lat": 41.0682271, "lon": 29.006213, "tags": {"amenity": "restaurant", "name": "Midpoint"}}, {"type": "node", "id": 3459765432, "lat": 41.0964788, "lon": 29.0683478}, {"type": "node", "id": 3459765433, "lat": 41.0964626, "lon": 29.0686458}, {"type": "node", "id": 3459765434, "lat": 41.0963285, "lon": 29.068633}, {"type": "node", "id": 3459765437, "lat": 41.0963447, "lon": 29.0683349}, {"type": "node", "id": 3461314356, "lat": 41.0950032, "lon": 29.0996374, "tags": {"addr:postcode": "34805", "amenity": "restaurant", "name": "Bayramo\u011flu D\u00f6ner", "phone": "+90 216 413 00 45", "website": "http://bayramogludoner.com.tr/"}}, {"type": "node", "id": 3461314357, "lat": 41.0950881, "lon": 29.0985725, "tags": {"amenity": "restaurant", "name": "Birlik Kasap Steakpoint"}}, {"type": "node", "id": 3473426241, "lat": 41.0807949, "lon": 29.0660777, "tags": {"amenity": "restaurant", "name": "K\u0131y\u0131 Emniyeti Tesisi"}}, {"type": "node", "id": 3473426245, "lat": 41.0811095, "lon": 29.0666983, "tags": {"amenity": "restaurant", "name": "Big Chefs"}}, {"type": "node", "id": 3818242615, "lat": 41.0943368, "lon": 29.0930511, "tags": {"amenity": "restaurant", "name": "Define D\u00f6ner"}}, {"type": "node", "id": 3818242617, "lat": 41.0939827, "lon": 29.0930696, "tags": {"addr:housenumber": "46A", "amenity": "restaurant", "name": "Cezbe Restaurant"}}, {"type": "node", "id": 3904596206, "lat": 41.1101038, "lon": 29.0320391, "tags": {"addr:city": "Sar\u0131yer", "addr:housenumber": "423", "addr:postcode": "34460", "addr:street": "\u0130stinye Bay\u0131r\u0131 Cad. \u0130stinyePark Al\u0131\u015fveri\u015f Merkezi", "amenity": "restaurant", "contact:phone": "2123455665", "craft": "clockmaker", "name": "Hublot Boutique Istanbul", "name:ar": "\u0645\u0642\u0647\u0649 Godiva"}}, {"type": "node", "id": 3998552479, "lat": 41.0788238, "lon": 29.0115384, "tags": {"addr:city": "\u015ei\u015fli", "addr:housenumber": "187", "addr:postcode": "34394", "addr:street": "B\u00fcy\u00fckdere Caddesi", "amenity": "restaurant", "name": "Butcha Steakhouse & Marly", "phone": "+902129390191", "website": "http://www.butcha.com"}}, {"type": "node", "id": 4043707844, "lat": 41.0728649, "lon": 29.0281724, "tags": {"amenity": "restaurant", "name": "Bodrum Mant\u0131"}}, {"type": "node", "id": 4044269474, "lat": 41.0717731, "lon": 29.0286349, "tags": {"amenity": "restaurant", "name": "Et Ekmek Sal\u00e7a"}}, {"type": "node", "id": 4044269477, "lat": 41.0717244, "lon": 29.0285699, "tags": {"amenity": "restaurant", "name": "Pizzeria Ulus"}}, {"type": "node", "id": 4044310880, "lat": 41.0734341, "lon": 29.0293964, "tags": {"amenity": "restaurant", "name": "China Big Box & Sushi"}}, {"type": "node", "id": 4044310883, "lat": 41.0716874, "lon": 29.0284791, "tags": {"amenity": "restaurant", "name": "K\u00f6steci \u015eaban Usta"}}, {"type": "node", "id": 4044310884, "lat": 41.0735772, "lon": 29.02932, "tags": {"amenity": "restaurant", "name": "Maydanoz Kebap"}}, {"type": "node", "id": 4047095797, "lat": 41.0764341, "lon": 29.025618, "tags": {"amenity": "restaurant", "name": "Bal\u0131k Lounge"}}, {"type": "node", "id": 4047095799, "lat": 41.0763623, "lon": 29.0260888, "tags": {"amenity": "restaurant", "name": "CookShop"}}, {"type": "node", "id": 4047095800, "lat": 41.0762753, "lon": 29.0260512, "tags": {"amenity": "restaurant", "name": "ZerafEt"}}, {"type": "node", "id": 4053680400, "lat": 41.0773318, "lon": 29.0226341, "tags": {"amenity": "restaurant", "name": "Adanal\u0131 Hasan Kolcuo\u011flu"}}, {"type": "node", "id": 4053740056, "lat": 41.0754878, "lon": 29.0182607, "tags": {"amenity": "restaurant", "name": "\u0645\u0637\u0639\u0645 \u0627\u0644\u0645\u062f\u064a\u0646\u0629 \u0628\u0648\u0631\u0627\u0643"}}, {"type": "node", "id": 4053740057, "lat": 41.0750905, "lon": 29.0173823, "tags": {"amenity": "restaurant", "name": "Naml\u0131 Kebap"}}, {"type": "node", "id": 4053740058, "lat": 41.0753159, "lon": 29.0179027, "tags": {"amenity": "restaurant", "name": "Nisp-Et"}}, {"type": "node", "id": 4053740061, "lat": 41.0760266, "lon": 29.0195656, "tags": {"amenity": "restaurant", "name": "Set Kebap"}}, {"type": "node", "id": 4053740063, "lat": 41.0763198, "lon": 29.0203461, "tags": {"amenity": "restaurant", "name": "Tatl\u0131ses Kebap"}}, {"type": "node", "id": 4053760863, "lat": 41.0764856, "lon": 29.0164368, "tags": {"amenity": "restaurant", "name": "K\u00f6fteci Ramiz"}}, {"type": "node", "id": 4053774740, "lat": 41.0759182, "lon": 29.0150136, "tags": {"amenity": "restaurant", "name": "Konak Restaurant"}}, {"type": "node", "id": 4053774742, "lat": 41.0758912, "lon": 29.0151601, "tags": {"amenity": "restaurant", "brand": "Pizza Hut", "brand:wikidata": "Q191615", "brand:wikipedia": "en:Pizza Hut", "cuisine": "pizza", "name": "Pizza Hut"}}, {"type": "node", "id": 4053781520, "lat": 41.0760029, "lon": 29.0149436, "tags": {"amenity": "restaurant", "name": "\u015eirvan Kebap"}}, {"type": "node", "id": 4053860158, "lat": 41.0772809, "lon": 29.0278551, "tags": {"amenity": "restaurant", "name": "K\u00f6fteci Ramiz"}}, {"type": "node", "id": 4053864395, "lat": 41.0761394, "lon": 29.0118322, "tags": {"amenity": "restaurant", "name": "HD \u0130skender"}}, {"type": "node", "id": 4057378731, "lat": 41.0723809, "lon": 29.0282909, "tags": {"amenity": "restaurant", "name": "Osman Ev Yemekleri", "shop": "bakery"}}, {"type": "node", "id": 4057395307, "lat": 41.071746, "lon": 29.0284545, "tags": {"amenity": "restaurant", "name": "My Ora Cafe"}}, {"type": "node", "id": 4094095064, "lat": 41.0869535, "lon": 29.0096655, "tags": {"amenity": "restaurant", "name": "Median"}}, {"type": "node", "id": 4157902090, "lat": 41.1734474, "lon": 29.0884768, "tags": {"amenity": "restaurant"}}, {"type": "node", "id": 4165094913, "lat": 41.0498657, "lon": 29.0254523, "tags": {"amenity": "restaurant", "name": "Meshur Bursa Negolkoftelisi", "wheelchair": "no"}}, {"type": "node", "id": 4213379594, "lat": 41.0583014, "lon": 28.980302, "tags": {"addr:street": "Birahane Sokak", "amenity": "restaurant", "name": "Babylon Bomonti"}}, {"type": "node", "id": 4406236962, "lat": 41.0618975, "lon": 29.0577212, "tags": {"amenity": "restaurant", "name": "Eski Yemekhane"}}, {"type": "node", "id": 4420912318, "lat": 41.0681526, "lon": 29.0057003, "tags": {"amenity": "restaurant", "name": "Big Chefs"}}, {"type": "node", "id": 4460648892, "lat": 41.0690993, "lon": 29.0000575, "tags": {"amenity": "restaurant", "name": "Ba\u011flar Kebab", "name:tr": "Ba\u011flar Kebab"}}, {"type": "node", "id": 4463605090, "lat": 41.1244157, "lon": 29.2844105, "tags": {"addr:housenumber": "7", "addr:postcode": "34799", "addr:street": "Dildar sok", "amenity": "restaurant", "email": "iletisim@piknikyeri.com", "internet_access": "wlan", "name:tr": "piknikyeri.com", "phone": "02164345865", "website": "http://www.piknikyeri.com"}}, {"type": "node", "id": 4494008806, "lat": 41.1079764, "lon": 29.0535191, "tags": {"amenity": "restaurant", "name": "BELTUR Sar\u0131 k\u00f6\u015fk restorant", "opening_hours": "Mo-Su 09:00-22:00"}}, {"type": "node", "id": 4535158993, "lat": 41.1185497, "lon": 29.0662598, "tags": {"amenity": "restaurant"}}, {"type": "node", "id": 4537066990, "lat": 41.0790826, "lon": 29.0314194, "tags": {"amenity": "restaurant", "name": "\u0645\u0637\u0639\u0645 \u0643\u0628\u0627\u0628\u062c\u064a \u0645\u0646\u0637\u0642\u0629  \u0627\u062a\u064a\u0644\u0631", "name:en": "kEBAPCI etiler", "name:tr": "\u0645\u0637\u0639\u0645 \u0643\u0628\u0627\u0628\u062c\u064a \u0645\u0646\u0637\u0642\u0629  \u0627\u062a\u064a\u0644\u0631"}}, {"type": "node", "id": 4538704196, "lat": 41.1306039, "lon": 29.0413753, "tags": {"amenity": "restaurant", "name:en": "Belgrad Forest"}}, {"type": "node", "id": 4542442292, "lat": 41.0943885, "lon": 29.1016434, "tags": {"addr:street": "Cumhuriyet Caddesi", "amenity": "restaurant", "cuisine": "kebab", "name": "Y\u00f6rem Ca\u011f Kebap"}}, {"type": "node", "id": 4542465237, "lat": 41.0945224, "lon": 29.1013037, "tags": {"addr:street": "Cumhuriyet Caddesi", "amenity": "restaurant", "cuisine": "turkish", "name": "Esasl\u0131 \u015eef Me\u015fhur Kuru Fasulye"}}, {"type": "node", "id": 4542485967, "lat": 41.0946959, "lon": 29.1008902, "tags": {"addr:street": "Cumhuriyet Caddesi", "amenity": "restaurant", "capacity": "100", "cuisine": "kebab", "name": "K\u00f6fteci Odaba\u015flar"}}, {"type": "node", "id": 4542488654, "lat": 41.0948322, "lon": 29.101281, "tags": {"addr:street": "Yasemin Sk.", "amenity": "restaurant", "capacity": "100", "cuisine": "turkish", "name": "Van Kahvalt\u0131 Sofras\u0131"}}, {"type": "node", "id": 4545698295, "lat": 41.0675003, "lon": 29.0164139, "tags": {"amenity": "restaurant", "name": "Hac\u0131 Abdullah Saray Mutfa\u011f\u0131", "name:en": "hacl abdullah saray mutfagi", "wheelchair": "yes"}}, {"type": "node", "id": 4545708218, "lat": 41.0617145, "lon": 28.9864849, "tags": {"amenity": "restaurant", "name": "\u0645\u0637\u0639\u0645  sultan sofrasi  \u0634\u0634\u0644\u064a", "name:tr": "\u0645\u0637\u0639\u0645  sultan sofrasi  \u0634\u0634\u0644\u064a"}}, {"type": "node", "id": 4545742891, "lat": 41.0951869, "lon": 29.053893, "tags": {"amenity": "restaurant", "name": "Oba Restaurant", "name:ar": "\u0645\u0637\u0639\u0645 \u0648 \u0645\u0642\u0647\u0649oba restaurants & cafe", "name:tr": "opa cafe"}}, {"type": "node", "id": 4545759192, "lat": 41.0805296, "lon": 29.0335554, "tags": {"amenity": "restaurant", "name": "NUSR ET STEAKHOUSE", "name:ar": "\u0645\u0637\u0639\u0645 \u0646\u0635\u0631\u062a \u0644\u0644\u062d\u0648\u0645", "name:tr": "NUSR ET STEAKHOUSE"}}, {"type": "node", "id": 4546563579, "lat": 41.1933632, "lon": 29.4397865, "tags": {"amenity": "restaurant"}}, {"type": "node", "id": 4547413790, "lat": 41.0550392, "lon": 28.9956628, "tags": {"addr:city": "\u0130stanbul", "addr:district": "\u015ei\u015fli", "addr:housenumber": "No:96/A", "addr:neighbourhood": "Te\u015fvikiye", "addr:postcode": "34365", "addr:street": "Valikona\u011f\u0131 Caddesi", "amenity": "restaurant", "delivery": "yes", "email": "info@gurkansefsteakhouse.com", "internet_access": "yes", "name:en": "Gurkan sef stesk house", "opening_hours": "Mo-Su 11:30-23:30", "outdoor_seating": "yes", "phone": "0212 291 58 25", "reservation": "recommended", "website": "gurkansefsteakhouse.com"}}, {"type": "node", "id": 4548318189, "lat": 41.049946, "lon": 29.052327, "tags": {"amenity": "restaurant", "name": "S\u00fcti\u015f Abdullah A\u011fa Yal\u0131s\u0131", "name:tr": "S\u00fcti\u015f Abdullah A\u011fa Yal\u0131s\u0131"}}, {"type": "node", "id": 4548587489, "lat": 41.0864044, "lon": 29.0490632, "tags": {"amenity": "restaurant", "name": "Tahin", "name:ar": "\u0645\u0637\u0639\u0645 \u0644\u0628\u0646\u0627\u0646\u064a Tahin"}}, {"type": "node", "id": 4549040570, "lat": 41.0512488, "lon": 29.2400655, "tags": {"amenity": "restaurant", "name": "Karadeniz Pidecisi Macit Usta"}}, {"type": "node", "id": 4549880191, "lat": 41.0500707, "lon": 29.0538791, "tags": {"amenity": "restaurant", "name:ar": "\u0645\u0637\u0639\u0645 \u0641\u064a \u0634\u0646\u0642\u0644 \u0643\u0648\u064a"}}, {"type": "node", "id": 4573197196, "lat": 41.0530886, "lon": 28.9929509, "tags": {"amenity": "restaurant", "name:ar": "\u0645\u0637\u0639\u0645  Santa's s.ahmet koftecisi"}}, {"type": "node", "id": 4580105040, "lat": 41.0783085, "lon": 29.0103572, "tags": {"amenity": "restaurant", "brand": "Wagamama", "brand:wikidata": "Q503715", "brand:wikipedia": "en:Wagamama", "cuisine": "asian", "name": "Wagamama"}}, {"type": "node", "id": 4580134623, "lat": 41.0785134, "lon": 29.011646, "tags": {"amenity": "restaurant", "cuisine": "japanese", "name": "sushico"}}, {"type": "node", "id": 4580140491, "lat": 41.0784827, "lon": 29.0118818, "tags": {"amenity": "restaurant", "cuisine": "international", "name": "BigChefs"}}, {"type": "node", "id": 4580182353, "lat": 41.0773182, "lon": 29.0130364, "tags": {"amenity": "restaurant", "cuisine": "turkish", "name": "bilakis"}}, {"type": "node", "id": 4581061193, "lat": 41.0934696, "lon": 29.0878084}, {"type": "node", "id": 4581061194, "lat": 41.0933478, "lon": 29.0877596}, {"type": "node", "id": 4581061195, "lat": 41.0933243, "lon": 29.0878863}, {"type": "node", "id": 4581061196, "lat": 41.0933908, "lon": 29.0879136}, {"type": "node", "id": 4581061197, "lat": 41.0934406, "lon": 29.0879341}, {"type": "node", "id": 4581421715, "lat": 41.0944172, "lon": 29.0925535}, {"type": "node", "id": 4581423928, "lat": 41.0944588, "lon": 29.0924177}, {"type": "node", "id": 4581423929, "lat": 41.0943548, "lon": 29.0924148}, {"type": "node", "id": 4581423930, "lat": 41.094356, "lon": 29.0925495}, {"type": "node", "id": 4581423931, "lat": 41.0944585, "lon": 29.0925562}, {"type": "node", "id": 4581814931, "lat": 41.0929952, "lon": 29.0868913, "tags": {"amenity": "restaurant", "cuisine": "steak_house", "description": "k\u00f6fteci", "name": "k\u00f6fteci irfan"}}, {"type": "node", "id": 4581871732, "lat": 41.0930579, "lon": 29.0871879, "tags": {"addr:housenumber": "2A", "addr:street": "Fatih Sultan Mehmet Cd.", "amenity": "restaurant", "cuisine": "coffee_shop", "description": "\u015fark\u00fcteri, restoran, cafe", "name": "sehil"}}, {"type": "node", "id": 4581888007, "lat": 41.0933897, "lon": 29.0896092, "tags": {"addr:housenumber": "22B", "addr:street": "Fatih Sultan Mehmet Cd.", "amenity": "restaurant", "cuisine": "turkish", "name": "Nokta Kebap"}}, {"type": "node", "id": 4581967246, "lat": 41.0936873, "lon": 29.0914782, "tags": {"amenity": "restaurant", "cuisine": "kebab", "name": "pa\u015fa d\u00f6ner"}}, {"type": "node", "id": 4582025352, "lat": 41.0943886, "lon": 29.0883291, "tags": {"amenity": "restaurant", "cuisine": "kebab", "name": "k\u00f6zde kebap"}}, {"type": "node", "id": 4582592038, "lat": 41.0928031, "lon": 29.0856054, "tags": {"addr:housenumber": "26B", "addr:street": "Fatih Sultan Mehmet Cd.", "amenity": "restaurant", "cuisine": "turkish", "name": "tomak d\u00f6ner"}}, {"type": "node", "id": 4582621589, "lat": 41.0925551, "lon": 29.085971, "tags": {"addr:housenumber": "31D", "addr:street": "Fatih Sultan Mehmet Cd.", "amenity": "restaurant", "cuisine": "turkish", "name": "gade"}}, {"type": "node", "id": 4583084683, "lat": 41.0938622, "lon": 29.0908186, "tags": {"addr:housenumber": "26", "amenity": "restaurant", "cuisine": "pizza", "name": "habil pizza"}}, {"type": "node", "id": 4583084697, "lat": 41.0942927, "lon": 29.0931239, "tags": {"amenity": "restaurant", "cuisine": "turkish", "name": "sait efendi"}}, {"type": "node", "id": 4583084714, "lat": 41.0948217, "lon": 29.0887337, "tags": {"amenity": "restaurant", "cuisine": "kebab", "name": "pa\u015fa sofras\u0131"}}, {"type": "node", "id": 4583106597, "lat": 41.0944922, "lon": 29.0888756, "tags": {"amenity": "restaurant", "cuisine": "regional", "name": "sisore"}}, {"type": "node", "id": 4583710438, "lat": 41.0944011, "lon": 29.0916243, "tags": {"amenity": "restaurant", "cuisine": "regional", "name": "ziya \u015fark\u00fcteri"}}, {"type": "node", "id": 4583755634, "lat": 41.0950481, "lon": 29.0978305, "tags": {"addr:housenumber": "43", "addr:street": "Cumhuriyet Caddesi", "amenity": "restaurant", "cuisine": "kebab", "name": "\u0130ntiba D\u00f6ner"}}, {"type": "node", "id": 4610762789, "lat": 41.0807909, "lon": 29.0348951, "tags": {"amenity": "restaurant", "name": "Meat Co Steak House", "name:ar": "\u0645\u0637\u0639\u0645 the galliard restaurant & bar"}}, {"type": "node", "id": 4621545489, "lat": 41.078584, "lon": 29.0271762, "tags": {"amenity": "restaurant", "name:ar": "Dirty hands \u0645\u0637\u0639\u0645"}}, {"type": "node", "id": 4668670689, "lat": 41.2241646, "lon": 29.2164183, "tags": {"amenity": "restaurant", "fixme": "Is it true location?", "name": "Cafede Riva", "name:ar": "\u0645\u0637\u0639\u0645"}}, {"type": "node", "id": 4691931854, "lat": 41.0939323, "lon": 29.0888869, "tags": {"amenity": "restaurant", "name": "kehribar restrant"}}, {"type": "node", "id": 4691931868, "lat": 41.0940121, "lon": 29.0903626, "tags": {"amenity": "restaurant", "name": "pide keyfi"}}, {"type": "node", "id": 4691931869, "lat": 41.0941839, "lon": 29.0903733, "tags": {"amenity": "restaurant", "name": "angel"}}, {"type": "node", "id": 4691931870, "lat": 41.0941536, "lon": 29.0906442, "tags": {"amenity": "restaurant", "name": "sultan ahmet k\u00f6ftecisi"}}, {"type": "node", "id": 4779993130, "lat": 41.0539812, "lon": 29.0349231, "tags": {"addr:housenumber": "54", "addr:postcode": "34345", "addr:street": "Muallim Naci Caddesi", "amenity": "restaurant", "cuisine": "seafood", "email": "info@parkfora.com", "name:en": "Park Fora", "opening_hours": "Mo-Su 12:00-02:00", "phone": "+902122655063", "website": "https://www.parkfora.com/"}}, {"type": "node", "id": 4786907702, "lat": 41.052274, "lon": 28.9864223, "tags": {"addr:housenumber": "14", "addr:street": "E\u015fref Efendi Sokak", "alcohol:beer": "served", "alcohol:raki": "served", "alcohol:wine": "served", "amenity": "restaurant", "cuisine": "turkish", "name": "Kristal Ocakba\u015f\u0131", "phone": "+90 2122243969"}}, {"type": "node", "id": 4786907744, "lat": 41.1223286, "lon": 29.071343, "tags": {"addr:housenumber": "9", "addr:street": "K\u00f6yba\u015f\u0131 Caddesi", "amenity": "restaurant", "cuisine": "seafood", "name": "Deniz Park", "opening_hours": "08:00-24:00", "phone": "+90 2122620415", "website": "http://www.alekodenizpark.com/"}}, {"type": "node", "id": 4786907844, "lat": 41.109954, "lon": 29.0410889, "tags": {"addr:city": "Istanbul", "addr:district": "Sar\u0131yer", "addr:housenumber": "61A", "addr:street": "Do\u011fanevler Caddesi", "alcohol:wine": "served", "amenity": "restaurant", "cuisine": "steak_house", "name": "Bysteak", "phone": "+90 05322961178", "smoking": "no", "website": "http://www.bysteak.com/"}}, {"type": "node", "id": 4787199255, "lat": 41.0782835, "lon": 29.0113787, "tags": {"addr:city": "Istanbul", "addr:district": "Levant", "addr:housenumber": "185", "addr:postcode": "34394", "addr:street": "Ecza Sokak", "amenity": "restaurant", "name": "Gram", "outdoor_seating": "yes", "phone": "+90 0 212 353 05 12"}}, {"type": "node", "id": 4797217422, "lat": 41.0664552, "lon": 29.0421348, "tags": {"addr:city": "\u0130stanbul", "addr:district": "Be\u015fikta\u015f", "addr:housenumber": "No:4", "addr:neighbourhood": "Arnavutk\u00f6y", "addr:postcode": "34345", "addr:street": "Bebek Arnavutk\u00f6y Caddesi", "amenity": "restaurant", "bar": "yes", "brewery": "yes", "description": "Bu mekanda vale hizmeti bulunmaktad\u0131r. Nakit ve kredi kart\u0131 \u00f6deme \u015fekli olarak kabul edilir.", "internet_access": "yes", "name": "Arnavutk\u00f6y Bal\u0131k\u00e7\u0131s\u0131", "name:tr": "Arnavutk\u00f6y Bal\u0131k\u00e7\u0131s\u0131", "opening_hours": "Mo-Su 12:00-23:00", "outdoor_seating": "yes", "phone": "0212 257 05 25", "reservation": "required", "website": "arnavutkoybalikcisi.com"}}, {"type": "node", "id": 4800711821, "lat": 41.1639911, "lon": 29.0115266, "tags": {"amenity": "restaurant", "name": "Bahar Country"}}, {"type": "node", "id": 4836807821, "lat": 41.0511315, "lon": 28.9904785, "tags": {"amenity": "restaurant", "name": "Lezzet Co. D\u00f6ner", "name:en": "Lezzet Co. D\u00f6ner"}}, {"type": "node", "id": 4889905027, "lat": 41.2136606, "lon": 29.1099847, "tags": {"addr:city": "\u0130stanbul", "addr:district": "Sar\u0131yer", "addr:street": "\u00c7ar\u015f\u0131 Sokak", "amenity": "restaurant", "cuisine": "breakfast;fish", "name": "Garip\u00e7e Reis Bal\u0131k", "name:en": "Garip\u00e7e Reis Bal\u0131k", "name:tr": "Garip\u00e7e Reis Bal\u0131k"}}, {"type": "node", "id": 4889959426, "lat": 41.1482785, "lon": 29.0461517, "tags": {"amenity": "restaurant", "name": "Set Balik", "name:en": "Set Balik", "name:tr": "Set Balik"}}, {"type": "node", "id": 4895893996, "lat": 41.1011939, "lon": 29.0683281}, {"type": "node", "id": 4895893997, "lat": 41.1009978, "lon": 29.0685052}, {"type": "node", "id": 4895893998, "lat": 41.100824, "lon": 29.0687519}, {"type": "node", "id": 4895893999, "lat": 41.1005855, "lon": 29.0684944}, {"type": "node", "id": 4895894000, "lat": 41.1005208, "lon": 29.0683228}, {"type": "node", "id": 4895894001, "lat": 41.1010322, "lon": 29.0679634}, {"type": "node", "id": 4902048453, "lat": 41.067831, "lon": 29.0450331}, {"type": "node", "id": 4902209123, "lat": 41.1094137, "lon": 29.0527659}, {"type": "node", "id": 4902209247, "lat": 41.1092759, "lon": 29.0531011}, {"type": "node", "id": 4902209248, "lat": 41.1092867, "lon": 29.0530748}, {"type": "node", "id": 4902209249, "lat": 41.1093448, "lon": 29.0527161}, {"type": "node", "id": 4902209250, "lat": 41.1094029, "lon": 29.0527921}, {"type": "node", "id": 4902209251, "lat": 41.109334, "lon": 29.053109}, {"type": "node", "id": 4902209252, "lat": 41.1094501, "lon": 29.0528263}, {"type": "node", "id": 4902209333, "lat": 41.1092179, "lon": 29.0530249}, {"type": "node", "id": 4902209334, "lat": 41.109334, "lon": 29.0527423}, {"type": "node", "id": 4902209335, "lat": 41.1091793, "lon": 29.052997}, {"type": "node", "id": 4902209336, "lat": 41.1092955, "lon": 29.0527145}, {"type": "node", "id": 4902209589, "lat": 41.109207, "lon": 29.0530512}, {"type": "node", "id": 4960234838, "lat": 41.0496557, "lon": 29.0293926, "tags": {"addr:housenumber": "58", "addr:postcode": "34347", "addr:street": "Portakal Yoku\u015fu", "amenity": "restaurant", "cuisine": "tea;turkish;sandwich;breakfast;coffee_shop", "name": "\u0130stanbul Emniyet M\u00fcd\u00fcrl\u00fc\u011f\u00fc Polis Evi Ortak\u00f6y Sosyal Tesisleri", "name:tr": "Pekom", "opening_hours": "Mo-Su 08:00-00:00", "phone": "+902122589730", "website": "http://www.polisevi.iem.gov.tr"}}, {"type": "node", "id": 4977947621, "lat": 41.0504685, "lon": 29.052503, "tags": {"amenity": "restaurant", "name": "Boon Cafe & Restaurant", "name:en": "Boon Cafe & Restaurant", "name:tr": "Boon Cafe & Restaurant"}}, {"type": "node", "id": 4997296222, "lat": 41.190481, "lon": 29.2317103, "tags": {"amenity": "restaurant", "cuisine": "turkish", "name": "Dus bahcesi", "name:tr": "Dus bahcesi"}}, {"type": "node", "id": 5029136318, "lat": 41.051527, "lon": 29.0098618}, {"type": "node", "id": 5029137327, "lat": 41.0513257, "lon": 29.00987}, {"type": "node", "id": 5031730440, "lat": 41.0897558, "lon": 29.2867255, "tags": {"amenity": "restaurant"}}, {"type": "node", "id": 5032934119, "lat": 41.0692473, "lon": 29.0005014}, {"type": "node", "id": 5032934120, "lat": 41.0691513, "lon": 29.0005791}, {"type": "node", "id": 5032935421, "lat": 41.0689933, "lon": 29.0005817}, {"type": "node", "id": 5095215664, "lat": 41.1087269, "lon": 29.018142, "tags": {"amenity": "restaurant", "name": "K\u00f6\u015feba\u015f\u0131 Maslak"}}, {"type": "node", "id": 5095251332, "lat": 41.108609, "lon": 29.0167882, "tags": {"amenity": "restaurant", "name": "Pecos"}}, {"type": "node", "id": 5095251333, "lat": 41.1084736, "lon": 29.0198969, "tags": {"amenity": "restaurant", "name": "Big Chefs"}}, {"type": "node", "id": 5100368021, "lat": 41.0639658, "lon": 28.9881483, "tags": {"amenity": "restaurant", "name": "K\u00f6fteci Ramiz"}}, {"type": "node", "id": 5220630704, "lat": 41.1136055, "lon": 29.0603761, "tags": {"amenity": "restaurant", "cuisine": "turkish", "name": "Sevgi Bah\u00e7esi", "outdoor_seating": "yes"}}, {"type": "node", "id": 5270790664, "lat": 41.0580865, "lon": 29.0361146, "tags": {"amenity": "restaurant", "cuisine": "italian;pizza;seafood", "name": "Mia Mensa", "outdoor_seating": "yes"}}, {"type": "node", "id": 5274380097, "lat": 41.0698115, "lon": 29.0011235}, {"type": "node", "id": 5274380098, "lat": 41.069664, "lon": 29.0010998}, {"type": "node", "id": 5274380099, "lat": 41.069689, "lon": 29.0008259}, {"type": "node", "id": 5274380100, "lat": 41.0698365, "lon": 29.0008496}, {"type": "node", "id": 5303716785, "lat": 41.0609053, "lon": 28.9840225, "tags": {"amenity": "restaurant", "name": "Besin K\u00f6fte&P\u0130yaz"}}, {"type": "node", "id": 5352648121, "lat": 41.0583561, "lon": 28.9805074, "tags": {"amenity": "restaurant", "name:en": "Monochrome"}}, {"type": "node", "id": 5483245921, "lat": 41.0798656, "lon": 29.0071929, "tags": {"addr:city": "\u0130stanbul", "addr:district": "Ka\u011f\u0131thane", "addr:housenumber": "6", "addr:street": "Talatpa\u015fa Caddesi", "amenity": "restaurant", "name": "Orkinos Bal\u0131k\u00e7\u0131s\u0131", "phone": "05323716715"}}, {"type": "node", "id": 5511567322, "lat": 41.0792689, "lon": 29.0326327, "tags": {"addr:street": "Dilhayat Sokak", "amenity": "restaurant", "name:en": "LA SCAPRETTA"}}, {"type": "node", "id": 5523700462, "lat": 41.0816113, "lon": 29.0145792, "tags": {"addr:district": "Levent", "addr:housenumber": "1", "addr:street": "Palmiye Sokak", "amenity": "restaurant", "cuisine": "turkish", "name": "Sans", "opening_hours": "11:00-24:00; Su off", "phone": "+90 212 280 38 38", "website": "http://www.sansrestaurant.com/"}}, {"type": "node", "id": 5536187466, "lat": 41.0529189, "lon": 29.0003731, "tags": {"addr:city": "Fulya / \u015ei\u015fli / \u0130stanbul", "addr:district": "fulya", "addr:neighbourhood": "fulya", "amenity": "restaurant", "capacity": "30", "cuisine": "turkish", "name": "YES Kardesler", "outdoor_seating": "yes", "smoking": "outside", "takeaway": "yes"}}, {"type": "node", "id": 5630799623, "lat": 41.1188283, "lon": 29.0098551, "tags": {"amenity": "restaurant", "name": "Privileged Minority"}}, {"type": "node", "id": 5640561026, "lat": 41.1288934, "lon": 29.0460887, "tags": {"addr:city": "istanbul", "addr:district": "sar\u0131yer", "addr:housenumber": "3", "addr:neighbourhood": "ferah evler", "addr:street": "mecidiye caddesi", "amenity": "restaurant", "capacity": "1000", "contact:phone": "+90 505 080 0303", "cuisine": "turkish", "delivery": "yes", "name": "Tazeler G\u0131da", "opening_hours": "24/7", "outdoor_seating": "yes", "smoking": "yes", "takeaway": "yes"}}, {"type": "node", "id": 5651288209, "lat": 41.1611096, "lon": 29.0459931, "tags": {"amenity": "restaurant", "email": "info@grandemolo.com", "name": "Grande Molo", "opening_hours": "Mo-Su 09:00-23:00", "outdoor_seating": "yes", "payment:cash": "yes", "payment:credit_cards": "yes", "phone": "+90 0212 218 41 10", "smoking": "outside", "website": "http://www.grandemolo.com"}}, {"type": "node", "id": 5683204936, "lat": 41.1778975, "lon": 29.095033, "tags": {"amenity": "restaurant", "name": "Yoros"}}, {"type": "node", "id": 5709699121, "lat": 41.0675199, "lon": 29.0434816, "tags": {"addr:city": "\u0130stanbul", "addr:district": "Be\u015fikta\u015f", "addr:housenumber": "No:1", "addr:neighbourhood": "Arnavutk\u00f6y", "addr:street": "Bebek Arnavutk\u00f6y Caddesi", "amenity": "restaurant", "cuisine": "seafood", "description": "Bu mekanda vale hizmeti mevcuttur.", "internet_access": "yes", "name": "Lipari", "opening_hours": "Mo-Su 12:00-01:00", "opening_hours:covid19": "off", "outdoor_seating": "yes", "phone": "0212 263 25 74", "reservation": "required", "website": "www.arnavutkoylipari.com"}}, {"type": "node", "id": 5737154621, "lat": 41.0748619, "lon": 28.9693208, "tags": {"addr:street": "imrahor 19", "amenity": "restaurant", "name": "boga", "phone": "02122951150", "website": "http://www.bogastekhous.com"}}, {"type": "node", "id": 5738375521, "lat": 41.0874473, "lon": 29.0566987, "tags": {"amenity": "restaurant", "name:en": "Rumeli Kale Cafe & Restaurant"}}, {"type": "node", "id": 5750197821, "lat": 41.057168, "lon": 28.9839872, "tags": {"addr:housenumber": "24", "addr:street": "Silah\u015f\u00f6r Caddesi", "amenity": "restaurant", "cuisine": "steak_house;turkish;kebab;local", "internet_access": "wlan", "name": "Meat & Meet", "name:tr": "Meat & Meet Steak House", "phone": "0212 234-24-34"}}, {"type": "node", "id": 5751933736, "lat": 41.0513198, "lon": 28.9900077, "tags": {"addr:housenumber": "3/B", "addr:street": "Kuyumcu \u0130rfan Sokak", "amenity": "restaurant", "name:en": "Cafe Zone"}}, {"type": "node", "id": 5752004722, "lat": 41.0523098, "lon": 28.9931079, "tags": {"addr:city": "\u0130stanbul", "addr:district": "\u015ei\u015fli", "addr:housenumber": "No:54", "addr:neighbourhood": "Te\u015fvikiye Mahallesi", "addr:postcode": "34365", "addr:street": "\u015eakay\u0131k Soka\u011f\u0131", "amenity": "restaurant", "delivery": "yes", "description": "Bu mekanda vegan se\u00e7enekler de mevcuttur.", "diet:vegan": "yes", "email": "info@milanogourmet.com.tr", "internet_access": "yes", "name:en": "Milano Gourmet", "opening_hours": "Mo-Su 09:00-01:00", "outdoor_seating": "yes", "phone": "+90 535 206 74 49", "reservation": "recommended", "website": "https://www.milanogourmet.com.tr/"}}, {"type": "node", "id": 5752020321, "lat": 41.0528506, "lon": 28.9942214, "tags": {"amenity": "restaurant", "name:en": "Pizzeria"}}, {"type": "node", "id": 5752020322, "lat": 41.0523578, "lon": 28.9930441, "tags": {"amenity": "restaurant", "name": "D\u00f6ner Plus", "name:tr": "D\u00f6ner Plus"}}, {"type": "node", "id": 5752020323, "lat": 41.0524208, "lon": 28.9929768, "tags": {"addr:city": "istanbul", "addr:district": "\u015fi\u015fli", "addr:housenumber": "no:60/1", "addr:neighbourhood": "Te\u015fvikiye Mahallesi", "addr:street": "\u015eakay\u0131k Sokak", "amenity": "restaurant", "bar": "yes", "brewery": "yes", "cuisine": "kebab", "delivery": "yes", "name": "\u00c7AT\u00c7AT Ni\u015fanta\u015f\u0131", "name:tr": "\u00c7AT\u00c7AT Ni\u015fanta\u015f\u0131", "opening_hours": "Mo-Su 12:00-02:00", "outdoor_seating": "yes", "phone": "+905522467181", "smoking": "isolated"}}, {"type": "node", "id": 5761360624, "lat": 41.0677803, "lon": 29.0454255, "tags": {"amenity": "restaurant", "name:en": "Bodrum Manti"}}, {"type": "node", "id": 5761379221, "lat": 41.0675542, "lon": 29.0435977, "tags": {"addr:street": "satis meydani sk. no:2", "amenity": "restaurant", "name:en": "Aden Baba"}}, {"type": "node", "id": 5761913561, "lat": 41.0673589, "lon": 29.0433647, "tags": {"addr:postcode": "33345", "amenity": "restaurant", "name:en": "Fistik Kebap ve Lahmacun Salonu"}}, {"type": "node", "id": 5780443053, "lat": 41.0657889, "lon": 29.0036834, "tags": {"amenity": "restaurant", "name": "Trattoria Serenzo"}}, {"type": "node", "id": 5780443054, "lat": 41.0784165, "lon": 29.0446057, "tags": {"amenity": "restaurant", "name": "Nusr-Et Burger Bebek"}}, {"type": "node", "id": 5845648685, "lat": 41.1843292, "lon": 29.0757862, "tags": {"amenity": "restaurant", "name": "Alt\u0131nkum"}}, {"type": "node", "id": 5893587185, "lat": 41.0527672, "lon": 28.9943023, "tags": {"amenity": "restaurant", "name": "Rumeli Kotok K\u00f6ftecisi", "name:tr": "Rumeli Kotok K\u00f6ftecisi"}}, {"type": "node", "id": 5893590288, "lat": 41.050157, "lon": 29.0537448, "tags": {"addr:housenumber": "29-2/a", "addr:street": "\u00c7engelk\u00f6y Caddesi", "amenity": "restaurant", "name": "Beyranistan", "name:tr": "Beyranistan"}}, {"type": "node", "id": 5893598885, "lat": 41.0535008, "lon": 28.9945029, "tags": {"amenity": "restaurant", "name": "Ni\u015fanta\u015fi Mant\u0131c\u0131s\u0131", "name:tr": "Ni\u015fanta\u015fi Mant\u0131c\u0131s\u0131"}}, {"type": "node", "id": 5893598886, "lat": 41.0821697, "lon": 29.0265194, "tags": {"addr:housenumber": "6/21", "addr:street": "Yaren Sokak", "amenity": "restaurant", "name": "Elbet", "name:tr": "Elbet"}}, {"type": "node", "id": 5902333585, "lat": 41.0821284, "lon": 29.0264268, "tags": {"addr:housenumber": "6/14-15", "addr:street": "Yaren Sokak", "amenity": "restaurant", "cuisine": "sushi", "name:en": "Miyabi"}}, {"type": "node", "id": 5903544987, "lat": 41.1093482, "lon": 29.0181969, "tags": {"amenity": "restaurant", "name": "Tepsi Cafe & Restoran", "name:en": "Tepsi Cafe & Restaurant"}}, {"type": "node", "id": 5927777085, "lat": 41.0518222, "lon": 28.9872849, "tags": {"amenity": "restaurant", "name": "\u015ei\u015fli Bal\u0131k\u00e7\u0131s\u0131 Pangalt\u0131"}}, {"type": "node", "id": 5982717268, "lat": 41.0512683, "lon": 29.021379, "tags": {"addr:housenumber": "10-12", "addr:neighbourhood": "Mecidiye Mah.", "addr:street": "F\u0131st\u0131kl\u0131k\u00f6\u015fk Soka\u011f\u0131", "amenity": "restaurant", "cuisine": "international", "name": "Tariflerle Yemekler", "opening_hours": "24/7", "website": "http://tariflerleyemekler.com"}}, {"type": "node", "id": 5992433983, "lat": 41.0860855, "lon": 29.0058199}, {"type": "node", "id": 5992433984, "lat": 41.0860873, "lon": 29.0059462}, {"type": "node", "id": 5992434185, "lat": 41.0862527, "lon": 29.0059551}, {"type": "node", "id": 5992434186, "lat": 41.0862512, "lon": 29.0058029}, {"type": "node", "id": 6136946985, "lat": 41.1065916, "lon": 28.9865225, "tags": {"amenity": "restaurant", "name": "Ka\u015f\u0131beyaz"}}, {"type": "node", "id": 6137615263, "lat": 41.0862791, "lon": 29.0049309, "tags": {"addr:city": "Istanbul", "addr:district": "Ka\u011f\u0131thane", "addr:housenumber": "No:15/B", "addr:neighbourhood": "Emniyetevleri Mahallesi", "addr:postcode": "34415", "addr:street": "Akarsu Caddesi", "amenity": "restaurant", "cuisine": "turkish", "name": "\u0130rem Et Lokantas\u0131", "opening_hours": "Mo-Su 06:00-18:00", "smoking": "no"}}, {"type": "node", "id": 6151815585, "lat": 41.0498335, "lon": 29.0251183, "tags": {"addr:housenumber": "26", "addr:street": "Eskibah\u00e7e Soka\u011f\u0131", "amenity": "restaurant", "name": "Sisko D\u00fcr\u00fcm"}}, {"type": "node", "id": 6157234489, "lat": 41.08642, "lon": 29.02656, "tags": {"addr:housenumber": "67/1", "addr:street": "Zeytino\u011flu Caddesi", "amenity": "restaurant", "name": "Meat'ng Steakhouse", "name:tr": "Meat'ng Steakhouse"}}, {"type": "node", "id": 6197865927, "lat": 41.062657, "lon": 28.9974628, "tags": {"amenity": "restaurant", "cuisine": "turkish", "name": "Emin Baba D\u00fcr\u00fcm Evi"}}, {"type": "node", "id": 6197867032, "lat": 41.062746, "lon": 28.9985545, "tags": {"amenity": "restaurant", "cuisine": "turkish", "name": "Y\u0131ld\u0131z Konyal\u0131"}}, {"type": "node", "id": 6243912486, "lat": 41.10687, "lon": 28.9866322, "tags": {"amenity": "restaurant", "name": "Huqqabaz"}}, {"type": "node", "id": 6243912687, "lat": 41.1046142, "lon": 28.9855024, "tags": {"amenity": "restaurant", "name": "Serafina"}}, {"type": "node", "id": 6243923085, "lat": 41.1054486, "lon": 28.9860415, "tags": {"amenity": "restaurant", "name": "H\u00fcnkar"}}, {"type": "node", "id": 6243945685, "lat": 41.1078765, "lon": 28.986373, "tags": {"amenity": "restaurant", "name": "Polonez Brasserie"}}, {"type": "node", "id": 6290893686, "lat": 41.0528842, "lon": 28.9870944, "tags": {"addr:housenumber": "28b", "addr:street": "Tavuk\u00e7u Fethi Sk.", "amenity": "restaurant", "name": "Mahir Lokantas\u0131", "name:tr": "Mahir Lokantas\u0131"}}, {"type": "node", "id": 6321290285, "lat": 41.1004298, "lon": 29.0656487, "tags": {"amenity": "restaurant", "name": "Yakamoz Kanlica"}}, {"type": "node", "id": 6326679553, "lat": 41.2373793, "lon": 28.9844949, "tags": {"amenity": "restaurant", "name": "K\u00f6fteci \u0130smail"}}, {"type": "node", "id": 6329407688, "lat": 41.0583961, "lon": 28.9803944, "tags": {"amenity": "restaurant", "name:en": "Delimonti", "opening_hours": "Mo-Su 08:30-00:00"}}, {"type": "node", "id": 6346786753, "lat": 41.1091914, "lon": 28.9868412, "tags": {"amenity": "restaurant", "cuisine": "turkish", "name": "Sariyer B\u00f6rek\u00e7isi", "name:en": "Sar\u0131yer B\u00f6rek\u00e7isi", "opening_hours": "Mo-Su 09:00-21:00", "outdoor_seating": "no"}}, {"type": "node", "id": 6409555421, "lat": 41.1101464, "lon": 29.2114564, "tags": {"addr:city": "Polonezk\u00f6y", "addr:district": "Beykoz", "addr:housenumber": "4A", "addr:neighbourhood": "Gospoda Polonezk\u00f6y", "addr:postcode": "34829", "addr:street": "Seyri Caddesi", "amenity": "restaurant", "cuisine": "polish;turkish", "name": "Gospoda 1882", "opening_hours": "PH,We-Su 08:00-20:00", "outdoor_seating": "yes", "website": "http://gospodapolonezkoy.com/"}}, {"type": "node", "id": 6413677585, "lat": 41.0507705, "lon": 29.0520429, "tags": {"amenity": "restaurant", "name:en": "betas"}}, {"type": "node", "id": 6419278887, "lat": 41.0786038, "lon": 29.0257184, "tags": {"amenity": "restaurant", "name": "Tribeca"}}, {"type": "node", "id": 6544717913, "lat": 41.1090769, "lon": 29.0221634, "tags": {"amenity": "restaurant", "cuisine": "turkish", "name": "Konsept"}}, {"type": "node", "id": 6544725036, "lat": 41.1092999, "lon": 29.0221496, "tags": {"amenity": "restaurant", "name": "The hidden pub & restaurant"}}, {"type": "node", "id": 6544734095, "lat": 41.1096015, "lon": 29.0214686, "tags": {"amenity": "restaurant"}}, {"type": "node", "id": 6569282776, "lat": 41.2366918, "lon": 28.9845452, "tags": {"amenity": "restaurant", "name": "Avc\u0131 Et Lokantas\u0131"}}, {"type": "node", "id": 6606705088, "lat": 41.0692094, "lon": 29.0003947}, {"type": "node", "id": 6658576890, "lat": 41.0556901, "lon": 28.9872553, "tags": {"addr:housenumber": "122", "addr:postcode": "34363", "addr:street": "Halaskargazi Caddesi", "amenity": "restaurant", "cuisine": "arab", "internet_access": "wlan", "name:en": "cairo restaurant", "opening_hours": "Mo-Su 10:00-24:00", "phone": "905439436010"}}, {"type": "node", "id": 6730690738, "lat": 41.2059304, "lon": 29.1321719}, {"type": "node", "id": 6730690739, "lat": 41.2059012, "lon": 29.1321894}, {"type": "node", "id": 6730690740, "lat": 41.2062439, "lon": 29.1321095}, {"type": "node", "id": 6730690741, "lat": 41.2059659, "lon": 29.1322764}, {"type": "node", "id": 6730690742, "lat": 41.2058823, "lon": 29.1321339}, {"type": "node", "id": 6730690743, "lat": 41.2061896, "lon": 29.1319495}, {"type": "node", "id": 6731678521, "lat": 41.2058125, "lon": 29.1319023}, {"type": "node", "id": 6731678522, "lat": 41.2059807, "lon": 29.1318993}, {"type": "node", "id": 6731678523, "lat": 41.205948, "lon": 29.1319037}, {"type": "node", "id": 6731678524, "lat": 41.2058235, "lon": 29.1319485}, {"type": "node", "id": 6829924082, "lat": 41.1241492, "lon": 29.1004165}, {"type": "node", "id": 6829924083, "lat": 41.1240952, "lon": 29.1004319}, {"type": "node", "id": 6829924084, "lat": 41.1240734, "lon": 29.1002975}, {"type": "node", "id": 6829976085, "lat": 41.1241274, "lon": 29.100282}, {"type": "node", "id": 6829976086, "lat": 41.1242154, "lon": 29.1000996}, {"type": "node", "id": 6829976087, "lat": 41.1241457, "lon": 29.1001224}, {"type": "node", "id": 6829976088, "lat": 41.124133, "lon": 29.1000541}, {"type": "node", "id": 6829976089, "lat": 41.1242027, "lon": 29.1000313}, {"type": "node", "id": 6830029224, "lat": 41.1243027, "lon": 29.1225779, "tags": {"amenity": "restaurant", "name": "Karl\u0131tepe Kule Restaurant"}}, {"type": "node", "id": 6830760593, "lat": 41.123342, "lon": 29.124788, "tags": {"amenity": "restaurant", "name": "Bal\u0131k Lokantas\u0131"}}, {"type": "node", "id": 6831022186, "lat": 41.0502081, "lon": 28.9912242, "tags": {"amenity": "restaurant", "name:en": "Glens"}}, {"type": "node", "id": 6831046887, "lat": 41.0500121, "lon": 28.9953525, "tags": {"amenity": "restaurant", "name:en": "Muhit Burger"}}, {"type": "node", "id": 6831046889, "lat": 41.0519805, "lon": 28.9923414, "tags": {"amenity": "restaurant", "name:en": "Sade 5 continents food"}}, {"type": "node", "id": 6831047085, "lat": 41.050056, "lon": 28.99552, "tags": {"amenity": "restaurant", "name:en": "New Yorker Pizza"}}, {"type": "node", "id": 6831047086, "lat": 41.0520214, "lon": 28.9922846, "tags": {"amenity": "restaurant", "name:en": "Tatbak 1960"}}, {"type": "node", "id": 6833013096, "lat": 41.0549843, "lon": 28.9933794, "tags": {"amenity": "restaurant", "name": "Asiri Karadeniz Pide Lahmacun", "name:en": "Asiri Pide Restaurant", "phone": "02122325082"}}, {"type": "node", "id": 6833013097, "lat": 41.052077, "lon": 28.9951457, "tags": {"amenity": "restaurant", "name:en": "Feronia Meyhanesi"}}, {"type": "node", "id": 6833013288, "lat": 41.0527039, "lon": 28.9939729, "tags": {"amenity": "restaurant", "name:en": "Lahmacum Plus"}}, {"type": "node", "id": 6833013486, "lat": 41.0548807, "lon": 28.9933283, "tags": {"amenity": "restaurant", "name:en": "Aleni Yemek ve Kavurma"}}, {"type": "node", "id": 6834210099, "lat": 41.0563434, "lon": 28.986716, "tags": {"amenity": "restaurant", "name:en": "Saray Muhallebicisi 1935"}}, {"type": "node", "id": 6857050111, "lat": 41.128526, "lon": 29.0955988}, {"type": "node", "id": 6857050112, "lat": 41.128458, "lon": 29.0954813}, {"type": "node", "id": 6857050113, "lat": 41.1285346, "lon": 29.0956138}, {"type": "node", "id": 6857050114, "lat": 41.12871, "lon": 29.095435}, {"type": "node", "id": 6857050115, "lat": 41.1286232, "lon": 29.0955235}, {"type": "node", "id": 6857050116, "lat": 41.1285466, "lon": 29.095391}, {"type": "node", "id": 6857050117, "lat": 41.1286334, "lon": 29.0953025}, {"type": "node", "id": 6862528435, "lat": 41.1309509, "lon": 29.0936567}, {"type": "node", "id": 6862528436, "lat": 41.1309014, "lon": 29.0936848}, {"type": "node", "id": 6862528437, "lat": 41.1308366, "lon": 29.093484}, {"type": "node", "id": 6862528438, "lat": 41.1308861, "lon": 29.0934558}, {"type": "node", "id": 6862698830, "lat": 41.1332478, "lon": 29.0928055}, {"type": "node", "id": 6862698831, "lat": 41.1331569, "lon": 29.0927894}, {"type": "node", "id": 6862698832, "lat": 41.133176, "lon": 29.0925989}, {"type": "node", "id": 6862698833, "lat": 41.1332669, "lon": 29.0926149}, {"type": "node", "id": 6866243885, "lat": 41.1056501, "lon": 28.986934, "tags": {"amenity": "restaurant", "cuisine": "turkish", "name": "13 D\u00f6ner"}}, {"type": "node", "id": 6866813863, "lat": 41.1252807, "lon": 29.1013838, "tags": {"amenity": "restaurant", "cuisine": "turkish", "name": "Temiz"}}, {"type": "node", "id": 6870108830, "lat": 41.1347312, "lon": 29.0918811}, {"type": "node", "id": 6870108831, "lat": 41.1346371, "lon": 29.0918211}, {"type": "node", "id": 6870108832, "lat": 41.1346533, "lon": 29.0917686}, {"type": "node", "id": 6870108833, "lat": 41.134753, "lon": 29.0918252}, {"type": "node", "id": 6870108871, "lat": 41.1345166, "lon": 29.0921215}, {"type": "node", "id": 6870108872, "lat": 41.134561, "lon": 29.0921537}, {"type": "node", "id": 6870108879, "lat": 41.1345325, "lon": 29.0920806}, {"type": "node", "id": 6870108880, "lat": 41.1345785, "lon": 29.0921123}, {"type": "node", "id": 6870921553, "lat": 41.1346768, "lon": 29.0907492}, {"type": "node", "id": 6870921554, "lat": 41.134751, "lon": 29.0907721}, {"type": "node", "id": 6878217016, "lat": 41.1373908, "lon": 29.0864066, "tags": {"amenity": "restaurant", "cuisine": "turkish", "name": "Yal\u0131k\u00f6y Ta\u015ff\u0131r\u0131n"}}, {"type": "node", "id": 6920296186, "lat": 41.13465, "lon": 29.0909014}, {"type": "node", "id": 6920296187, "lat": 41.1347242, "lon": 29.0909244}, {"type": "node", "id": 6925191877, "lat": 41.1340487, "lon": 29.092509, "tags": {"amenity": "restaurant", "name": "Beykoz Pa\u00e7a \u0130\u015fkembe ve Kokore\u00e7"}}, {"type": "node", "id": 6925191880, "lat": 41.1341821, "lon": 29.0925204, "tags": {"amenity": "restaurant", "name": "Karde\u015fler Lokantas\u0131"}}, {"type": "node", "id": 6926861980, "lat": 41.1313007, "lon": 29.092975, "tags": {"amenity": "restaurant", "name": "Beykoz Sosyal Tesisleri"}}, {"type": "node", "id": 6927205085, "lat": 41.0629744, "lon": 28.9934611, "tags": {"addr:housenumber": "22/323", "amenity": "restaurant", "cuisine": "turkish", "email": "saray@saraymuhallebicisi.com", "internet_access": "wlan", "name": "Saray Muhallebicisi", "opening_hours": "Mo-Su 10:00-22:00", "phone": "02129992840", "website": "http://saraymuhallebicisi.com"}}, {"type": "node", "id": 6932496963, "lat": 41.1451097, "lon": 29.0875057, "tags": {"amenity": "restaurant", "cuisine": "turkish", "name": "\u00c7i\u011fk\u00f6fteci Sait"}}, {"type": "node", "id": 6934326591, "lat": 41.1304232, "lon": 29.0937954}, {"type": "node", "id": 6934326592, "lat": 41.1303414, "lon": 29.0938691}, {"type": "node", "id": 6934326593, "lat": 41.1303063, "lon": 29.0938005}, {"type": "node", "id": 6934326594, "lat": 41.1303881, "lon": 29.0937267}, {"type": "node", "id": 6966352313, "lat": 41.06294, "lon": 28.9900418, "tags": {"amenity": "restaurant", "name": "Emirgan S\u00fcti\u015f"}}, {"type": "node", "id": 6966356220, "lat": 41.0626737, "lon": 28.9895553, "tags": {"amenity": "restaurant", "name": "Pehlivan"}}, {"type": "node", "id": 7011482993, "lat": 41.0795578, "lon": 29.0331665, "tags": {"addr:housenumber": "10", "addr:street": "Dilhayat Sokak", "amenity": "restaurant", "name": "Bi Nevi Deli"}}, {"type": "node", "id": 7028199385, "lat": 41.1109514, "lon": 29.0325656, "tags": {"addr:street": "\u0130stinye Park", "amenity": "restaurant", "name": "Nusret"}}, {"type": "node", "id": 7044991885, "lat": 41.0784465, "lon": 29.0446797, "tags": {"addr:housenumber": "69", "addr:street": "Cevdetpa\u015fa Caddesi", "amenity": "restaurant", "name": "Mangerie Bebek"}}, {"type": "node", "id": 7046149192, "lat": 41.0687834, "lon": 29.0086896, "tags": {"amenity": "restaurant", "name": "Esenk\u00f6\u015fk"}}, {"type": "node", "id": 7179781178, "lat": 41.0514328, "lon": 28.9956856, "tags": {"addr:city": "istanbul", "addr:district": "\u015ei\u015fli", "addr:housenumber": "28", "addr:neighbourhood": "Te\u015fvikiye Mahallesi", "addr:postcode": "34365", "addr:street": "hac\u0131 emin efendi sokak", "amenity": "restaurant", "cuisine": "sushi", "name": "Zh\u00fb \u0130stanbul", "phone": "+905331404510", "website": "https://www.zhuistanbul.com"}}, {"type": "node", "id": 7189793465, "lat": 41.0685283, "lon": 29.0088983, "tags": {"amenity": "restaurant", "name": "Jumba K\u00fcnefe & Katmer"}}, {"type": "node", "id": 7189793467, "lat": 41.0690292, "lon": 29.0087754, "tags": {"amenity": "restaurant", "name": "K\u00f6\u015feba\u015f\u0131 Kafe B\u00f6rek"}}, {"type": "node", "id": 7189793471, "lat": 41.0690726, "lon": 29.008877, "tags": {"amenity": "restaurant", "name": "Mualla"}}, {"type": "node", "id": 7500924066, "lat": 41.0945445, "lon": 29.0156532}, {"type": "node", "id": 7500924067, "lat": 41.0944457, "lon": 29.0156509}, {"type": "node", "id": 7500924068, "lat": 41.0944464, "lon": 29.0155965}, {"type": "node", "id": 7500924069, "lat": 41.0944711, "lon": 29.0155971}, {"type": "node", "id": 7500924070, "lat": 41.0944727, "lon": 29.0154802}, {"type": "node", "id": 7500924071, "lat": 41.0945467, "lon": 29.0154819}, {"type": "node", "id": 7515907235, "lat": 41.087897, "lon": 29.0118426, "tags": {"addr:city": "\u0130stanbul", "addr:district": "Be\u015fikta\u015f", "addr:housenumber": "25", "addr:neighbourhood": "Yenilevent Konaklar", "addr:postcode": "34330", "addr:street": "Me\u015feli Soka\u011f\u0131", "amenity": "restaurant", "cuisine": "turkish", "name": "Tahtasaray", "opening_hours": "Mo-Su 11:00-21:00", "phone": "+902122838585", "website": "https://tahtasaray.com"}}, {"type": "node", "id": 7516655501, "lat": 41.075496, "lon": 29.0182714, "tags": {"amenity": "restaurant", "name": "\u0645\u0637\u0639\u0645 \u0627\u0644\u0645\u062f\u064a\u0646\u0647"}}, {"type": "node", "id": 7527170180, "lat": 41.1215149, "lon": 29.0698691, "tags": {"addr:city": "istanbul", "addr:district": "sar\u0131yer", "addr:neighbourhood": "Yenik\u00f6y mahallesi", "addr:street": "K\u00f6yba\u015f\u0131 Caddesi", "air_conditioning": "yes", "amenity": "restaurant", "cuisine": "turkish;kebab", "name": "Fiko Ocakba\u015f\u0131", "opening_hours": "Mo-Su 12:00-00:30", "phone": "0212 223 28 58", "website": "https://fikoocakbasi.com/"}}, {"type": "node", "id": 7527233433, "lat": 41.1217336, "lon": 29.0702473, "tags": {"addr:city": "istanbul", "addr:district": "sar\u0131yer", "addr:housenumber": "No:71", "addr:neighbourhood": "Yenik\u00f6y mahallesi", "addr:street": "K\u00f6yba\u015f\u0131 Caddesi", "amenity": "restaurant", "cuisine": "seafood", "name": "Azur", "opening_hours": "Mo-Su 10:00-00:00", "outdoor_seating": "yes", "phone": "0212 299 97 98", "website": "azuryenikoy.com"}}, {"type": "node", "id": 7527241265, "lat": 41.1189188, "lon": 29.0675128, "tags": {"addr:city": "istanbul", "addr:district": "sar\u0131yer", "addr:housenumber": "No:118", "addr:neighbourhood": "Yenik\u00f6y mahallesi", "addr:street": "K\u00f6yba\u015f\u0131 Caddesi", "air_conditioning": "yes", "amenity": "restaurant", "cuisine": "turkish", "delivery": "yes", "name": "Emek Mant\u0131 Evi", "opening_hours": "Mo-Su 08:00-23:30", "outdoor_seating": "yes", "phone": "0212 262 69 81", "website": "emekmanti.net"}}, {"type": "node", "id": 7527271216, "lat": 41.1180551, "lon": 29.0660163, "tags": {"addr:city": "istanbul", "addr:district": "sar\u0131yer", "addr:housenumber": "No:138", "addr:neighbourhood": "Yenik\u00f6y mahallesi", "addr:street": "K\u00f6yba\u015f\u0131 Caddesi", "amenity": "restaurant", "bar": "yes", "cuisine": "turkish;kebab", "delivery": "yes", "name": "Tiryaki Restorant", "opening_hours": "24/7", "outdoor_seating": "yes", "phone": "0212 223 53 44", "website": "tiryakikebap.com/index.php"}}, {"type": "node", "id": 7527330148, "lat": 41.1164376, "lon": 29.0629283, "tags": {"addr:city": "\u0130stanbul", "addr:district": "Sar\u0131yer", "addr:housenumber": "No:178", "addr:neighbourhood": "Yenik\u00f6y Mahallesi", "addr:street": "K\u00f6yba\u015f\u0131 Caddesi", "amenity": "restaurant", "cuisine": "seafood", "name": "Sandal Bal\u0131k", "opening_hours": "Mo-Su 11:00-22:30", "opening_hours:covid19": "off", "outdoor_seating": "yes", "phone": "0212 262 04 05", "website": "yenikoysandalbalik.com.tr"}}, {"type": "node", "id": 7527331525, "lat": 41.1142096, "lon": 29.0596419, "tags": {"addr:city": "Istanbul", "addr:housenumber": "No:26", "addr:neighbourhood": "\u0130stinye", "addr:street": "\u0130stinye Caddesi", "amenity": "restaurant", "cuisine": "seafood", "name": "Fish Var", "opening_hours": "Mo-Su 09:00-23:00", "opening_hours:covid19": "off", "outdoor_seating": "yes", "phone": "0212 277 25 82", "website": "https://facebook.com/FISHVAR-93243590792"}}, {"type": "node", "id": 7529753458, "lat": 41.1219304, "lon": 29.0704622, "tags": {"addr:city": "istanbul", "addr:district": "sar\u0131yer", "addr:housenumber": "No:67", "addr:neighbourhood": "Yenik\u00f6y mahallesi", "addr:street": "K\u00f6yba\u015f\u0131 Caddesi", "amenity": "restaurant", "cuisine": "turkish", "name": "Yenik\u00f6y Lokantas\u0131", "opening_hours": "Mo-Su 08:00-19:00", "opening_hours:covid19": "off", "phone": "+90 (212) 262 62", "website": "https://facebook.com/yenikoylokantasi"}}, {"type": "node", "id": 7529865315, "lat": 41.1185944, "lon": 29.0674689, "tags": {"addr:city": "istanbul", "addr:district": "sar\u0131yer", "addr:housenumber": "No:125", "addr:neighbourhood": "Yenik\u00f6y mahallesi", "addr:street": "K\u00f6yba\u015f\u0131 Caddesi", "amenity": "restaurant", "cuisine": "seafood", "internet_access": "yes", "name": "Arnavutk\u00f6y Bal\u0131k\u00e7\u0131s\u0131", "opening_hours": "Mo-Su 10:00-00:00", "outdoor_seating": "yes", "phone": "+90 (212) 262 70 90", "smoking": "outside", "website": "arnavutkoybalikcisi.com"}}, {"type": "node", "id": 7532761529, "lat": 41.1171306, "lon": 29.0637533, "tags": {"addr:city": "istanbul", "addr:district": "sar\u0131yer", "addr:housenumber": "No:155", "addr:neighbourhood": "Yenik\u00f6y mahallesi", "addr:street": "K\u00f6yba\u015f\u0131 Caddesi", "amenity": "restaurant", "cuisine": "seafood", "delivery": "yes", "name": "Takanik Bal\u0131k Park", "opening_hours": "Mo-Su 11:30-22:30", "outdoor_seating": "yes", "phone": "0212 299 56 56", "website": "takanik.com.tr"}}, {"type": "node", "id": 7532809150, "lat": 41.1171228, "lon": 29.063738, "tags": {"addr:city": "istanbul", "addr:district": "sar\u0131yer", "addr:housenumber": "No:161", "addr:neighbourhood": "Yenik\u00f6y mahallesi", "addr:street": "K\u00f6yba\u015f\u0131 Caddesi", "amenity": "restaurant", "cuisine": "seafood", "name": "Yenik\u00f6y Kavak Bal\u0131k\u00e7\u0131s\u0131", "opening_hours": "Mo-Su 09:00-01:00", "outdoor_seating": "yes", "phone": "+90 (212) 223 67 01", "website": "kavakbalikcisi.com"}}, {"type": "node", "id": 7532865452, "lat": 41.1168462, "lon": 29.0633057}, {"type": "node", "id": 7532865453, "lat": 41.1168892, "lon": 29.0633437}, {"type": "node", "id": 7532865454, "lat": 41.1168683, "lon": 29.0633855}, {"type": "node", "id": 7532865455, "lat": 41.1168274, "lon": 29.0633481}, {"type": "node", "id": 7532873887, "lat": 41.1171131, "lon": 29.0635824}, {"type": "node", "id": 7532873888, "lat": 41.117133, "lon": 29.0636314}, {"type": "node", "id": 7532873889, "lat": 41.1171115, "lon": 29.0636512}, {"type": "node", "id": 7532873890, "lat": 41.1170894, "lon": 29.0636029}, {"type": "node", "id": 7533022709, "lat": 41.0887692, "lon": 29.0567056, "tags": {"addr:city": "istanbul", "addr:district": "sar\u0131yer", "addr:housenumber": "No:2", "addr:neighbourhood": "rumeli hisar\u0131 mahallesi", "addr:street": "Arpac\u0131 \u00c7e\u015fme Soka\u011f\u0131", "amenity": "restaurant", "cuisine": "turkish", "delivery": "yes", "name": "K\u00f6fteci halil Rumelihisar\u0131", "opening_hours": "Mo-Su 11:00-23:00", "phone": "0212 358 55 31"}}, {"type": "node", "id": 7537065303, "lat": 41.0883391, "lon": 29.0567299, "tags": {"addr:city": "istanbul", "addr:district": "sar\u0131yer", "addr:housenumber": "No:4", "addr:neighbourhood": "rumeli hisar\u0131 mahallesi", "addr:street": "Yahya Kemal Caddesi", "amenity": "restaurant", "cuisine": "chinese;pizza;sushi;seafood", "internet_access": "yes", "internet_access:fee": "no", "name": "Kiss The Frog Seafood Brasserie", "opening_hours": "Mo-Su 12:00-02:00", "outdoor_seating": "yes", "phone": "0212 287 73 20", "website": "kissthefrog.com.tr"}}, {"type": "node", "id": 7537127785, "lat": 41.0883221, "lon": 29.0567246, "tags": {"addr:city": "istanbul", "addr:district": "sar\u0131yer", "addr:housenumber": "No:4", "addr:neighbourhood": "rumeli hisar\u0131 mahallesi", "addr:street": "Yahya Kemal Caddesi", "amenity": "restaurant", "contact:instagram": "http://instagram.com/koprualtirumelihisari", "contact:phone": "+90 212 287 7323", "contact:website": "http://koprualti.kim/", "cuisine": "seafood;turkish", "name": "K\u00f6pr\u00fcalt\u0131", "opening_hours": "Mo-Su 12:00-02:00", "outdoor_seating": "yes", "reservation": "required"}}, {"type": "node", "id": 7537258131, "lat": 41.0863633, "lon": 29.0567881, "tags": {"addr:city": "istanbul", "addr:district": "sar\u0131yer", "addr:housenumber": "No:22", "addr:neighbourhood": "rumeli hisar\u0131 mahallesi", "addr:street": "Yahya Kemal Caddesi", "amenity": "restaurant", "cuisine": "seafood", "name": "Rumeli Bal\u0131k\u00e7\u0131s\u0131", "phone": "0212 287 06 97"}}, {"type": "node", "id": 7537290632, "lat": 41.0862376, "lon": 29.0567643, "tags": {"addr:city": "istanbul", "addr:district": "sar\u0131yer", "addr:housenumber": "No:24", "addr:neighbourhood": "rumeli hisar\u0131 mahallesi", "addr:street": "Yahya Kemal Caddesi", "amenity": "restaurant", "cuisine": "turkish;regional;kebab", "delivery": "yes", "name": "Nezih Kebap-Yuvalama", "opening_hours": "Mo-Su 07:00-23:00", "outdoor_seating": "yes", "phone": "0212 265 74 55", "website": "nezihkebap.com"}}, {"type": "node", "id": 7552104828, "lat": 41.0775469, "lon": 29.043913, "tags": {"addr:city": "\u0130stanbul", "addr:district": "Be\u015fikta\u015f", "addr:neighbourhood": "Bebek", "addr:street": "Cevdetpa\u015fa Caddesi", "amenity": "restaurant", "cuisine": "seafood", "internet_access": "yes", "internet_access:fee": "customers", "name": "Bebek Bal\u0131k\u00e7\u0131", "opening_hours": "Mo-Su 12:00-00:00", "outdoor_seating": "yes", "phone": "0212 263 34 47", "reservation": "required", "website": "bebekbalikci.net"}}, {"type": "node", "id": 7552241012, "lat": 41.0771501, "lon": 29.0429169, "tags": {"addr:city": "\u0130stanbul", "addr:district": "Be\u015fikta\u015f", "addr:housenumber": "No:4", "addr:neighbourhood": "Bebek", "addr:street": "Bebek Hamam\u0131 Soka\u011f\u0131", "amenity": "restaurant", "cuisine": "turkish", "name": "Bebek K\u00f6ftecisi", "opening_hours": "Mo-Su 11:00-22:00", "phone": "0212 264 40 18"}}, {"type": "node", "id": 7553081453, "lat": 41.0679057, "lon": 29.0456458, "tags": {"addr:city": "\u0130stanbul", "addr:district": "Be\u015fikta\u015f", "addr:housenumber": "No:115", "addr:neighbourhood": "Arnavutk\u00f6y", "addr:street": "Bebek Arnavutk\u00f6y Caddesi", "amenity": "restaurant", "cuisine": "seafood", "name": "Ak\u0131nt\u0131 Burnu Bal\u0131k Restaurant", "opening_hours": "Mo-Su 12:00-01:00", "outdoor_seating": "yes", "phone": "0212 263 48 29", "reservation": "required", "website": "www.akintiburnu.com"}}, {"type": "node", "id": 7554847532, "lat": 41.0675437, "lon": 29.0444219, "tags": {"addr:city": "\u0130stanbul", "addr:district": "Be\u015fikta\u015f", "addr:housenumber": "No:56", "addr:neighbourhood": "Arnavutk\u00f6y", "addr:street": "Bebek Arnavutk\u00f6y Caddesi", "amenity": "restaurant", "cuisine": "turkish;steak_house", "name": "Whisper Kitchen Bar", "opening_hours": "Mo-Su 10:00-01:30", "phone": "0212 263 10 45", "website": "whisperistanbul.com"}}, {"type": "node", "id": 7555053402, "lat": 41.0673197, "lon": 29.0429193, "tags": {"addr:city": "\u0130stanbul", "addr:district": "Be\u015fikta\u015f", "addr:housenumber": "No:69", "addr:neighbourhood": "Arnavutk\u00f6y", "addr:postcode": "34347", "addr:street": "Bebek Arnavutk\u00f6y Caddesi", "amenity": "restaurant", "bar": "yes", "brewery": "yes", "cuisine": "american", "description": "Bu mekanda canl\u0131 m\u00fczik yoktur, DJ hizmeti vard\u0131r. Vale hizmeti verilmektedir. Tekne ile ula\u015f\u0131m mevcuttur. Bu mekan hayvan dostu de\u011fildir.", "name": "Curtis Restaurant&Bar", "opening_hours": "Mo-Su 10:00-02:00", "opening_hours:covid19": "off", "outdoor_seating": "yes", "phone": "0542 302 05 05", "smoking": "outside", "website": "curtisistanbul.com"}}, {"type": "node", "id": 7557146622, "lat": 41.0651149, "lon": 29.0408169, "tags": {"addr:city": "\u0130stanbul", "addr:district": "Be\u015fikta\u015f", "addr:housenumber": "No:7", "addr:neighbourhood": "Arnavutk\u00f6y", "addr:postcode": "34345", "addr:street": "Bebek Arnavutk\u00f6y Caddesi", "amenity": "restaurant", "cuisine": "seafood", "delivery": "yes", "fax": "0212 263 21 21", "internet_access": "yes", "name": "Revma Bal\u0131k", "opening_hours": "Mo-Su 12:00-00:00", "outdoor_seating": "yes", "phone": "0212 263 50 60", "reservation": "required", "website": "revmabalik.com"}}, {"type": "node", "id": 7557258578, "lat": 41.0650522, "lon": 29.0369574, "tags": {"addr:city": "\u0130stanbul", "addr:district": "Be\u015fikta\u015f", "addr:housenumber": "No:6", "addr:neighbourhood": "Kuru\u00e7e\u015fme", "addr:postcode": "34345", "addr:street": "Ye\u015filp\u0131nar Soka\u011f\u0131", "amenity": "restaurant", "cuisine": "turkish;kebab", "description": "Bu mekanda vale hizmeti mevcuttur.", "email": "info@sandatiryaki.net", "internet_access": "yes", "name": "\u015eanda Tiryaki Ocakba\u015f\u0131 Restaurant", "opening_hours": "Mo-Su 11:00-01:00", "outdoor_seating": "yes", "phone": "0212 265 13 90", "reservation": "recommended", "website": "sandatiryaki.com.tr"}}, {"type": "node", "id": 7557259004, "lat": 41.0632596, "lon": 29.0405634, "tags": {"addr:city": "\u0130stanbul", "addr:district": "Be\u015fikta\u015f", "addr:housenumber": "No:15", "addr:neighbourhood": "kuru\u00e7e\u015fme", "addr:postcode": "34345", "addr:street": "Arnavutk\u00f6y Kuru\u00e7e\u015fme Caddesi", "amenity": "restaurant", "brewery": "yes", "cuisine": "seafood", "internet_access": "yes", "name": "Kuru\u00e7e\u015fme AYBALIK", "opening_hours": "Mo-Su 09:00-03:00", "phone": "0532 364 19 26", "reservation": "recommended"}}, {"type": "node", "id": 7557386304, "lat": 41.0579516, "lon": 29.0354991, "tags": {"addr:city": "\u0130stanbul", "addr:district": "Be\u015fikta\u015f", "addr:housenumber": "64/A", "addr:neighbourhood": "Kuru\u00e7e\u015fme", "addr:postcode": "34345", "addr:street": "Muallim Naci Caddesi", "amenity": "restaurant", "cuisine": "seafood", "description": "Bu mekanda vale hizmeti mevcuttur.", "email": "info@mavibalik.com", "internet_access": "yes", "name": "Mavi Bal\u0131k", "opening_hours": "Mo-Su 12:00-01:00", "outdoor_seating": "yes", "phone": "+90 212 265 5480", "reservation": "required", "website": "https://www.mavibalik.com/"}}, {"type": "node", "id": 7559673449, "lat": 41.0562387, "lon": 29.0342862, "tags": {"addr:city": "\u0130stanbul", "addr:district": "Be\u015fikta\u015f", "addr:housenumber": "No:58", "addr:neighbourhood": "Kuru\u00e7e\u015fme", "addr:postcode": "34345", "addr:street": "Muallim Naci Caddesi", "amenity": "restaurant", "bar": "yes", "cuisine": "seafood", "description": "Bu mekanda vale hizmeti mevcuttur.", "email": "info@ringaseafood.com", "internet_access": "yes", "name": "Ringa Sea Food", "opening_hours": "Mo-Su 12:00-00:00", "outdoor_seating": "yes", "phone": "0532 066 03 03", "reservation": "recommended", "website": "ringaseafood.com"}}, {"type": "node", "id": 7569249980, "lat": 41.0499993, "lon": 28.9880493, "tags": {"addr:city": "\u0130stanbul", "addr:district": "\u015ei\u015fli", "addr:housenumber": "No:10B", "addr:neighbourhood": "Halaskargazi Mahallesi", "addr:postcode": "34371", "addr:street": "Dershane Soka\u011f\u0131", "amenity": "restaurant", "cuisine": "chinese", "delivery": "yes", "name": "Noodle House", "opening_hours": "Mo-Su 11:30-23:00", "outdoor_seating": "yes", "phone": "0212 234 90 10", "website": "www.noodlehouse.com.tr"}}, {"type": "node", "id": 7684213588, "lat": 41.2354464, "lon": 29.0558091, "tags": {"amenity": "restaurant", "name": "Loop Food"}}, {"type": "node", "id": 7740260334, "lat": 41.2220796, "lon": 29.0340573, "tags": {"addr:city": "\u0130stanbul", "addr:district": "Sar\u0131yer", "addr:neighbourhood": "Uskumruk\u00f6y Mahallesi", "addr:street": "Kilyos Caddesi", "amenity": "restaurant", "name": "Salih Country"}}, {"type": "node", "id": 7740260343, "lat": 41.2230445, "lon": 29.0339101, "tags": {"addr:city": "\u0130stanbul", "addr:district": "Sar\u0131yer", "addr:neighbourhood": "Uskumruk\u00f6y Mahallesi", "amenity": "restaurant", "name": "G\u00f6kdo\u011fan Garden Restoran"}}, {"type": "node", "id": 7742644039, "lat": 41.2203293, "lon": 29.03301, "tags": {"amenity": "restaurant", "name": "Bolu1 K\u00f6y Kahvalt\u0131s\u0131"}}, {"type": "node", "id": 7742644042, "lat": 41.2211085, "lon": 29.0330815, "tags": {"addr:city": "\u0130stanbul", "amenity": "restaurant", "name": "Ye\u015fil \u00c7iftlik"}}, {"type": "node", "id": 7742666132, "lat": 41.2231768, "lon": 29.035417, "tags": {"addr:city": "\u0130stanbul", "addr:neighbourhood": "Uskumruk\u00f6y Mahallesi", "addr:street": "Kilyos Caddesi", "amenity": "restaurant", "name": "Huzur Bah\u00e7e Restaurant Mangal Ba\u015f\u0131"}}, {"type": "node", "id": 7750295588, "lat": 41.0767467, "lon": 29.0389983, "tags": {"amenity": "restaurant", "name": "MOMO Bebek\u00f6y"}}, {"type": "node", "id": 7750348487, "lat": 41.0754623, "lon": 29.0375452, "tags": {"addr:housenumber": "4", "addr:street": "Bebek\u00f6y Soka\u011f\u0131", "amenity": "restaurant", "name": "Backyard"}}, {"type": "node", "id": 7761144315, "lat": 41.2057079, "lon": 29.1317645}, {"type": "node", "id": 7761144316, "lat": 41.2058966, "lon": 29.131942}, {"type": "node", "id": 7800714224, "lat": 41.2059652, "lon": 29.1318629}, {"type": "node", "id": 7800714225, "lat": 41.2057406, "lon": 29.1319388}, {"type": "node", "id": 7800714226, "lat": 41.2058898, "lon": 29.1316936}, {"type": "node", "id": 7809539861, "lat": 41.2057981, "lon": 29.1317287}, {"type": "node", "id": 7809539862, "lat": 41.2057659, "lon": 29.1313779, "tags": {"addr:city": "\u0130stanbul", "addr:district": "Beykoz", "addr:housenumber": "18A", "addr:neighbourhood": "Poyrazk\u00f6y", "addr:postcode": "34829", "addr:street": "Mendirek Yolu", "amenity": "restaurant", "name": "Poyraz Sahil Bal\u0131k Restaurant"}}, {"type": "node", "id": 7809539866, "lat": 41.2058492, "lon": 29.1318339, "tags": {"addr:city": "\u0130stanbul", "addr:district": "Beykoz", "addr:housenumber": "18A", "addr:neighbourhood": "Poyrazk\u00f6y", "addr:postcode": "34829", "addr:street": "Mendirek Yolu", "amenity": "restaurant", "name": "Poyraz Sahil Bal\u0131k Restaurant"}}, {"type": "node", "id": 7809539867, "lat": 41.206067, "lon": 29.1321094, "tags": {"addr:city": "\u0130stanbul", "addr:district": "Beykoz", "addr:housenumber": "18A", "addr:neighbourhood": "Poyrazk\u00f6y", "addr:postcode": "34829", "addr:street": "Mendirek Yolu", "amenity": "restaurant", "name": "Poyraz Sahil Bal\u0131k Restaurant"}}, {"type": "node", "id": 7942981485, "lat": 41.0809106, "lon": 29.0364551, "tags": {"addr:housenumber": "109", "addr:street": "Nispetiye Caddesi", "amenity": "restaurant", "cuisine": "turkish", "name": "Adnan Sar\u0131han gusto", "phone": "02123584848"}}, {"type": "node", "id": 7949388585, "lat": 41.10916, "lon": 29.2093956, "tags": {"amenity": "restaurant", "name:en": "Kar\u00e7ma Kriha Restaurant"}}, {"type": "node", "id": 8043792947, "lat": 41.069877, "lon": 29.0076143, "tags": {"amenity": "restaurant", "name": "Nadide"}}, {"type": "node", "id": 8043792949, "lat": 41.069117, "lon": 29.0086814, "tags": {"amenity": "restaurant", "name": "K\u00f6\u015feba\u015f\u0131 Bal\u0131k"}}, {"type": "node", "id": 8043792952, "lat": 41.0693898, "lon": 29.0078297, "tags": {"amenity": "restaurant", "name": "Malik\u00e2ne No.15"}}, {"type": "node", "id": 8050262992, "lat": 41.0456679, "lon": 29.2192129, "tags": {"amenity": "restaurant"}}, {"type": "node", "id": 8074455079, "lat": 41.0824043, "lon": 29.0679482, "tags": {"amenity": "restaurant"}}, {"type": "node", "id": 8080526375, "lat": 41.2242953, "lon": 29.0360282, "tags": {"addr:city": "\u0130stanbul", "addr:district": "Sar\u0131yer", "addr:housenumber": "322", "addr:neighbourhood": "Uskumruk\u00f6y Mahallesi", "addr:street": "Kilyos Caddesi", "amenity": "restaurant", "cuisine": "italian;pizza;european", "name": "Brio \u0130talian \u0130stanbul", "opening_hours": "Mo-Su 12:00-24:00", "phone": "+90 212 202 69 69", "website": "http://www.brioistanbul.com/"}}, {"type": "node", "id": 8179196373, "lat": 41.1534773, "lon": 29.0377431, "tags": {"amenity": "restaurant", "cuisine": "turkish", "name": "Bafra Karaf\u0131r\u0131n", "phone": "02122627306"}}, {"type": "node", "id": 8318934317, "lat": 41.1852689, "lon": 29.0143199, "tags": {"amenity": "restaurant", "name:en": "Garden Fiesta"}}, {"type": "node", "id": 8512788526, "lat": 41.0834683, "lon": 28.9773282, "tags": {"amenity": "restaurant", "name": "\u0130ntiba D\u00f6ner", "phone": "08506445775"}}, {"type": "node", "id": 8515621517, "lat": 41.0681316, "lon": 29.0429186, "tags": {"amenity": "restaurant", "name": "\u00c7elebi ev yemekleri"}}, {"type": "node", "id": 8515731417, "lat": 41.0501529, "lon": 28.9956996, "tags": {"amenity": "restaurant", "name:en": "400C\u00a0Pizza", "name:ru": "400\u0426\u00a0\u043f\u0438\u0446\u0446\u0430"}}, {"type": "node", "id": 8566310880, "lat": 41.1342527, "lon": 29.0926711, "tags": {"amenity": "restaurant", "name": "Beykoz Pide"}}, {"type": "node", "id": 8834886860, "lat": 41.0921998, "lon": 29.0506592}, {"type": "node", "id": 8834886861, "lat": 41.0921176, "lon": 29.0505793}, {"type": "node", "id": 8834886862, "lat": 41.0919762, "lon": 29.0508356}, {"type": "node", "id": 8834886863, "lat": 41.0920585, "lon": 29.0509154}, {"type": "node", "id": 8931029917, "lat": 41.0787555, "lon": 29.0322742, "tags": {"addr:housenumber": "7", "addr:postcode": "34337", "addr:street": "Dilhayat Sokak", "amenity": "restaurant", "name": "Da Mario"}}, {"type": "node", "id": 8944628618, "lat": 41.1946651, "lon": 29.2122388, "tags": {"amenity": "restaurant", "name": "Minik\u00f6y Riva Kahvalt\u0131"}}, {"type": "node", "id": 9003017264, "lat": 41.0935692, "lon": 29.0907415, "tags": {"amenity": "restaurant", "name": "Hac\u0131o\u011flu"}}, {"type": "node", "id": 9004646817, "lat": 41.077055, "lon": 29.0436443, "tags": {"addr:housenumber": "20/A", "addr:street": "Cevdetpa\u015fa Caddesi", "amenity": "restaurant", "name:en": "Fireroom Bebek", "opening_hours": "Mo-Su 12:00-22:00", "phone": "+90 212 287 12 56", "website": "http://fireroom.com.tr"}}, {"type": "node", "id": 9125987317, "lat": 41.0679596, "lon": 29.0433658, "tags": {"amenity": "restaurant", "name:en": "Padre Casual Eatery"}}, {"type": "node", "id": 9129328817, "lat": 41.0807086, "lon": 29.0661647, "tags": {"amenity": "restaurant", "name": "Ghalia Launge"}}, {"type": "node", "id": 9129328917, "lat": 41.0807576, "lon": 29.0661852, "tags": {"amenity": "restaurant", "name": "Hira Han"}}, {"type": "node", "id": 9160625095, "lat": 41.0543831, "lon": 28.9815919, "tags": {"addr:city": "\u0130stanbul", "addr:district": "\u015fi\u015fli", "addr:neighbourhood": "duatepe mah", "addr:street": "avukat caddesi", "amenity": "restaurant", "cuisine": "lahmacun;pide", "diet:halal": "yes", "name": "efes pide & lahmacun", "opening_hours": "11:00-24:00", "phone": "+902122251179"}}, {"type": "node", "id": 9164286587, "lat": 41.1154306, "lon": 28.9983645, "tags": {"amenity": "restaurant", "name": "Karadeniz Et Lokantas\u0131"}}, {"type": "node", "id": 9164320471, "lat": 41.1154838, "lon": 28.9988868, "tags": {"amenity": "restaurant", "name": "Do\u011fan Karde\u015fler B\u00f6rek & Pide Salonu"}}, {"type": "node", "id": 9164320473, "lat": 41.113734, "lon": 28.9976603, "tags": {"amenity": "restaurant", "name": "Musa Gaziantep"}}, {"type": "node", "id": 9164320476, "lat": 41.114929, "lon": 28.9980853, "tags": {"amenity": "restaurant", "name": "Payamzade"}}, {"type": "node", "id": 9164320480, "lat": 41.1156054, "lon": 28.9988186, "tags": {"amenity": "restaurant", "name": "\u00c7orbac\u0131 Izgara"}}, {"type": "node", "id": 9164320491, "lat": 41.1155873, "lon": 28.9988315, "tags": {"amenity": "restaurant", "name": "Meydan Et Lokantas\u0131"}}, {"type": "node", "id": 9166902583, "lat": 41.1155225, "lon": 28.9991817, "tags": {"amenity": "restaurant", "name": "Karadeniz Bal\u0131k\u00e7\u0131s\u0131 Kayg\u0131n Karde\u015fler Bal\u0131k Lokantas\u0131"}}, {"type": "node", "id": 9166929198, "lat": 41.1159589, "lon": 28.9980041, "tags": {"amenity": "restaurant", "name": "Tarihi Mir B\u00f6rek"}}, {"type": "node", "id": 9235822617, "lat": 41.1737338, "lon": 29.0881893, "tags": {"amenity": "restaurant", "cuisine": "seafood", "name": "Yosun Restorant"}}, {"type": "node", "id": 9404613985, "lat": 41.0758735, "lon": 29.0430039, "tags": {"addr:city": "\u0130stanbul", "addr:district": "Be\u015fikta\u015f", "addr:housenumber": "39", "addr:neighbourhood": "Bebek", "addr:postcode": "34342", "addr:street": "Cevdetpa\u015fa Caddesi", "amenity": "restaurant", "cuisine": "regional;italian;sushi;french;german", "diet:gluten_free": "yes", "diet:halal": "yes", "diet:vegan": "yes", "diet:vegetarian": "yes", "email": "frontiereistanbul@gmail.com", "name": "Frontiere \u0130stanbul", "opening_hours": "Mo-Su 10:30-23:00", "opening_hours:covid19": "same", "phone": "+90 530 359 00 00", "website": "https://www.frontiereistanbul.com/"}}, {"type": "node", "id": 9459070633, "lat": 41.0617512, "lon": 28.9868578, "tags": {"addr:city": "\u0130stanbul", "addr:district": "\u015ei\u015fli", "addr:housenumber": "52", "addr:neighbourhood": "Merkez Mahallesi", "addr:postcode": "34360", "addr:street": "Koca Mansur Soka\u011f\u0131", "amenity": "restaurant", "cuisine": "seafood;fish", "name": "\u015ei\u015fli Bal\u0131k\u00e7\u0131s\u0131", "opening_hours": "Mo-Su 09:00-21:00", "opening_hours:covid19": "same", "phone": "+902123438000"}}, {"type": "node", "id": 9468233717, "lat": 41.1098414, "lon": 29.0411617, "tags": {"amenity": "restaurant", "name": "MR. Simone Breakfast&Cafe"}}, {"type": "node", "id": 9498366073, "lat": 41.0523834, "lon": 28.9780172, "tags": {"amenity": "restaurant", "cuisine": "regional", "name": "Musto`nun Yeri"}}, {"type": "node", "id": 9547752817, "lat": 41.0656774, "lon": 29.0169829, "tags": {"amenity": "restaurant", "name": "Eataly"}}, {"type": "node", "id": 9547765326, "lat": 41.0655739, "lon": 29.0170572, "tags": {"amenity": "restaurant", "name": "Zanzibar"}}, {"type": "node", "id": 9547768317, "lat": 41.0653439, "lon": 29.0167311, "tags": {"amenity": "restaurant", "name": "Terezza italia"}}, {"type": "node", "id": 9553819753, "lat": 41.1611251, "lon": 29.0443217, "tags": {"amenity": "restaurant", "name": "By Bal\u0131k\u00e7\u0131"}}, {"type": "node", "id": 9553822301, "lat": 41.1684438, "lon": 29.0569302, "tags": {"amenity": "restaurant", "name": "Tarihi Urfa Kebap"}}, {"type": "node", "id": 9553829582, "lat": 41.159736, "lon": 29.0404859, "tags": {"amenity": "restaurant", "name": "Parmaks\u0131z"}}, {"type": "node", "id": 9553833644, "lat": 41.1681896, "lon": 29.0562442, "tags": {"amenity": "restaurant", "name": "Sar\u0131yer B\u00f6rek & Pide Salonu"}}, {"type": "node", "id": 9553862829, "lat": 41.1607003, "lon": 29.0430311, "tags": {"amenity": "restaurant", "name": "\u0130zzet Lokantas\u0131"}}, {"type": "node", "id": 9584101417, "lat": 41.0521767, "lon": 28.992922, "tags": {"addr:housenumber": "67", "addr:street": "\u015eakay\u0131k Soka\u011f\u0131", "amenity": "restaurant", "cuisine": "turkish", "name": "iskender1867istanbul"}}, {"type": "node", "id": 9606393617, "lat": 41.067742, "lon": 28.9857953, "tags": {"amenity": "restaurant", "cuisine": "chinese", "name:en": "No. 1 Chinese Hotpot BBQ", "phone": "+90 5528511111", "website": "http://Instagram.com/no1hotpotistanbul"}}, {"type": "node", "id": 9692056905, "lat": 41.1097089, "lon": 29.0568991}, {"type": "node", "id": 9692056906, "lat": 41.109708, "lon": 29.0569867}, {"type": "node", "id": 9692056907, "lat": 41.1096903, "lon": 29.0569096}, {"type": "node", "id": 9692056908, "lat": 41.1096887, "lon": 29.0569745}, {"type": "node", "id": 9692056909, "lat": 41.1098518, "lon": 29.0568978}, {"type": "node", "id": 9692056910, "lat": 41.1098649, "lon": 29.0569048}, {"type": "node", "id": 9692056911, "lat": 41.1098662, "lon": 29.0569943}, {"type": "node", "id": 9692056912, "lat": 41.1098525, "lon": 29.0570013}, {"type": "node", "id": 9693475024, "lat": 41.1097945, "lon": 29.0570439}, {"type": "node", "id": 9725328835, "lat": 41.0552157, "lon": 28.9874122, "tags": {"amenity": "restaurant", "name": "Garden Iskender", "website": "https://www.gardeniskender.com"}}, {"type": "node", "id": 9725328836, "lat": 41.0552145, "lon": 28.9873644, "tags": {"amenity": "restaurant", "name": "Garden Iskender", "website": "https://www.gardeniskender.com"}}, {"type": "node", "id": 9727288540, "lat": 41.0653488, "lon": 28.9955064, "tags": {"amenity": "restaurant", "name": "Nurzade"}}, {"type": "node", "id": 9727291270, "lat": 41.0789378, "lon": 29.0322987, "tags": {"amenity": "restaurant", "name": "Villa Emma"}}, {"type": "node", "id": 9757362857, "lat": 41.0540858, "lon": 28.9797746, "tags": {"amenity": "restaurant", "cuisine": "moroccan", "name": "Darelfassia", "phone": "+90 534 675 72 12"}}, {"type": "node", "id": 9812332821, "lat": 41.2165888, "lon": 29.0319726, "tags": {"amenity": "restaurant", "name": "Kuzubeyi Kuzu \u00c7evirme Zekeriyak\u00f6y"}}, {"type": "node", "id": 9822323418, "lat": 41.0679397, "lon": 29.0432605, "tags": {"amenity": "restaurant", "name": "Papatya D\u00fcr\u00fcm"}}, {"type": "node", "id": 9858803717, "lat": 41.0754126, "lon": 29.0180915, "tags": {"amenity": "restaurant", "name": "CZN Burak"}}, {"type": "node", "id": 9883521618, "lat": 41.0643902, "lon": 28.9931873, "tags": {"amenity": "restaurant", "name": "Focaccia"}}, {"type": "node", "id": 9933656786, "lat": 41.0817962, "lon": 28.9744075, "tags": {"amenity": "restaurant", "name": "Ayhan Usta"}}, {"type": "node", "id": 9933656983, "lat": 41.0814803, "lon": 28.9736618, "tags": {"amenity": "restaurant", "name": "Asr\u0131n Sar\u0131yer B\u00f6rek\u00e7isi"}}, {"type": "node", "id": 9933663216, "lat": 41.0813621, "lon": 28.9735385, "tags": {"amenity": "restaurant", "name": "Diplomal\u0131 K\u00f6fteci"}}, {"type": "node", "id": 9933676005, "lat": 41.0812215, "lon": 28.9727752, "tags": {"amenity": "restaurant", "name": "Eren Pilav"}}, {"type": "node", "id": 9933678404, "lat": 41.0816249, "lon": 28.9739545, "tags": {"amenity": "restaurant", "name": "Zuzu B\u00f6rek\u00e7ilik"}}, {"type": "node", "id": 9933678706, "lat": 41.0816986, "lon": 28.9718453, "tags": {"amenity": "restaurant", "name": "Hivda B\u00f6rek"}}, {"type": "node", "id": 9933678707, "lat": 41.0815887, "lon": 28.9720109, "tags": {"amenity": "restaurant", "name": "K\u00f6y\u00fcm Kebap & Lahmacun Salonu"}}, {"type": "node", "id": 9933678710, "lat": 41.0810909, "lon": 28.9731195, "tags": {"amenity": "restaurant", "name": "\u015een Karde\u015fler Lokantas\u0131"}}, {"type": "node", "id": 9933679629, "lat": 41.0818075, "lon": 28.9737159, "tags": {"amenity": "restaurant", "name": "Trabzon Park"}}, {"type": "node", "id": 9933681704, "lat": 41.0816175, "lon": 28.9715957, "tags": {"amenity": "restaurant", "name": "Onur \u0130\u015fkembe"}}, {"type": "node", "id": 9933686053, "lat": 41.0819197, "lon": 28.9705796, "tags": {"amenity": "restaurant", "name": "U\u011frak Osman"}}, {"type": "node", "id": 9933688919, "lat": 41.0816104, "lon": 28.9732007, "tags": {"amenity": "restaurant", "name": "\u00c7ak\u0131rl\u0131 F\u0131rat Kebap"}}, {"type": "node", "id": 9939299543, "lat": 41.1790199, "lon": 28.9916817, "tags": {"amenity": "restaurant", "name": "Bah\u00e7e"}}, {"type": "node", "id": 9939299566, "lat": 41.1777486, "lon": 28.9905533, "tags": {"amenity": "restaurant", "name": "Ceviz"}}, {"type": "node", "id": 9939299572, "lat": 41.179176, "lon": 28.9915295, "tags": {"amenity": "restaurant", "name": "Miss K\u00f6fte"}}, {"type": "node", "id": 9939299578, "lat": 41.1793433, "lon": 28.991538, "tags": {"amenity": "restaurant", "name": "\u00c7ak\u0131l"}}, {"type": "node", "id": 9939299593, "lat": 41.1784627, "lon": 28.9917483, "tags": {"amenity": "restaurant", "name": "Ekinciler Sulu Yemek D\u00f6ner"}}, {"type": "node", "id": 9991141747, "lat": 41.1875557, "lon": 29.0492718, "tags": {"amenity": "restaurant", "name": "Adana Kebap\u00e7\u0131s\u0131"}}, {"type": "node", "id": 9992033517, "lat": 41.2252433, "lon": 29.2231708, "tags": {"amenity": "restaurant", "cuisine": "regional;turkish", "name": "Aisa Caf\u00e9 Restaurant"}}, {"type": "node", "id": 10009010423, "lat": 41.076534, "lon": 29.0443309, "tags": {"amenity": "restaurant", "cuisine": "breakfast;turkish", "name": "La Sirene Bebek", "opening_hours": "Mo-Su 09:00-24:00"}}, {"type": "node", "id": 10054488461, "lat": 41.2072036, "lon": 29.1319187, "tags": {"amenity": "restaurant"}}, {"type": "node", "id": 10117403149, "lat": 41.0599153, "lon": 29.0358392, "tags": {"addr:city": "\u0130stanbul", "addr:district": "Be\u015fikta\u015f", "addr:housenumber": "7", "addr:neighbourhood": "Kuru\u00e7e\u015fme", "addr:postcode": "34345", "addr:street": "Arnavutk\u00f6y Kuru\u00e7e\u015fme Caddesi", "amenity": "restaurant", "cuisine": "turkish", "email": "info@sorrisokurucesme.com", "name": "Sorriso Restaurant Kuru\u00e7e\u015fme", "phone": "+90 532 399 8304", "website": "http://sorrisokurucesme.com/"}}, {"type": "node", "id": 10119964324, "lat": 41.0675553, "lon": 29.044724}, {"type": "node", "id": 10119964325, "lat": 41.0674613, "lon": 29.0447464}, {"type": "node", "id": 10119964326, "lat": 41.0675364, "lon": 29.045307}, {"type": "node", "id": 10119964327, "lat": 41.0675871, "lon": 29.0453016}, {"type": "node", "id": 10121742730, "lat": 41.0561364, "lon": 29.0359612}, {"type": "node", "id": 10121742731, "lat": 41.0563179, "lon": 29.0346933}, {"type": "node", "id": 10121742732, "lat": 41.0559507, "lon": 29.0347862}, {"type": "node", "id": 10121742733, "lat": 41.0558095, "lon": 29.035865}, {"type": "node", "id": 10121742734, "lat": 41.0559183, "lon": 29.0358956}, {"type": "node", "id": 10121742735, "lat": 41.0560143, "lon": 29.035928}, {"type": "node", "id": 10121742740, "lat": 41.0561503, "lon": 29.0348348}, {"type": "node", "id": 10121742741, "lat": 41.0561759, "lon": 29.0346499}, {"type": "node", "id": 10155546594, "lat": 41.0583602, "lon": 29.0351414, "tags": {"amenity": "restaurant", "cuisine": "turkish", "name": "Macboos Restaurant"}}, {"type": "node", "id": 10161665317, "lat": 41.0518418, "lon": 28.9853236, "tags": {"amenity": "restaurant", "name": "Adana Ocakba\u015f\u0131"}}, {"type": "node", "id": 10168465773, "lat": 41.0989851, "lon": 29.053494}, {"type": "node", "id": 10168465774, "lat": 41.0989414, "lon": 29.0535295}, {"type": "node", "id": 10168465775, "lat": 41.0990746, "lon": 29.0538183}, {"type": "node", "id": 10168465776, "lat": 41.0990497, "lon": 29.0538386}, {"type": "node", "id": 10168465777, "lat": 41.0991245, "lon": 29.0540006}, {"type": "node", "id": 10168465778, "lat": 41.0991918, "lon": 29.053946}, {"type": "node", "id": 10168465779, "lat": 41.0991455, "lon": 29.0538458}, {"type": "node", "id": 10168465780, "lat": 41.0991635, "lon": 29.0538312}, {"type": "node", "id": 10168465781, "lat": 41.099129, "lon": 29.0537564}, {"type": "node", "id": 10168465782, "lat": 41.0991124, "lon": 29.0537698}, {"type": "node", "id": 10168465890, "lat": 41.1050118, "lon": 29.0563508}, {"type": "node", "id": 10168465891, "lat": 41.1049165, "lon": 29.0563084}, {"type": "node", "id": 10168465892, "lat": 41.1048745, "lon": 29.0564746}, {"type": "node", "id": 10168465893, "lat": 41.1049698, "lon": 29.056517}, {"type": "node", "id": 10168465899, "lat": 41.0678712, "lon": 29.0451074}, {"type": "node", "id": 10168465900, "lat": 41.0677149, "lon": 29.0450531}, {"type": "node", "id": 10168465901, "lat": 41.0677236, "lon": 29.0452026}, {"type": "node", "id": 10168465902, "lat": 41.0677777, "lon": 29.0451966}, {"type": "node", "id": 10275286762, "lat": 41.0598883, "lon": 29.0361797}, {"type": "node", "id": 10275286763, "lat": 41.05999, "lon": 29.0360069}, {"type": "node", "id": 10278446869, "lat": 41.2172928, "lon": 29.1061789, "tags": {"amenity": "restaurant"}}, {"type": "node", "id": 10282190509, "lat": 41.085775, "lon": 29.011314, "tags": {"addr:housenumber": "2", "addr:postcode": "34330", "addr:street": "Akasyal\u0131 Soka\u011f\u0131", "amenity": "restaurant", "name": "Venge", "opening_hours": "Mo-Su 12:00-00:00", "website": "http://www.venge.com.tr/"}}, {"type": "node", "id": 10283106517, "lat": 41.0600207, "lon": 29.0359405}, {"type": "node", "id": 10283106518, "lat": 41.0600959, "lon": 29.0360143}, {"type": "node", "id": 10283106519, "lat": 41.0599415, "lon": 29.0362442}, {"type": "node", "id": 10298005609, "lat": 41.0879536, "lon": 29.0317551, "tags": {"addr:housenumber": "3/12", "addr:postcode": "34335", "addr:street": "Kakt\u00fcs Sokak", "amenity": "restaurant", "name": "Minoa Village", "website": "http://minoa.com"}}, {"type": "node", "id": 10313659573, "lat": 41.0744599, "lon": 29.0611741, "tags": {"amenity": "restaurant", "cuisine": "turkish", "name": "H\u00fcnkar K\u00f6\u015fk Restaurant"}}, {"type": "node", "id": 10313659575, "lat": 41.0720357, "lon": 29.0645478, "tags": {"amenity": "restaurant", "cuisine": "turkish", "name": "Kartepe Restoran"}}, {"type": "node", "id": 10536658328, "lat": 41.0738736, "lon": 29.0582396, "tags": {"amenity": "restaurant", "name": "Kandilli K\u00f6fte D\u00fcr\u00fcm"}}, {"type": "node", "id": 10536667710, "lat": 41.0738476, "lon": 29.0577381, "tags": {"amenity": "restaurant", "name": "\u0130oki Asia"}}, {"type": "node", "id": 10544340317, "lat": 41.0720422, "lon": 29.0626684, "tags": {"amenity": "restaurant", "cuisine": "turkish", "name": "Koru Restoran"}}, {"type": "node", "id": 10553924609, "lat": 41.051944, "lon": 28.9890057, "tags": {"amenity": "restaurant", "name": "Maderi sushi bar"}}, {"type": "node", "id": 10554127309, "lat": 41.051215, "lon": 28.9967341, "tags": {"amenity": "restaurant", "name": "Pokemate"}}, {"type": "node", "id": 10554243911, "lat": 41.0690379, "lon": 29.0574697, "tags": {"amenity": "restaurant", "name": "Saray Muhallebicisi - Kandilli"}}, {"type": "node", "id": 10554289309, "lat": 41.0521745, "lon": 28.9929712, "tags": {"amenity": "restaurant", "name": "Iskender 1867"}}, {"type": "node", "id": 10563394337, "lat": 41.0744382, "lon": 29.0695877, "tags": {"amenity": "restaurant", "name": "Nayla Tantuni"}}, {"type": "node", "id": 10563443247, "lat": 41.0744103, "lon": 29.0699865, "tags": {"amenity": "restaurant", "name": "Nayla D\u00fcr\u00fcm Kokore\u00e7"}}, {"type": "node", "id": 10563559492, "lat": 41.0735064, "lon": 29.070175, "tags": {"amenity": "restaurant", "cuisine": "pizza", "name": "Turkish Pizza"}}, {"type": "node", "id": 10570582549, "lat": 41.0639114, "lon": 28.9935336, "tags": {"amenity": "restaurant", "name": "Bahar Pide Salonu"}}, {"type": "node", "id": 10570592040, "lat": 41.0637209, "lon": 28.9937107, "tags": {"amenity": "restaurant", "name": "Alt\u0131n Maden Pasta & B\u00f6rek"}}, {"type": "node", "id": 10570598571, "lat": 41.063797, "lon": 28.9936584, "tags": {"amenity": "restaurant", "name": "B\u00f6rekist", "phone": "+902123474587"}}, {"type": "node", "id": 10570598761, "lat": 41.0636634, "lon": 28.9937749, "tags": {"amenity": "restaurant", "name": "Mercan Kebap", "phone": "+902122740080"}}, {"type": "node", "id": 10592337905, "lat": 41.0523934, "lon": 28.9927222, "tags": {"amenity": "restaurant", "name": "Bodeum manti cafe"}}, {"type": "node", "id": 10607801757, "lat": 41.0958516, "lon": 29.0961977}, {"type": "node", "id": 10607801758, "lat": 41.0957999, "lon": 29.0961623}, {"type": "node", "id": 10607801759, "lat": 41.0958205, "lon": 29.0961092}, {"type": "node", "id": 10607801760, "lat": 41.0956739, "lon": 29.0960088}, {"type": "node", "id": 10607801761, "lat": 41.0956567, "lon": 29.096053}, {"type": "node", "id": 10607801762, "lat": 41.0956079, "lon": 29.0960196}, {"type": "node", "id": 10607801763, "lat": 41.0955192, "lon": 29.0962475}, {"type": "node", "id": 10607801764, "lat": 41.0955616, "lon": 29.0962766}, {"type": "node", "id": 10607801765, "lat": 41.095544, "lon": 29.096322}, {"type": "node", "id": 10607801766, "lat": 41.0956953, "lon": 29.0964257}, {"type": "node", "id": 10607801767, "lat": 41.0957133, "lon": 29.0963794}, {"type": "node", "id": 10607801768, "lat": 41.0957666, "lon": 29.0964159}, {"type": "node", "id": 10708271528, "lat": 41.0670527, "lon": 28.9969397, "tags": {"amenity": "restaurant", "name": "Se\u00e7kin B\u00f6rek"}}, {"type": "node", "id": 10718402721, "lat": 41.0661665, "lon": 29.0168647, "tags": {"addr:city": "\u0130stanbul", "addr:district": "Be\u015fikta\u015f", "addr:housenumber": "2", "addr:neighbourhood": "Balmumcu", "addr:postcode": "34340", "addr:street": "Koru Soka\u011f\u0131", "amenity": "restaurant", "bar": "yes", "cuisine": "turkish;italian;french", "diet:non-vegetarian": "yes", "diet:vegan": "yes", "name": "Cantinery", "opening_hours": "Mo-Su 10:00-22:00", "outdoor_seating": "yes", "phone": "+902123536365", "website": "https://www.cantinery.com/"}}, {"type": "node", "id": 10734920205, "lat": 41.0603571, "lon": 29.036665, "tags": {"addr:housenumber": "19", "addr:postcode": "34345", "addr:street": "Arnavutk\u00f6y Kuru\u00e7e\u015fme Caddesi", "amenity": "restaurant", "name": "Alaf 2 Tek", "opening_hours": "Su,Tu-Sa 18:00-00:00"}},