{"version": 0.6, "generator": "Overpass API 0.7.60 f4c14d41", "osm3s": {"timestamp_osm_base": "2023-05-02T21:16:21Z", "copyright": "The data included in this document is from www.openstreetmap.org. The data is made available under ODbL."}, "elements": [{"type": "node", "id": 2246682577, "lat": 41.0640446, "lon": 29.0101244, "tags": {"addr:housename": "Dedeman Hotel", "addr:housenumber": "50", "addr:street": "Y\u0131ld\u0131z Posta Caddesi", "amenity": "bar", "name": "Dedeman Roof Bar", "phone": "+90 212 337 45 00", "website": "http://www.facebook.com/pages/Roof-Bar-Dedeman-Hotel-Istanbul/134930766602024"}}, {"type": "node", "id": 2773225811, "lat": 41.0800877, "lon": 29.0507353, "tags": {"amenity": "bar", "name": "Taps Bebek"}}, {"type": "node", "id": 2938604202, "lat": 41.0773541, "lon": 29.0432638, "tags": {"addr:city": "\u0130stanbul", "addr:district": "Sar\u0131yer", "addr:housenumber": "No:51/A", "addr:neighbourhood": "Bebek", "addr:street": "Cevdetpa\u015fa Caddesi", "amenity": "bar", "internet_access": "yes", "internet_access:fee": "customers", "name": "Lucca", "opening_hours": "Mo-Su 10:00-02:00", "outdoor_seating": "yes", "payment:cash": "yes", "payment:credit_cards": "yes", "phone": "0212 257 12 55", "website": "luccastyle.com"}}, {"type": "node", "id": 3260790922, "lat": 41.0665255, "lon": 29.006229, "tags": {"addr:city": "\u0130stanbul", "addr:housenumber": "1/1A", "addr:street": "Y\u0131ld\u0131z Posta Caddesi", "amenity": "bar", "name": "Bosphorus Brewing Company", "website": "http://bosphorus-brewing.com"}}, {"type": "node", "id": 4344443539, "lat": 41.1345126, "lon": 29.2959332}, {"type": "node", "id": 4344443540, "lat": 41.1347027, "lon": 29.2962665}, {"type": "node", "id": 4344443541, "lat": 41.1346456, "lon": 29.2963239}, {"type": "node", "id": 4344443542, "lat": 41.1344555, "lon": 29.2959905}, {"type": "node", "id": 4350598711, "lat": 41.1346739, "lon": 29.2962955}, {"type": "node", "id": 4556313089, "lat": 41.168783, "lon": 29.057517, "tags": {"amenity": "bar", "name:ar": "\u0628\u0627\u0632\u0627\u0631 \u0627\u0644\u062e\u0645\u064a\u0633 \u0641\u064a \u0633\u0627\u0631\u064a\u0631"}}, {"type": "node", "id": 5568815553, "lat": 41.2461374, "lon": 29.0077803}, {"type": "node", "id": 5568815554, "lat": 41.2459159, "lon": 29.0091814}, {"type": "node", "id": 5568815555, "lat": 41.2456873, "lon": 29.009219}, {"type": "node", "id": 5568815556, "lat": 41.2452984, "lon": 29.0078556}, {"type": "node", "id": 5568815557, "lat": 41.2454398, "lon": 29.0074387}, {"type": "node", "id": 5751400836, "lat": 41.0514489, "lon": 28.9956851, "tags": {"amenity": "bar", "name": "Efendi", "name:tr": "Efendi"}}, {"type": "node", "id": 6271719726, "lat": 41.0500935, "lon": 28.9906103, "tags": {"addr:housenumber": "11a", "addr:street": "Mimar Kemal \u00d6ke Caddesi", "amenity": "bar", "name": "Must", "name:tr": "Must"}}, {"type": "node", "id": 6812042513, "lat": 41.1344808, "lon": 29.2959651}, {"type": "node", "id": 7527122818, "lat": 41.1209701, "lon": 29.0696691, "tags": {"addr:city": "istanbul", "addr:district": "sar\u0131yer", "addr:housenumber": "No:88", "addr:neighbourhood": "Yenik\u00f6y mahallesi", "addr:street": "K\u00f6yba\u015f\u0131 Caddesi", "air_conditioning": "yes", "amenity": "bar", "brewery": "yes", "name": "Fettan Meze&Bar", "opening_hours": "Mo-Su 15:00-01:00", "phone": "0212 223 30 34", "website": "https://fettan-meze.business.site/"}}, {"type": "node", "id": 7532820936, "lat": 41.1171273, "lon": 29.0637452, "tags": {"addr:city": "istanbul", "addr:district": "sar\u0131yer", "addr:housenumber": "No:159", "addr:neighbourhood": "Yenik\u00f6y mahallesi", "addr:street": "K\u00f6yba\u015f\u0131 Caddesi", "amenity": "bar", "brewery": "yes", "name": "Triple", "opening_hours": "Mo-Su 10:00-00:00", "opening_hours:covid19": "off", "outdoor_seating": "yes", "phone": "+90 (212) 299 03 33"}}, {"type": "node", "id": 7533009529, "lat": 41.0896466, "lon": 29.0564914, "tags": {"addr:city": "istanbul", "addr:district": "sar\u0131yer", "addr:housenumber": "No:13/A", "addr:neighbourhood": "rumeli hisar\u0131 mahallesi", "addr:street": "Hisar Caddesi", "amenity": "bar", "brewery": "yes", "name": "J.R Dallas", "opening_hours:covid19": "off", "outdoor_seating": "yes", "phone": "0212 277 10 77"}}, {"type": "node", "id": 7542258849, "lat": 41.0784831, "lon": 29.0449536, "tags": {"addr:city": "\u0130stanbul", "addr:district": "Be\u015fikta\u015f", "addr:neighbourhood": "Bebek", "addr:street": "Cevdetpa\u015fa Caddesi", "amenity": "bar", "name": "Chilai", "opening_hours": "Mo-Su 10:00-02:00", "outdoor_seating": "yes", "payment:cash": "yes", "payment:credit_cards": "yes", "phone": "0212 263 63 15", "website": "chilai.com.tr"}}, {"type": "node", "id": 7542280341, "lat": 41.0784497, "lon": 29.0449041, "tags": {"addr:city": "\u0130stanbul", "addr:district": "Be\u015fikta\u015f", "addr:housenumber": "No:56", "addr:neighbourhood": "Bebek", "addr:street": "Cevdetpa\u015fa Caddesi", "amenity": "bar", "name": "Bebek Lokal", "opening_hours": "Mo-Su 09:00-02:00", "phone": "0212 265 59 59", "website": "https://facebook.com/bebeklokall"}}, {"type": "node", "id": 7552372013, "lat": 41.075742, "lon": 29.0429827, "tags": {"addr:city": "\u0130stanbul", "addr:district": "Be\u015fikta\u015f", "addr:housenumber": "No:35", "addr:neighbourhood": "Bebek", "addr:street": "Cevdetpa\u015fa Caddesi", "amenity": "bar", "brewery": "yes;Heineken;Leffe_Brune;Leffe_Blonde;Leffe_Radieuse;Beck's;Efes;Bomonti;Bud;Miller;Duvel", "description": "Bu mekan\u0131n Fajitas\u0131 me\u015fhurdur.", "internet_access": "yes", "internet_access:fee": "customers", "name": "K\u0131r\u0131nt\u0131 Cafe Bar", "opening_hours": "Mo-Su 09:00-02:00", "outdoor_seating": "yes", "payment:cash": "yes", "payment:credit_cards": "yes", "phone": "0212 257 67 27", "website": "kirinti.com.tr"}}, {"type": "node", "id": 7553222928, "lat": 41.0675722, "lon": 29.0436443, "tags": {"addr:city": "\u0130stanbul", "addr:district": "Be\u015fikta\u015f", "addr:housenumber": "No:83", "addr:neighbourhood": "Arnavutk\u00f6y", "addr:street": "Bebek Arnavutk\u00f6y Caddesi", "amenity": "bar", "brewery": "yes;various", "internet_access": "yes", "min_age": "18", "name": "Halet-i Ruhiye", "opening_hours": "Mo-Su 20:00-04:00", "opening_hours:covid19": "off", "outdoor_seating": "no", "payment:cash": "yes", "payment:credit_cards": "yes"}}, {"type": "node", "id": 7555021359, "lat": 41.0672113, "lon": 29.0423565, "tags": {"addr:city": "\u0130stanbul", "addr:district": "Be\u015fikta\u015f", "addr:housenumber": "No:4", "addr:neighbourhood": "Arnavutk\u00f6y", "addr:postcode": "34345", "addr:street": "Bakkal Soka\u011f\u0131", "amenity": "bar", "brewery": "yes", "description": "Canl\u0131 m\u00fczik mevcuttur.", "internet_access": "yes", "name": "Level Arnavutk\u00f6y", "opening_hours": "Mo-Su 18:00-03:00", "opening_hours:covid19": "off", "payment:cash": "yes", "payment:credit_cards": "yes", "phone": "0532 662 11 71"}}, {"type": "node", "id": 9067430417, "lat": 41.0674018, "lon": 29.0431699, "tags": {"addr:housenumber": "71", "addr:postcode": "34345", "addr:street": "Bebek Arnavutk\u00f6y Caddesi", "amenity": "bar", "name:en": "Any cafe & bar", "opening_hours": "Mo-Su 09:00-02:30", "phone": "+902122653269", "website": "https://m.facebook.com/anyistanbul/"}}, {"type": "node", "id": 9278775518, "lat": 41.0511749, "lon": 28.9963798, "tags": {"amenity": "bar", "name:en": "Kozmonot"}}, {"type": "node", "id": 10250303604, "lat": 41.0575408, "lon": 28.981576, "tags": {"amenity": "bar", "brewery": "yes", "check_date": "2022-12-09", "name": "Blok", "opening_hours": "10:30-02:00", "outdoor_seating": "yes", "payment:mastercard": "yes", "payment:visa": "yes"}}, {"type": "way", "id": 436557218, "nodes": [4344443539, 4344443540, 4350598711, 4344443541, 4344443542, 6812042513, 4344443539], "tags": {"amenity": "bar", "building": "yes", "name": "TEB Sakl\u0131k\u00f6y Pool Bar"}}, {"type": "way", "id": 582224057, "nodes": [5568815553, 5568815554, 5568815555, 5568815556, 5568815557, 5568815553], "tags": {"amenity": "bar", "building": "no", "name": "Beach Bar", "operator": "Burch Beach"}}]}