{"version": 0.6, "generator": "Overpass API 0.7.60 f4c14d41", "osm3s": {"timestamp_osm_base": "2023-05-02T21:19:24Z", "copyright": "The data included in this document is from www.openstreetmap.org. The data is made available under ODbL."}, "elements": [{"type": "node", "id": 158603712, "lat": 48.8298353, "lon": 2.3228662, "tags": {"alt_name": "Le Moulin Vert", "amenity": "restaurant", "cuisine": "pizza", "happy_hours": "15:00-20:00", "name": "The Village Terrazza", "phone": "+33 1 45 39 31 31"}}, {"type": "node", "id": 175539450, "lat": 48.8319911, "lon": 2.3245334, "tags": {"addr:housenumber": "8", "addr:postcode": "75014", "addr:street": "Rue des Plantes", "amenity": "restaurant", "cuisine": "french", "name": "Le Severo", "opening_hours": "Mo-Fr 12:00-13:30, 19:30-21:30"}}, {"type": "node", "id": 247439841, "lat": 48.8618492, "lon": 2.3434997, "tags": {"addr:city": "Paris", "addr:housenumber": "37", "addr:postcode": "75001", "addr:street": "Rue Berger", "amenity": "restaurant", "contact:city": "Paris", "contact:housenumber": "37", "contact:phone": "+33 1 42 36 20 47", "contact:postcode": "75001", "contact:street": "Rue Berger", "cuisine": "italian;pizza", "indoor_seating": "yes", "name": "Uno", "outdoor_seating": "yes", "toilets:wheelchair": "no", "wheelchair": "limited", "wheelchair:description": "only parts of the restaurant are wheelchair accessible. The toilet is not accessible."}}, {"type": "node", "id": 247455916, "lat": 48.8672925, "lon": 2.3255509, "tags": {"amenity": "restaurant", "name": "La Crypte Polska", "source": "survey"}}, {"type": "node", "id": 247455920, "lat": 48.8659, "lon": 2.337242, "tags": {"amenity": "restaurant", "contact:city": "Paris", "contact:housenumber": "37bis", "contact:phone": "+33 1 40 20 03 02", "contact:postcode": "75001", "contact:street": "Rue de Montpensier", "name": "Mystery Cuisine"}}, {"type": "node", "id": 247455923, "lat": 48.8615239, "lon": 2.3440891, "tags": {"amenity": "restaurant", "contact:city": "Paris", "contact:housenumber": "5", "contact:phone": "+33 1 42 36 21 82", "contact:postcode": "75001", "contact:street": "Rue des Prouvaires", "cuisine": "french", "indoor_seating": "yes", "name": "Chez Denise", "opening_hours": "Mo-Su 12:00-24:00; Mo-Su 00:00-02:00", "outdoor_seating": "yes"}}, {"type": "node", "id": 247455924, "lat": 48.8586437, "lon": 2.3458501, "tags": {"amenity": "restaurant", "name": "La Robe et le Palais", "phone": "+33 1 45 08 07 41", "website": "http://www.robe-et-palais.com/", "wheelchair": "limited"}}, {"type": "node", "id": 247467738, "lat": 48.8663903, "lon": 2.3380844, "tags": {"amenity": "restaurant", "diet:vegan": "yes", "diet:vegetarian": "yes", "name": "Mac\u00e9o", "wheelchair": "limited"}}, {"type": "node", "id": 247696086, "lat": 48.8660027, "lon": 2.3646613, "tags": {"addr:city": "Paris", "addr:housenumber": "39", "addr:postcode": "75003", "addr:street": "Boulevard du Temple", "amenity": "restaurant", "cuisine": "french", "name": "Chez Jenny", "phone": "+33 1 44 54 39 00", "website": "http://www.chez-jenny.com/"}}, {"type": "node", "id": 247696089, "lat": 48.8573191, "lon": 2.3660431, "tags": {"addr:city": "Paris", "addr:housenumber": "9", "addr:street": "Rue de B\u00e9arn", "amenity": "restaurant", "cuisine": "french", "name": "Le Petit March\u00e9"}}, {"type": "node", "id": 247696090, "lat": 48.8580708, "lon": 2.3643313, "tags": {"amenity": "restaurant", "cuisine": "french", "name": "Caf\u00e9 des Mus\u00e9es", "opening_hours": "Mo-Su 12:00-15:00,19:00-23:30", "phone": "+33 1 42 72 96 17", "wheelchair": "no"}}, {"type": "node", "id": 247696092, "lat": 48.8577772, "lon": 2.3607273, "tags": {"amenity": "restaurant", "cuisine": "french", "name": "Camille", "outdoor_seating": "yes", "source": "survey 2013", "wheelchair": "yes"}}, {"type": "node", "id": 247696094, "lat": 48.8630297, "lon": 2.3612527, "tags": {"amenity": "restaurant", "contact:tripadvisor": "https://www.tripadvisor.com/Restaurant_Review-g187147-d1175069-Reviews-Les_Enfants_Rouges-Paris_Ile_de_France.html", "contact:yelp": "https://www.yelp.co.uk/biz/les-enfants-rouges-paris-3", "diet:vegetarian": "no", "name": "Les Enfants Rouges", "phone": "+33 1 48 87 80 61"}}, {"type": "node", "id": 248493877, "lat": 48.8483622, "lon": 2.3739893, "tags": {"addr:city": "Paris", "addr:housenumber": "55", "addr:postcode": "75012", "addr:street": "Rue Traversi\u00e8re", "amenity": "restaurant", "cuisine": "french", "description": "restaurant coop\u00e9ratif", "internet_access": "no", "name": "L'Encrier", "opening_hours": "Mo-Fr 12:00-14:30,19:00-22:30; Sa 19:00-22:30", "phone": "+33 1 44 68 08 16", "wheelchair": "limited"}}, {"type": "node", "id": 250657148, "lat": 48.8648091, "lon": 2.3411291, "tags": {"amenity": "restaurant", "delivery:covid19": "yes", "name": "L\u00e9moni Caf\u00e9", "opening_hours": "Mo-Fr 11:30-15:00", "opening_hours:covid19": "Mo-Fr 11:30-15:00", "takeaway:covid19": "yes"}}, {"type": "node", "id": 250861677, "lat": 48.8687993, "lon": 2.3373273, "tags": {"amenity": "restaurant", "check_date": "2023-03-19", "cuisine": "indian", "diet:vegetarian": "yes", "name": "Rani Mahal"}}, {"type": "node", "id": 250861679, "lat": 48.8648222, "lon": 2.3475072, "tags": {"amenity": "restaurant", "contact:city": "Paris", "contact:housenumber": "42", "contact:postcode": "75002", "contact:street": "Rue Tiquetonne", "cuisine": "pizza;italian", "name": "O'Scia", "outdoor_seating": "no"}}, {"type": "node", "id": 250861680, "lat": 48.8689038, "lon": 2.3422059, "tags": {"amenity": "restaurant", "contact:city": "Paris", "contact:housenumber": "40", "contact:postcode": "75002", "contact:street": "Rue Notre-Dame-des-Victoires", "cuisine": "french", "name": "Caf\u00e9 Moderne", "toilets:wheelchair": "yes", "wheelchair": "no"}}, {"type": "node", "id": 251043133, "lat": 48.860997, "lon": 2.3544354, "tags": {"amenity": "restaurant", "contact:housenumber": "24", "contact:street": "Rue Rambuteau", "cuisine": "ramen", "name": "Holy Ramen", "phone": "+33 1 57 40 98 57", "source": "survey"}}, {"type": "node", "id": 251043137, "lat": 48.8557588, "lon": 2.3561398, "tags": {"amenity": "restaurant", "contact:facebook": "https://www.facebook.com/pages/La-Perla-Bar/165869840923", "contact:phone": "+33 1 42 77 59 40", "contact:website": "http://www.cafepacifico-laperla.com/", "cuisine": "mexican", "level": "0", "name": "La Perla", "opening_hours": "Mo-Su 12:00-24:00", "outdoor_seating": "yes", "smoking": "outside", "toilets:wheelchair": "no", "wheelchair": "limited"}}, {"type": "node", "id": 251043139, "lat": 48.8533876, "lon": 2.3620076, "tags": {"amenity": "restaurant", "name": "L'Excuse"}}, {"type": "node", "id": 251043140, "lat": 48.8575825, "lon": 2.3562566, "tags": {"amenity": "restaurant", "cuisine": "seafood", "name": "Les Pinces", "opening_hours": "Mo-Fr 12:00-14:15, Sa,Su 12:30-15:00, Su-Th 19:00-22:30, Fr-Sa 19:00-23:00", "phone": "+33 9 83 56 47 93", "website": "https://www.lespinces.com/", "wheelchair": "limited"}}, {"type": "node", "id": 251047644, "lat": 48.8577181, "lon": 2.3586116, "tags": {"amenity": "restaurant", "contact:city": "Paris", "contact:housenumber": "2", "contact:postcode": "75004", "contact:street": "Rue des Hospitali\u00e8res-Saint-Gervais", "cuisine": "falafel", "name": "Chez Marianne"}}, {"type": "node", "id": 251047682, "lat": 48.85559, "lon": 2.3628253, "tags": {"amenity": "restaurant", "name": "Terrasse Sainte-Catherine", "outdoor_seating": "yes"}}, {"type": "node", "id": 251125928, "lat": 48.8532987, "lon": 2.3540953, "tags": {"addr:housenumber": "33", "addr:postcode": "75004", "addr:street": "Quai de Bourbon", "amenity": "restaurant", "contact:phone": "+33 1 40 51 80 30", "name": "Le Lut\u00e9tia \u00cele Saint-Louis", "opening_hours": "Mo-Su 07:30-23:00"}}, {"type": "node", "id": 251126260, "lat": 48.8574347, "lon": 2.3576107, "tags": {"addr:city": "Paris", "addr:housenumber": "30", "addr:postcode": "75004", "addr:street": "Rue Vieille du Temple", "amenity": "restaurant", "cuisine": "regional", "name": "Au Petit Fer \u00e0 Cheval", "name:fr": "Au Petit Fer \u00e0 Cheval", "opening_hours": "Mo-Su 09:00-02:00"}}, {"type": "node", "id": 251474107, "lat": 48.8437435, "lon": 2.3544856, "tags": {"amenity": "restaurant", "contact:city": "Paris", "contact:housenumber": "4", "contact:phone": "+33 1 43 31 50 71", "contact:postcode": "75005", "contact:street": "Rue Lac\u00e9p\u00e8de", "cuisine": "pasta;italian", "diet:vegetarian": "yes", "name": "Jardin des P\u00e2tes", "opening_hours": "Mo-Su 12:00-14:30,19:30-22:30", "start_date": "1984"}}, {"type": "node", "id": 251474108, "lat": 48.84983, "lon": 2.3549148, "tags": {"addr:housenumber": "15", "addr:postcode": "75005", "addr:street": "Quai de la Tournelle", "amenity": "restaurant", "contact:facebook": "latourdargent", "cuisine": "french", "name": "La Tour d'Argent", "name:zh": "\u94f6\u5854\u9910\u5385", "opening_hours": "Tu-Sa 12:00-13:15, 19:00-21:15", "phone": "+33143542331", "website": "http://www.latourdargent.com", "wikidata": "Q1338260"}}, {"type": "node", "id": 251474109, "lat": 48.8449407, "lon": 2.3486924, "tags": {"addr:city": "Paris", "addr:housenumber": "12", "addr:postcode": "75005", "addr:street": "Rue Thouin", "amenity": "restaurant", "cuisine": "indian", "name": "Ambiance De L'Inde", "opening_hours": "12:00-15:00,18:30-24:00", "website": "https://ambiancedelinde.fr/"}}, {"type": "node", "id": 251652822, "lat": 48.8556694, "lon": 2.3399888, "tags": {"amenity": "restaurant", "cuisine": "indian", "name": "Desi Road"}}, {"type": "node", "id": 251670428, "lat": 48.8493501, "lon": 2.3391528, "tags": {"addr:city": "Paris", "addr:housenumber": "7", "addr:postcode": "75006", "addr:street": "Rue Corneille", "amenity": "restaurant", "cuisine": "asian", "name": "Metou", "opening_hours": "Tu-Sa 11:30-15:00,19:00-22:30", "phone": "+33 1 42 03 57 32", "website": "https://metoucuisinedasie.com/"}}, {"type": "node", "id": 251670430, "lat": 48.8546811, "lon": 2.3332029, "tags": {"amenity": "restaurant", "name": "Silencio des Pr\u00e9s", "opening_hours": "Tu-Sa 19:00-02:00", "outdoor_seating": "yes", "website": "http://www.silenciodespres.com"}}, {"type": "node", "id": 251671404, "lat": 48.8498182, "lon": 2.3401339, "tags": {"amenity": "restaurant", "cuisine": "french", "diet:vegetarian": "no", "name": "Polidor", "opening_hours": "Mo-Su 12:00-14:30,19:00-00:30", "phone": "+33 1 43 26 95 34", "website": "http://www.polidor.com", "wheelchair": "limited", "wikidata": "Q3394227"}}, {"type": "node", "id": 251691150, "lat": 48.8441789, "lon": 2.3299201, "tags": {"amenity": "restaurant", "name": "La Grivoiserie", "opening_hours": "Mo-Sa 11:30-20:30", "website": "https://lagrivoiserie.fr", "wheelchair": "no"}}, {"type": "node", "id": 251691155, "lat": 48.8468341, "lon": 2.3265156, "tags": {"amenity": "restaurant", "happy_hours": "Mo-Sa 17:00-24:00", "name": "Le Trait D'Union", "opening_hours": "Mo-Sa 07:00-02:00", "wheelchair": "limited"}}, {"type": "node", "id": 251758250, "lat": 48.8710439, "lon": 2.3094204, "tags": {"addr:street": "Rue du Colis\u00e9e", "amenity": "restaurant", "cuisine": "indian", "name": "Qasim"}}, {"type": "node", "id": 251758251, "lat": 48.8695157, "lon": 2.3030346, "tags": {"amenity": "restaurant", "cuisine": "chinese", "name": "Diep"}}, {"type": "node", "id": 251851354, "lat": 48.8714582, "lon": 2.3357136, "tags": {"addr:street": "Boulevard des Italiens", "amenity": "restaurant", "cuisine": "vietnamese", "email": "restaurant@hanoi-caphe.com", "name": "Hano\u00ef C\u00e0 Ph\u00ea", "opening_hours": "Mo-Su 12:00-02:00", "phone": "+33 1 48 78 03 61", "website": "http://www.hanoi-caphe.com/", "wheelchair": "yes"}}, {"type": "node", "id": 251851356, "lat": 48.8719475, "lon": 2.3430256, "tags": {"addr:city": "Paris", "addr:country": "FR", "addr:housenumber": "7", "addr:postcode": "75009", "addr:street": "Rue du Faubourg Montmartre", "amenity": "restaurant", "check_date:opening_hours": "2021-05-29", "cuisine": "french", "email": "restaurant@bouillon-chartier.com", "name": "Bouillon Chartier", "old_name": "Le Bouillon Chartier", "opening_hours": "Mo-Su 11:30-24:00", "phone": "+33 1 47 70 86 29", "toilets:wheelchair": "yes", "website": "https://www.bouillon-chartier.com/", "wheelchair": "yes", "wikidata": "Q1071456"}}, {"type": "node", "id": 251851364, "lat": 48.8718728, "lon": 2.3418493, "tags": {"amenity": "restaurant", "cuisine": "french", "name": "Le Caf\u00e9 Z\u00e9phyr", "outdoor_seating": "yes", "smoking": "outside", "wheelchair": "yes"}}, {"type": "node", "id": 251851388, "lat": 48.8705409, "lon": 2.3532213, "tags": {"amenity": "restaurant", "contact:city": "Paris", "contact:email": "contact@bouillon-julien.com", "contact:housenumber": "16", "contact:phone": "+33 1 47 70 12 06", "contact:postcode": "75010", "contact:street": "Rue du Faubourg Saint-Denis", "contact:website": "https://www.bouillon-julien.com/", "cuisine": "coffee_shop", "name": "Julien", "opening_hours": "Mo-Su 11:45-24:00", "wikidata": "Q3427906", "wikipedia": "fr:Restaurant Julien"}}, {"type": "node", "id": 251851390, "lat": 48.8755326, "lon": 2.3590614, "tags": {"amenity": "restaurant", "name": "Le Royal Est", "opening_hours": "Mo-Sa 06:00-02:00, Su 07:00-02:00", "source": "survey 2017"}}, {"type": "node", "id": 251851391, "lat": 48.8759276, "lon": 2.3587225, "tags": {"air_conditioning": "yes", "amenity": "restaurant", "cuisine": "french;brasserie", "indoor_seating": "yes", "name": "Bouillon Chartier", "opening_hours": "Mo-Su 11:30-00:00", "outdoor_seating": "no", "phone": "+33 1 42 05 20 02", "website": "https://www.bouillon-chartier.com/gare-de-lest/"}}, {"type": "node", "id": 252214032, "lat": 48.8636232, "lon": 2.3671745, "tags": {"amenity": "restaurant", "cuisine": "french", "delivery": "no", "heritage": "2", "heritage:operator": "mhs", "mhs:inscription_date": "1995-11-06", "name": "Clown-Bar", "opening_hours": "Mo-Fr 12:30-14:00, 19:00-23:00", "phone": "+33143558735", "ref:mhs": "PA00086531", "smoking": "outside", "source:heritage": "data.gouv.fr:Minist\u00e8re de la Culture - 04/2015", "takeaway": "no", "website": "https://www.clown-bar-paris.fr/", "wikidata": "Q13518748", "wikipedia": "fr:Clown-Bar"}}, {"type": "node", "id": 252263209, "lat": 48.8638211, "lon": 2.3670738, "tags": {"addr:city": "Paris", "addr:housenumber": "118", "addr:postcode": "75011", "addr:street": "Rue Amelot", "amenity": "restaurant", "check_date": "2023-04-08", "cuisine": "argentine", "diet:vegetarian": "yes", "level": "0", "name": "Biondi", "payment:credit_cards": "yes", "payment:mastercard": "yes", "payment:visa": "yes", "phone": "+33 1 47 00 90 18", "website": "https://www.biondi-restaurant.fr/", "wheelchair": "no"}}, {"type": "node", "id": 252550640, "lat": 48.8680028, "lon": 2.3732066, "tags": {"amenity": "restaurant", "check_date": "2023-04-22", "cuisine": "indian", "name": "Rang", "name:2019": "Aux Comptoirs des Indes"}}, {"type": "node", "id": 252551795, "lat": 48.8656744, "lon": 2.3707975, "tags": {"amenity": "restaurant", "name": "Le Troisi\u00e8me Bureau"}}, {"type": "node", "id": 252590177, "lat": 48.86841, "lon": 2.3793255, "tags": {"addr:city": "Paris", "addr:housenumber": "93", "addr:postcode": "75011", "addr:street": "Rue Jean-Pierre Timbaud", "amenity": "restaurant", "bar": "yes", "cuisine": "regional;french", "internet_access": "wlan", "internet_access:ssid": "Cannibale_Caf\u00e9", "level": "0", "name": "Cannibale Caf\u00e9", "opening_hours": "Mo-Su 07:30-02:00; Sa 09:00-02:00; Su 09:00-24:00", "outdoor_seating": "yes", "phone": "+33 1 49 29 95 59", "reservation": "yes", "smoking": "outside", "website": "https://www.cannibalecafe.com", "wheelchair": "limited"}}, {"type": "node", "id": 252591370, "lat": 48.8644844, "lon": 2.3730277, "tags": {"amenity": "restaurant", "check_date": "2022-07-28", "name": "Av\u00e9 Maria", "opening_hours": "Mo-Su 19:00-1:30", "phone": "+33 1 47 00 61 73", "source": "cadastre-dgi-fr source : Direction G\u00e9n\u00e9rale des Imp\u00f4ts - Cadastre. Mise \u00e0 jour : 2011"}}, {"type": "node", "id": 252599980, "lat": 48.8554359, "lon": 2.3744522, "tags": {"amenity": "restaurant", "contact:city": "Paris", "contact:housenumber": "66", "contact:phone": "+33 1 47 00 00 63", "contact:postcode": "75011", "contact:street": "Rue de la Roquette", "contact:website": "https://www.cafedesangesparis.com/", "cuisine": "coffee_shop;french", "name": "Le Caf\u00e9 des Anges", "opening_hours": "Mo-Su 07:30-02:00"}}, {"type": "node", "id": 252601888, "lat": 48.8561021, "lon": 2.3751898, "tags": {"amenity": "restaurant", "name": "Le Cyrano"}}, {"type": "node", "id": 252604389, "lat": 48.8656774, "lon": 2.3778866, "tags": {"access:covid19": "no", "addr:city": "Paris", "addr:housenumber": "96", "addr:postcode": "75011", "addr:street": "Rue Oberkampf", "amenity": "restaurant", "cuisine": "french;pizza", "name": "Justine", "opening_hours": "Mo-Su 08:00-02:00", "opening_hours:covid19": "Mo-Sa 11:30-14:30,18:00-22:30", "phone": "+33 1 43 57 44 03", "smoking": "outside", "takeaway:covid19": "yes", "website": "http://www.justineparis.com/"}}, {"type": "node", "id": 252683843, "lat": 48.8651691, "lon": 2.3673694, "tags": {"amenity": "restaurant", "check_date": "2023-04-08", "cuisine": "brasserie", "name": "Le Voltaire", "opening_hours:covid19": "off"}}, {"type": "node", "id": 252816603, "lat": 48.8263633, "lon": 2.3601703, "tags": {"amenity": "restaurant", "cuisine": "chinese", "name": "Sinorama", "name:zh": "\u5927\u5bb6\u6a02", "opening_hours": "12:00-15:00,18:30-24:00"}}, {"type": "node", "id": 252816604, "lat": 48.8263649, "lon": 2.3595297, "tags": {"addr:city": "Paris", "addr:postcode": "75013", "addr:street": "Avenue de Choisy", "amenity": "restaurant", "cuisine": "vietnamese", "delivery": "no", "name": "Ph\u1edf Banh Cuon 14", "name:zh": "\u6700\u6709\u4eba\u6c23\u8d8a\u5357\u6cb3\u7c89"}}, {"type": "node", "id": 252816605, "lat": 48.8346036, "lon": 2.3776168}, {"type": "node", "id": 252816971, "lat": 48.8278771, "lon": 2.3505246, "tags": {"addr:city": "Paris", "addr:housenumber": "20", "addr:postcode": "75013", "addr:street": "Rue de la Butte-aux-Cailles", "amenity": "restaurant", "cuisine": "french", "level": "0", "microbrewery": "no", "name": "Le Temps des Cerises", "opening_hours": "Mo-Sa 11:45-14:30,19:00-23:30; Su off", "outdoor_seating": "yes", "phone": "+33 1 45 89 69 48", "self_service": "no", "smoking": "outside", "toilets": "yes", "toilets:access": "customers", "toilets:disposal": "flush", "toilets:position": "seated", "toilets:wheelchair": "no", "website": "https://www.letempsdescerisescoop.com/", "wheelchair": "no"}}, {"type": "node", "id": 252851134, "lat": 48.8350004, "lon": 2.3270301, "tags": {"amenity": "restaurant", "happy_hours": "Mo-Sa 16:30-20:00; Mo-Tu 20:30-23:30; We-Sa 23:00-24:00", "name": "Atelier 58", "phone": "+33 1 43 20 21 59"}}, {"type": "node", "id": 252851135, "lat": 48.8332286, "lon": 2.315712, "tags": {"addr:city": "Paris", "addr:housenumber": "40", "addr:postcode": "75014", "addr:street": "Rue de Gergovie", "amenity": "restaurant", "cuisine": "regional", "name": "Papa yoyo", "opening_hours": "Tu-Sa 12:00-02:00,18:00-22:30", "phone": "+33 1 71 75 47 17", "smoking": "no"}}, {"type": "node", "id": 252862643, "lat": 48.8413291, "lon": 2.2990993, "tags": {"amenity": "restaurant", "name": "Le P\u00e9tel"}}, {"type": "node", "id": 252862944, "lat": 48.8407836, "lon": 2.2882769, "tags": {"addr:city": "Paris", "addr:housenumber": "114", "addr:postcode": "75015", "addr:street": "Rue de la Convention", "amenity": "restaurant", "contact:city": "Paris", "contact:housenumber": "114", "contact:postcode": "75015", "contact:street": "Rue de la Convention", "cuisine": "italian", "diet:vegetarian": "yes", "name": "Perlamatta", "phone": "+331 75 57 59 13", "website": "http://www.perlamatta.fr", "wheelchair": "yes"}}, {"type": "node", "id": 252874745, "lat": 48.8581109, "lon": 2.27222, "tags": {"addr:housenumber": "19", "addr:street": "Chauss\u00e9e de la Muette", "amenity": "restaurant", "check_date": "2022-10-16", "check_date:opening_hours": "2023-01-05", "contact:facebook": "https://www.facebook.com/andia.lagare", "contact:instagram": "https://www.instagram.com/andia_paris", "cuisine": "peruvian", "diet:vegetarian": "yes", "fax": "+33 1 42151523", "name": "Andia", "opening_hours:signed": "no", "payment:american_express": "yes", "payment:cash": "yes", "payment:contactless": "yes", "payment:credit_cards": "yes", "payment:mastercard": "yes", "payment:visa": "yes", "phone": "+33 1 42151531", "source": "cadastre-dgi-fr source : Direction G\u00e9n\u00e9rale des Imp\u00f4ts - Cadastre. Mise \u00e0 jour : 2010", "website": "https://andia-paris.com/"}}, {"type": "node", "id": 253007445, "lat": 48.8869322, "lon": 2.3399586, "tags": {"addr:city": "Paris", "addr:postcode": "75018", "addr:street": "Rue Norvins", "amenity": "restaurant", "check_date": "2022-09-30", "name": "La P\u00e9taudi\u00e8re"}}, {"type": "node", "id": 253041365, "lat": 48.8848974, "lon": 2.3405148, "tags": {"addr:city": "Paris", "addr:housenumber": "28", "addr:postcode": "75018", "addr:street": "Rue la Vieuville", "amenity": "restaurant", "check_date": "2023-04-30", "diet:vegan": "yes", "diet:vegetarian": "only", "name": "Le Grain de Folie", "opening_hours:covid19": "open", "organic": "yes", "phone": "+33 1 42 58 15 57"}}, {"type": "node", "id": 254055842, "lat": 48.859616, "lon": 2.3534984, "tags": {"amenity": "restaurant", "name": "GrandC\u0153ur"}}, {"type": "node", "id": 254278113, "lat": 48.8523229, "lon": 2.3350302, "tags": {"amenity": "restaurant", "level": "-1", "name": "Marcello", "opening_hours": "Mo-Fr 12:00-14:15,18:45-22:30; Sa-Su 12:00-22:30", "phone": "+33 1 43 26 52 26", "wheelchair": "no"}}, {"type": "node", "id": 254493346, "lat": 48.8755021, "lon": 2.3103942, "tags": {"amenity": "restaurant", "name": "Caf\u00e9 Jacquemart-Andr\u00e9", "opening_hours": "Mo-Fr 11:45-17:30; Sa-Su 11:00-17:30 \"lors des nocturnes, lundis et samedis jusqu'\u00e0 19h, derni\u00e8re admission 18h30\"", "source": "survey", "wheelchair": "yes"}}, {"type": "node", "id": 254494167, "lat": 48.8600296, "lon": 2.3006336, "tags": {"amenity": "restaurant", "cuisine": "french", "name": "Le Clos des Gourmets"}}, {"type": "node", "id": 254494168, "lat": 48.8516415, "lon": 2.3185465, "tags": {"amenity": "restaurant", "name": "Au Pied de Fouet", "opening_hours": "Mo-Sa 12:00-14:30,19:00-23:00"}}, {"type": "node", "id": 254495985, "lat": 48.8482525, "lon": 2.3194882, "tags": {"addr:city": "Paris", "addr:housenumber": "30b", "addr:postcode": "75007", "addr:street": "Rue Pierre Leroux", "amenity": "restaurant", "name": "Chez Germaine", "wheelchair": "yes"}}, {"type": "node", "id": 254497766, "lat": 48.8604171, "lon": 2.305956, "tags": {"addr:city": "Paris", "addr:housenumber": "27", "addr:postcode": "75007", "addr:street": "Rue Malar", "amenity": "restaurant", "cuisine": "french", "name": "Chez l'Ami Jean", "opening_hours": "Tu-Sa 12:00-14:00,19:00-24:00", "phone": "+33 1 47 05 86 89", "website": "http://www.lamijean.fr/"}}, {"type": "node", "id": 254499204, "lat": 48.8537038, "lon": 2.323563, "tags": {"amenity": "restaurant", "name": "Le Petit Tib\u00e9ro"}}, {"type": "node", "id": 255060753, "lat": 48.8650879, "lon": 2.2899274, "tags": {"addr:city": "Paris", "addr:housenumber": "32", "addr:postcode": "75016", "addr:street": "Rue de Longchamp", "amenity": "restaurant", "name": "L'Astrance", "phone": "+33 1 40 50 84 40", "website": "https://www.astranceparis.fr", "wikidata": "Q6455614"}}, {"type": "node", "id": 256931651, "lat": 48.8523799, "lon": 2.4036853, "tags": {"amenity": "restaurant", "cuisine": "japanese", "name": "Yotaro sushi"}}, {"type": "node", "id": 257402243, "lat": 48.8467562, "lon": 2.3597169}, {"type": "node", "id": 257402244, "lat": 48.8465246, "lon": 2.3600682}, {"type": "node", "id": 257540843, "lat": 48.8795968, "lon": 2.3519355, "tags": {"amenity": "restaurant", "cuisine": "italian", "name": "Doppio", "old_name": "L'ardoise gourmande"}}, {"type": "node", "id": 259962770, "lat": 48.8544589, "lon": 2.4006544, "tags": {"amenity": "restaurant", "name": "Le 20e Art"}}, {"type": "node", "id": 261578078, "lat": 48.8469182, "lon": 2.3599704}, {"type": "node", "id": 268057538, "lat": 48.8450378, "lon": 2.3240399, "tags": {"amenity": "restaurant", "name": "Le Petit Littr\u00e9", "opening_hours": "Tu-Sa 12:00-14:30,19:00-22:30", "phone": "+33 9 50 79 99 67", "website": "https://www.lepetitlittre.fr", "wheelchair": "no"}}, {"type": "node", "id": 269242525, "lat": 48.8395987, "lon": 2.2669254, "tags": {"addr:housenumber": "1", "addr:street": "Boulevard Exelmans", "amenity": "restaurant", "cuisine": "fish", "name": "Gildas Delamer", "phone": "+33 1 45 27 08 68"}}, {"type": "node", "id": 274244598, "lat": 48.8274124, "lon": 2.3148434, "tags": {"amenity": "restaurant", "cuisine": "indian", "name": "Suraj", "toilets:wheelchair": "yes", "wheelchair": "yes"}}, {"type": "node", "id": 274244871, "lat": 48.8673444, "lon": 2.3739608, "tags": {"amenity": "restaurant", "name": "L'Ancienne Menuiserie"}}, {"type": "node", "id": 274246816, "lat": 48.8950281, "lon": 2.3406331, "tags": {"amenity": "restaurant", "cuisine": "asian", "name": "Traiteur et nouilles maison"}}, {"type": "node", "id": 274249281, "lat": 48.8632191, "lon": 2.3875763, "tags": {"amenity": "restaurant", "name": "Aux Tables du P\u00e8re Lachaise", "opening_hours:covid19": "off"}}, {"type": "node", "id": 274250572, "lat": 48.8570725, "lon": 2.3560078, "tags": {"amenity": "restaurant", "cuisine": "mexican", "name": "Bocamexa"}}, {"type": "node", "id": 275590939, "lat": 48.8334851, "lon": 2.3198808, "tags": {"addr:city": "Paris", "addr:housenumber": "8", "addr:postcode": "75014", "addr:street": "Rue Sainte-L\u00e9onie", "amenity": "restaurant", "email": "contact@moulin-cafe.org", "indoor_seating": "yes", "name": "Le Moulin \u00e0 Caf\u00e9", "opening_hours": "Tu-Sa 10:00-22:00", "outdoor_seating": "yes", "phone": "+33140448755", "website": "http://moulin-cafe.org", "wheelchair": "yes"}}, {"type": "node", "id": 276661273, "lat": 48.8527753, "lon": 2.4059315, "tags": {"amenity": "restaurant", "check_date:opening_hours": "2022-06-26", "name": "Le Muguet", "opening_hours:signed": "no", "wheelchair": "yes"}}, {"type": "node", "id": 276662032, "lat": 48.8551966, "lon": 2.4016334, "tags": {"amenity": "restaurant", "level": "0", "name": "La Vierge de la R\u00e9union", "opening_hours": "Tu-Th 12:00-14:00, Tu-Sa 19:30-22:00+", "outdoor_seating": "no", "smoking": "no", "toilets": "yes", "toilets:access": "customers", "toilets:disposal": "flush", "toilets:position": "seated", "toilets:wheelchair": "yes", "wheelchair": "designated"}}, {"type": "node", "id": 276662465, "lat": 48.8540343, "lon": 2.4058858, "tags": {"addr:city": "Paris", "addr:housenumber": "76", "addr:postcode": "75020", "addr:street": "Rue des Pyr\u00e9n\u00e9es", "amenity": "restaurant", "cuisine": "indian", "name": "Sohna Punjab", "phone": "+33 1 53 27 81 59", "source": "survey", "website": "https://www.sohna-punjab.fr/"}}, {"type": "node", "id": 276918983, "lat": 48.8373556, "lon": 2.2574212, "tags": {"amenity": "restaurant", "name": "Le Cardinal", "opening_hours": "Mo-Su 07:00-01:00", "source": "survey"}}, {"type": "node", "id": 276919024, "lat": 48.8378434, "lon": 2.2578634, "tags": {"amenity": "restaurant", "name": "Les Fontaines", "toilets:wheelchair": "yes", "wheelchair": "yes"}}, {"type": "node", "id": 282763288, "lat": 48.8488333, "lon": 2.3253506, "tags": {"amenity": "restaurant", "name": "Le Nemrod", "toilets:wheelchair": "no", "wheelchair": "limited"}}, {"type": "node", "id": 283347802, "lat": 48.8647212, "lon": 2.3469127, "tags": {"amenity": "restaurant", "indoor_seating": "yes", "level": "0", "name": "La Grille Montorgueil", "outdoor_seating": "yes", "source": "survey 01/2019", "toilets:wheelchair": "no", "wheelchair": "limited"}}, {"type": "node", "id": 283348172, "lat": 48.869405, "lon": 2.3549341, "tags": {"addr:city": "Paris", "addr:country": "FR", "addr:housenumber": "8", "addr:postcode": "75010", "addr:street": "Boulevard Saint-Denis", "amenity": "restaurant", "cuisine": "french", "name": "Chez Louis", "opening_hours": "Mo-Su 08:30-02:00", "phone": "+33 1 40 37 83 52", "website": "https://chezlouis-frenchrestaurant.business.site"}}, {"type": "node", "id": 283348230, "lat": 48.8693462, "lon": 2.3552659, "tags": {"amenity": "restaurant", "cuisine": "french", "cuisine:fr": "auvergnat", "name": "Le Plomb du Cantal", "opening_hours": "Mo-Su 07:00-00:00", "phone": "+33 1 42 08 01 11", "website": "http://www.leplombducantal.com/"}}, {"type": "node", "id": 286646627, "lat": 48.8461619, "lon": 2.378132, "tags": {"amenity": "restaurant", "brewery": "1664;Grimbergen;Grimbergen blanche;Kronenbourg;Guinness;Heineken;shop", "contact:housenumber": "75", "contact:street": "Avenue Daumesnil", "happy_hours": "Mo-Sa 18:00-20:00", "internet_access": "yes", "internet_access:fee": "no", "name": "L\u2019Arrosoir", "phone": "+33 1 43436458", "toilets:wheelchair": "no", "website": "http://www.restaurant-larrosoir.com", "wheelchair": "limited", "wheelchair:description": "Toilettes Handicap\u00e9s \u00e0 partir de f\u00e9vrier 2018"}}, {"type": "node", "id": 286696657, "lat": 48.8657876, "lon": 2.3453001, "tags": {"air_conditioning": "yes", "amenity": "restaurant", "capacity": "25", "contact:city": "Paris", "contact:housenumber": "14", "contact:phone": "+33 1 42 36 52 15", "contact:postcode": "75002", "contact:street": "Rue Mandar", "contact:website": "https://www.mamanissa.fr/", "cuisine": "algerian;mediterranean", "delivery": "yes", "description": "Situ\u00e9 \u00e0 Paris 2, Mama Nissa est un restaurant alg\u00e9rien de Ch\u00e2telet. Le restaurant propose un grand choix de plats v\u00e9g\u00e9tariens \u00e0 deux pas du quartier Les Halles. Sur place, en livraison ou \u00e0 emporter, les plats de Mama Nissa sont aussi healthy que gourmand", "diet:gluten_free": "yes", "diet:halal": "yes", "diet:vegan": "yes", "diet:vegetarian": "yes", "internet_access": "wlan", "name": "Mama Nissa", "opening_hours": "Mo-Sa 12:00-22:30; Mo-We 16:00-18:00 closed", "start_date": "2020-09-01", "toilets:wheelchair": "no", "wheelchair": "limited"}}, {"type": "node", "id": 287612106, "lat": 48.8773406, "lon": 2.3373832, "tags": {"amenity": "restaurant", "name": "Vadrouille"}}, {"type": "node", "id": 289424837, "lat": 48.8591165, "lon": 2.3302244, "tags": {"amenity": "restaurant", "cuisine": "french", "name": "Le Voltaire"}}, {"type": "node", "id": 289437629, "lat": 48.8697776, "lon": 2.3105917, "tags": {"amenity": "restaurant", "contact:city": "Paris", "contact:housenumber": "1 bis", "contact:phone": "+33 1 45 62 15 68", "contact:postcode": "75008", "contact:street": "Rue Jean Mermoz", "cuisine": "japanese", "name": "Kokohana", "wheelchair": "no"}}, {"type": "node", "id": 289438236, "lat": 48.8722601, "lon": 2.3035046, "tags": {"amenity": "restaurant", "name": "La Table du Lancaster"}}, {"type": "node", "id": 289439792, "lat": 48.8686679, "lon": 2.3066263, "tags": {"amenity": "restaurant", "name": "Spoon"}}, {"type": "node", "id": 293982722, "lat": 48.8671682, "lon": 2.3656836, "tags": {"amenity": "restaurant", "disused": "yes", "name": "Le Dix restaurant", "opening_hours:covid19": "off"}}, {"type": "node", "id": 293982723, "lat": 48.866768, "lon": 2.3657363, "tags": {"amenity": "restaurant", "brand": "L\u00e9on de Bruxelles", "brand:website": "http://www.leon-de-bruxelles.fr/", "brand:wikidata": "Q21041507", "brand:wikipedia": "en:L\u00e9on de Bruxelles", "cuisine": "friture", "name": "L\u00e9on de Bruxelles", "wheelchair": "no"}}, {"type": "node", "id": 293982745, "lat": 48.8666561, "lon": 2.3663425, "tags": {"amenity": "restaurant", "cuisine": "corean", "name": "Bong"}}, {"type": "node", "id": 293986519, "lat": 48.8656439, "lon": 2.3744745, "tags": {"amenity": "restaurant", "check_date": "2023-03-12", "name": "Plein Soleil"}}, {"type": "node", "id": 293986547, "lat": 48.8630511, "lon": 2.3852954, "tags": {"amenity": "restaurant", "cuisine": "japanese", "name": "Saveur R\u00e9publique"}}, {"type": "node", "id": 294164285, "lat": 48.8780494, "lon": 2.3721369, "tags": {"amenity": "restaurant", "name": "Le Mathurin", "opening_hours": "Mo-Sa 07:00-02:00, Su 09:00-02:00", "wheelchair": "no"}}, {"type": "node", "id": 299728241, "lat": 48.8721672, "lon": 2.326644, "tags": {"amenity": "restaurant", "cuisine": "french", "name": "Le Roi du Pot-au-Feu", "phone": "+33147423710", "ref:FR:SIRET": "484 893 593 00023", "toilets:wheelchair": "no", "wheelchair": "limited"}}, {"type": "node", "id": 299728776, "lat": 48.8360044, "lon": 2.3574926, "tags": {"amenity": "restaurant", "name": "Au Banquier", "phone": "+33 1 43 36 73 46", "toilets:wheelchair": "no", "website": "http://aubanquier.com/", "wheelchair": "limited"}}, {"type": "node", "id": 299729051, "lat": 48.8237611, "lon": 2.3626525, "tags": {"amenity": "restaurant", "name": "Sala Tha\u00ef", "toilets:wheelchair": "no", "wheelchair": "no"}}, {"type": "node", "id": 304964735, "lat": 48.847733, "lon": 2.3484405, "tags": {"amenity": "restaurant", "cuisine": "japanese", "name": "Sweet KT", "opening_hours": "18:00-22:45, Mo-Sa 11:00-15:30"}}, {"type": "node", "id": 304964873, "lat": 48.8415272, "lon": 2.3511512, "tags": {"amenity": "restaurant", "name": "Invitez Vous chez Nous"}}, {"type": "node", "id": 304964997, "lat": 48.8718873, "lon": 2.3570864, "tags": {"amenity": "restaurant", "check_date": "2022-09-01", "indoor_seating": "yes", "name": "La P'tite Louise", "outdoor_seating": "yes", "toilets:wheelchair": "no", "wheelchair": "limited"}}, {"type": "node", "id": 304965514, "lat": 48.8288139, "lon": 2.3506397, "tags": {"addr:housenumber": "30", "addr:postcode": "75013", "addr:street": "Rue des Cinq Diamants", "amenity": "restaurant", "contact:instagram": "explore/locations/372404/chez-gladines", "cuisine": "french", "indoor_seating": "yes", "name": "Chez Gladines", "opening_hours": "Mo-Fr 12:00-15:00, 19:00-23:45; Sa, Su 12:00-16:00, 19:00-23:45", "outdoor_seating": "no", "phone": "+33 9 67 31 96 46", "website": "https://chezgladines-butteauxcailles.fr/"}}, {"type": "node", "id": 305903404, "lat": 48.8844355, "lon": 2.3243334, "tags": {"amenity": "restaurant", "name": "Jupi"}}, {"type": "node", "id": 305903407, "lat": 48.8881228, "lon": 2.3212456, "tags": {"amenity": "restaurant", "cuisine": "mediterranean", "name": "Giulia"}}, {"type": "node", "id": 305905951, "lat": 48.8886141, "lon": 2.3198123, "tags": {"amenity": "restaurant", "created_by": "JOSM", "name": "L'Abadache"}}, {"type": "node", "id": 305949888, "lat": 48.8879876, "lon": 2.3341073, "tags": {"addr:postcode": "75018", "amenity": "restaurant", "created_by": "JOSM", "name": "Just BE"}}, {"type": "node", "id": 305951215, "lat": 48.894047, "lon": 2.3341991, "tags": {"addr:postcode": "75018", "addr:street": "Rue Ordener", "amenity": "restaurant", "name": "Nawab"}}, {"type": "node", "id": 306156749, "lat": 48.8492934, "lon": 2.3349249, "tags": {"amenity": "restaurant", "name": "La Cuisine de Philippe", "opening_hours": "Tu-Sa 12:00-14:00,19:00-21:30", "phone": "+33 1 43 29 76 37", "toilets:wheelchair": "no", "wheelchair": "no"}}, {"type": "node", "id": 306911840, "lat": 48.841429, "lon": 2.2990451, "tags": {"amenity": "restaurant", "check_date:opening_hours": "2022-09-15", "cuisine": "japanese", "name": "Matsuyama", "opening_hours": "We-Su 11:30-15:00, Mo-Su 18:30-23:00", "phone": "+33 1 45 32 96 88", "website": "http://www.matsuyama.fr/"}}, {"type": "node", "id": 308002935, "lat": 48.8516995, "lon": 2.3336609, "tags": {"amenity": "restaurant", "cuisine": "italian", "name": "Forno Gusto", "opening_hours": "Mo-Fr 12:00-15:00,18:30-23:00; Sa-Su 12:00-23:00", "takeaway": "yes", "website": "https://www.fornogusto.com/", "wheelchair": "limited"}}, {"type": "node", "id": 308007587, "lat": 48.8844671, "lon": 2.3410906, "tags": {"amenity": "restaurant", "contact:city": "Paris", "contact:email": "lerefugedesfondus@gmail.com", "contact:housenumber": "17", "contact:phone": "+33142552265", "contact:postcode": "75018", "contact:street": "Rue des Trois Fr\u00e8res", "contact:website": "https://www.lerefugedesfondus.com/", "name": "Le Refuge des Fondus", "opening_hours": "Mo-Su 19:00-02:00"}}, {"type": "node", "id": 308015251, "lat": 48.8717809, "lon": 2.3937884, "tags": {"amenity": "restaurant", "name": "Juicy Pop"}}, {"type": "node", "id": 308204333, "lat": 48.8566933, "lon": 2.4002542, "tags": {"amenity": "restaurant", "name": "Le Lion Indomptable", "wheelchair": "limited"}}, {"type": "node", "id": 310363590, "lat": 48.8456039, "lon": 2.3547969, "tags": {"amenity": "restaurant", "brewery": "chouffe;Guinness;Heineken", "contact:city": "Paris", "contact:housenumber": "24", "contact:phone": "+33 1 45 31 52 23", "contact:postcode": "75005", "contact:street": "Rue Linn\u00e9", "indoor_seating": "yes", "name": "Caf\u00e9 Jussieu", "outdoor_seating": "yes"}}, {"type": "node", "id": 315780109, "lat": 48.8300397, "lon": 2.331099, "tags": {"amenity": "restaurant", "cuisine": "french", "name": "Les Sourires de Dante", "opening_hours": "Tu-Sa 12:00-14:15,19:45-22:15", "outdoor_seating": "yes", "survey:date": "2020-03-13", "wheelchair": "limited", "wheelchair:description": "One little step"}}, {"type": "node", "id": 319152464, "lat": 48.8374507, "lon": 2.3523064, "tags": {"amenity": "restaurant", "name": "Ethik \u00e0 Table"}}, {"type": "node", "id": 321921088, "lat": 48.833417, "lon": 2.355449, "tags": {"amenity": "restaurant", "cuisine": "vietnamese", "name": "Van An", "opening_hours": "Mo-Fr 12:00-14:00,19:00-21:00"}}, {"type": "node", "id": 322093112, "lat": 48.8457103, "lon": 2.3192202, "tags": {"access:covid19": "no", "amenity": "restaurant", "cuisine": "french", "description:covid19": "Vente \u00e0 emporter de hot dogs et de cr\u00eapes uniquement", "internet_access": "wlan", "name": "Au Chien qui Fume", "opening_hours": "Mo-Fr 07:00-24:00; Sa 08:00-24:00; Su 09:00-21:00", "opening_hours:covid19": "Su 09:00-21:00; Mo-Fr 07:00-24:00; Sa 08:00-24:00", "outdoor_seating": "yes", "phone": "+33 8 91 65 90 93", "smoking": "outside", "takeaway": "yes", "takeaway:covid19": "yes", "website": "https://www.auchienquifumemontparnasse.fr/"}}, {"type": "node", "id": 322683091, "lat": 48.8523597, "lon": 2.3444399, "tags": {"amenity": "restaurant", "cuisine": "thai", "indoor_seating": "yes", "name": "Thaiger", "outdoor_seating": "yes", "payment:credit_cards": "yes", "payment:debit_cards": "yes", "smoking": "outside", "wheelchair": "yes"}}, {"type": "node", "id": 322684264, "lat": 48.856812, "lon": 2.3062305, "tags": {"amenity": "restaurant", "name": "Tribeca", "toilets:wheelchair": "yes", "wheelchair": "yes"}}, {"type": "node", "id": 322807427, "lat": 48.848497, "lon": 2.399551, "tags": {"addr:city": "Paris", "addr:housenumber": "1", "addr:postcode": "75020", "addr:street": "Cours de Vincennes", "amenity": "restaurant", "brewery": "Leffe;1664;Hoegaarden", "name": "Le Terminus Nation", "opening_hours": "Mo-Sa 07:00-21:00", "opening_hours:covid19": "off", "smoking": "outside", "wheelchair": "yes"}}, {"type": "node", "id": 322807635, "lat": 48.8478383, "lon": 2.3975522, "tags": {"addr:city": "Paris", "addr:housenumber": "30", "addr:postcode": "75012", "addr:street": "Place de la Nation", "amenity": "restaurant", "brewery": "Kronenbourg;Carlsberg;1664;Grimbergen;Grimbergen_blanche;Leffe;Desperados;Wel_Scotch", "check_date:opening_hours": "2021-07-03", "name": "Le Dalou", "opening_hours": "Mo-Sa 00:00-03:00,05:00-24:00; Su 00:00-24:00", "opening_hours:covid19": "off", "phone": "+33 1 43 43 41 38", "smoking": "outside", "wheelchair": "yes"}}, {"type": "node", "id": 323062127, "lat": 48.8540277, "lon": 2.3358692, "tags": {"amenity": "restaurant", "name": "Guenma\u00ef", "strapline": "La Sant\u00e9 par l'Alimentation"}}, {"type": "node", "id": 324192389, "lat": 48.8828817, "lon": 2.3596543, "tags": {"addr:city": "Paris", "addr:housenumber": "24", "addr:postcode": "75010", "addr:street": "Rue Cail", "amenity": "restaurant", "cuisine": "indian", "delivery": "yes", "diet:vegetarian": "only", "name": "Krishna Bhavan", "phone": "+33 1 42 05 78 43", "website": "http://krishna-bhavan.com/"}}, {"type": "node", "id": 324311338, "lat": 48.8641427, "lon": 2.3676774, "tags": {"amenity": "restaurant", "name": "Cellar"}}, {"type": "node", "id": 329423314, "lat": 48.8742283, "lon": 2.3755427, "tags": {"amenity": "restaurant", "diet:halal": "no", "diet:kosher": "no", "diet:vegetarian": "no", "indoor_seating": "yes", "name": "Aux Bons Amis", "opening_hours:covid19": "off", "opening_hours:signed": "no", "outdoor_seating": "yes", "wheelchair": "no"}}, {"type": "node", "id": 330413545, "lat": 48.8404976, "lon": 2.3244044, "tags": {"amenity": "restaurant", "brewery": "Stella Artois;Guinness;Kilkenny;Hoegaarden blanche;Cidre strongbow;Ciney blonde;Polar monkeys;La barge I.P.A.;Budweiser budvar", "level": "0", "name": "Le Tournesol", "outdoor_seating": "yes", "smoking": "outside", "toilets": "yes"}}, {"type": "node", "id": 332431639, "lat": 48.8882137, "lon": 2.3785003, "tags": {"amenity": "restaurant", "brand": "La Cri\u00e9e", "brand:website": "http://www.lacriee.com/", "cuisine": "seafood", "name": "La Cri\u00e9e", "opening_hours": "Mo-Fr 11:45-14:30, PH,Sa,Su 11:45-15:00, Su-Th 18:45-22:30, Fr-Su 18:45-23:00", "source": "survey 2013", "wheelchair": "yes"}}, {"type": "node", "id": 335692368, "lat": 48.8491569, "lon": 2.2872385, "tags": {"amenity": "restaurant", "cuisine": "french", "name": "Le Th\u00e9\u00e2tre", "opening_hours": "Mo 09:00-16:00; Tu-Sa 09:00-22:00", "source": "cadastre-dgi-fr source : Direction G\u00e9n\u00e9rale des Imp\u00f4ts - Cadastre ; mise \u00e0 jour : 2007"}}, {"type": "node", "id": 340237612, "lat": 48.8483809, "lon": 2.2871566}, {"type": "node", "id": 340237613, "lat": 48.8483196, "lon": 2.287313}, {"type": "node", "id": 340237616, "lat": 48.8483017, "lon": 2.2873588}, {"type": "node", "id": 340237621, "lat": 48.8482308, "lon": 2.287298}, {"type": "node", "id": 340237626, "lat": 48.8483137, "lon": 2.2870798}, {"type": "node", "id": 340237630, "lat": 48.8483863, "lon": 2.2871429}, {"type": "node", "id": 340237635, "lat": 48.8482442, "lon": 2.2872629}, {"type": "node", "id": 365136324, "lat": 48.8514932, "lon": 2.398692, "tags": {"amenity": "restaurant", "cuisine": "french", "diet:vegetarian": "yes", "name": "L'Usine de Charonne", "opening_hours": "Mo-Su 07:30-01:00", "wheelchair": "no"}}, {"type": "node", "id": 373741165, "lat": 48.8300837, "lon": 2.3230365, "tags": {"amenity": "restaurant", "happy_hours": "Tu-Sa 16:00-20:00", "name": "Le Bistrot des Plantes", "source": "cadastre-dgi-fr source : Direction G\u00e9n\u00e9rale des Imp\u00f4ts - Cadastre ; mise \u00e0 jour : 2008"}}, {"type": "node", "id": 374235775, "lat": 48.8630061, "lon": 2.3625592, "tags": {"addr:city": "Paris", "addr:housenumber": "38", "addr:postcode": "75003", "addr:street": "Rue de Bretagne", "amenity": "restaurant", "cuisine": "french", "name": "Caf\u00e9 Charlot", "opening_hours": "Mo-Sa 09:00-01:00; Su 09:00-24:00", "phone": "+33 1 44 54 03 30", "source": "cadastre-dgi-fr source : Direction G\u00e9n\u00e9rale des Imp\u00f4ts - Cadastre;mise \u00e0 jour : 2008", "toilets:wheelchair": "no", "website": "http://www.cafecharlotparis.com/", "wheelchair": "limited"}}, {"type": "node", "id": 374247476, "lat": 48.862879, "lon": 2.361721, "tags": {"addr:city": "Paris", "addr:housenumber": "39", "addr:postcode": "75003", "addr:street": "Rue de Bretagne", "amenity": "restaurant", "internet_access": "wlan", "name": "L\u2019Estaminet des Enfants Rouges", "opening_hours": "Tu-Sa 09:00-20:00; Su 09:00-16:00", "phone": "+33 1 42 72 28 12", "source": "cadastre-dgi-fr source : Direction G\u00e9n\u00e9rale des Imp\u00f4ts - Cadastre;mise \u00e0 jour : 2008", "website": "http://lestaminetdesenfantsrouges.com"}}, {"type": "node", "id": 385145628, "lat": 48.8528282, "lon": 2.4062488, "tags": {"amenity": "restaurant", "cuisine": "french", "name": "Le Boucl'Art", "wheelchair": "limited"}}, {"type": "node", "id": 390266577, "lat": 48.8474511, "lon": 2.348343, "tags": {"addr:city": "Paris", "addr:housenumber": "2", "addr:postcode": "75005", "addr:street": "Rue de l'\u00c9cole Polytechnique", "amenity": "restaurant", "cuisine": "french", "happy_hours": "Mo-Sa 16:00-20:00", "indoor_seating": "yes", "name": "Les Pipos", "opening_hours": "Mo-Sa 09:00-01:00", "outdoor_seating": "yes", "wheelchair": "no"}}, {"type": "node", "id": 394660622, "lat": 48.8672258, "lon": 2.3079158, "tags": {"amenity": "restaurant", "cuisine": "japanese", "name": "Hanawa", "toilets:wheelchair": "yes", "wheelchair": "yes"}}, {"type": "node", "id": 408952534, "lat": 48.8838613, "lon": 2.3277184, "tags": {"addr:city": "Paris", "addr:housenumber": "14", "addr:postcode": "75018", "addr:street": "Place de Clichy", "amenity": "restaurant", "cuisine": "french", "name": "Brasserie Wepler", "opening_hours": "Mo-Su 08:30-00:30", "opening_hours:covid19": "off", "phone": "+33 1 45 22 53 24", "smoking": "outside", "source": "local_knowledge", "takeaway": "yes", "toilets:wheelchair": "no", "website": "http://www.wepler.com/fr/brasserie-place-clichy-paris-18-site-officiel.php", "wheelchair": "limited"}}, {"type": "node", "id": 408956768, "lat": 48.8861622, "lon": 2.3341007, "tags": {"addr:postcode": "75018", "amenity": "restaurant", "cuisine": "french;italian", "name": "Le Basilic"}}, {"type": "node", "id": 415760035, "lat": 48.8620045, "lon": 2.3484135, "tags": {"addr:city": "Paris", "addr:housenumber": "14", "addr:postcode": "75001", "addr:street": "Rue Pierre Lescot", "amenity": "restaurant", "contact:facebook": "Le-Bon-P%C3%AAcheur-1760331787564121", "cuisine": "breakfast;coffee_shop;hotdog;pizza", "indoor_seating": "yes", "name": "Le Bon P\u00eacheur", "opening_hours": "Mo-Su 08:00-00:00", "outdoor_seating": "yes", "phone": "+33 1 42 36 42 05", "toilets:wheelchair": "yes", "wheelchair": "limited"}}, {"type": "node", "id": 415760221, "lat": 48.8621883, "lon": 2.3485126, "tags": {"addr:city": "Paris", "addr:postcode": "75001", "amenity": "restaurant", "bar": "yes", "brewery": "Carlsberg;1664;Grimbergen;Grimbergen blanche", "contact:facebook": "https://www.facebook.com/Au-Pere-Tranquille-306391379468534", "contact:housenumber": "16", "contact:phone": "+33145080034", "contact:street": "Rue Pierre Lescot", "diet:vegetarian": "limited", "indoor_seating": "yes", "name": "Au P\u00e8re Tranquille", "outdoor_seating": "yes", "smoking": "no", "takeaway": "yes", "wheelchair": "limited"}}, {"type": "node", "id": 416697829, "lat": 48.8718909, "lon": 2.3674589, "tags": {"addr:city": "Paris", "addr:country": "FR", "addr:housenumber": "2", "addr:postcode": "75010", "addr:street": "Rue Marie et Louise", "amenity": "restaurant", "cuisine": "french", "name": "Le Bistrot des Oies", "name:es": "Le Bistrot des Oies", "opening_hours": "Mo-Fr 12:00-14:30,19:00-23:00; Tu 12:00-14:30", "phone": "+33 142 083 486", "website": "lebistrodesoies.fr"}}, {"type": "node", "id": 418052349, "lat": 48.8664224, "lon": 2.3652804, "tags": {"amenity": "restaurant", "cuisine": "pizza", "name": "Pizza Pino", "opening_hours:covid19": "off", "wheelchair": "limited"}}, {"type": "node", "id": 418052784, "lat": 48.866346, "lon": 2.3644859, "tags": {"amenity": "restaurant", "name": "Indiana"}}, {"type": "node", "id": 418053065, "lat": 48.8674473, "lon": 2.3626414, "tags": {"amenity": "restaurant", "brand": "Buffalo Grill", "brand:wikidata": "Q944655", "brand:wikipedia": "en:Buffalo Grill", "cuisine": "steak_house", "name": "Buffalo Grill", "opening_hours": "Su-Th 11:30-23:30; Fr-Sa 11:30-12:30", "wheelchair": "no"}}, {"type": "node", "id": 418053066, "lat": 48.8675361, "lon": 2.3625257, "tags": {"amenity": "restaurant", "brand": "Hippopotamus", "brand:website": "http://www.hippopotamus.fr/", "brand:wikidata": "Q3136174", "brand:wikipedia": "fr:Hippopotamus (restaurant)", "cuisine": "steak_house", "name": "Hippopotamus", "toilets:wheelchair": "yes", "wheelchair": "yes"}}, {"type": "node", "id": 418061339, "lat": 48.8652936, "lon": 2.3734738, "tags": {"addr:city": "Paris", "addr:housenumber": "42", "addr:postcode": "75011", "addr:street": "Avenue de la R\u00e9publique", "amenity": "restaurant", "check_date": "2023-03-12", "cuisine": "pizza", "name": "Arlecchino", "outdoor_seating": "no"}}, {"type": "node", "id": 418065635, "lat": 48.864331, "lon": 2.3862796, "tags": {"amenity": "restaurant", "check_date:opening_hours": "2023-03-02", "indoor_seating": "yes", "name": "La M\u00e8re Lachaise", "opening_hours:signed": "no", "outdoor_seating": "yes", "source": "survey 2018"}}, {"type": "node", "id": 418073932, "lat": 48.8662414, "lon": 2.3841221, "tags": {"amenity": "restaurant", "name": "Le Miyanis"}}, {"type": "node", "id": 418074935, "lat": 48.8667135, "lon": 2.3812373, "tags": {"addr:city": "Paris", "addr:housenumber": "145", "addr:postcode": "75011", "addr:street": "Rue Oberkampf", "amenity": "restaurant", "name": "Les Marquises"}}, {"type": "node", "id": 418077550, "lat": 48.866153, "lon": 2.3798466, "tags": {"addr:city": "Paris", "addr:housenumber": "122", "addr:postcode": "75011", "addr:street": "Rue Oberkampf", "amenity": "restaurant", "cuisine": "japanese", "name": "Kouchi Yaki", "opening_hours": "Mo-Sa 11:30-15:00,18:00-23:30; Su 18:00-23:30", "phone": "+33 1 43 55 46 61"}}, {"type": "node", "id": 418079771, "lat": 48.865106, "lon": 2.3775521, "tags": {"addr:city": "Paris", "addr:housenumber": "101", "addr:postcode": "75011", "addr:street": "Rue Saint-Maur", "amenity": "restaurant", "name": "Le Jumeyrah", "phone": "+33 1 43 14 08 69"}}, {"type": "node", "id": 418079773, "lat": 48.8657923, "lon": 2.3770745, "tags": {"amenity": "restaurant", "cuisine": "japanese", "name": "Le Fujiwara"}}, {"type": "node", "id": 418080843, "lat": 48.8662313, "lon": 2.3766863, "tags": {"amenity": "restaurant", "cuisine": "japanese", "name": "Kiobashi"}}, {"type": "node", "id": 418080846, "lat": 48.866856, "lon": 2.3764374, "tags": {"amenity": "restaurant", "cuisine": "indian", "name": "Anika", "opening_hours": "Tu-Sa 12:00-15:00,19:00-23:30", "phone": "+33 1 48 06 13 04"}}, {"type": "node", "id": 418139026, "lat": 48.8680409, "lon": 2.3753921, "tags": {"amenity": "restaurant", "check_date": "2023-04-15", "name": "Schmoutz", "opening_hours:covid19": "off", "outdoor_seating": "no"}}, {"type": "node", "id": 418464718, "lat": 48.8598868, "lon": 2.3476311, "tags": {"addr:city": "Paris", "addr:housenumber": "62", "addr:postcode": "75001", "addr:street": "Rue des Lombards", "amenity": "restaurant", "branch": "Paris - Lombards", "brand": "Flam's", "brand:wikidata": "Q3073245", "brand:wikipedia": "fr:Flam's", "capacity": "95", "cuisine": "alsatian;flammkuchen", "indoor_seating": "yes", "name": "Flam's", "opening_hours": "Su-Th 11:45-23:30; Fr-Sa 11:45-24:00", "outdoor_seating": "yes", "phone": "+33 1 42 21 10 30", "source": "cadastre-dgi-fr source : Direction G\u00e9n\u00e9rale des Imp\u00f4ts - Cadastre. Mise \u00e0 jour : 2010", "takeaway": "yes", "website": "http://www.flams.fr/restaurant_lombards.html", "wheelchair": "no"}}, {"type": "node", "id": 418497769, "lat": 48.8518241, "lon": 2.3377078, "tags": {"amenity": "restaurant", "cuisine": "canadian", "name": "The Moose", "opening_hours": "Mo-Su 11:00-02:00", "outdoor_seating": "no", "phone": "+33 1 46 33 77 00", "website": "http://www.mooseparis.com/"}}, {"type": "node", "id": 428028494, "lat": 48.8491407, "lon": 2.3785568, "tags": {"amenity": "restaurant", "cuisine": "french", "name": "La table d'Aligre", "toilets:wheelchair": "no", "wheelchair": "limited"}}, {"type": "node", "id": 428037578, "lat": 48.846715, "lon": 2.3839386, "tags": {"addr:city": "Paris", "addr:housenumber": "22", "addr:postcode": "75012", "addr:street": "Rue Chaligny", "amenity": "restaurant", "cuisine": "New-french", "name": "Les Bombis", "opening_hours": "Mo-Sa 12:00-15:00, 19:00-22:30", "outdoor_seating": "yes", "phone": "+33 1 43 45 36 32", "website": "https://lesbombis.fr/fr"}}, {"type": "node", "id": 428039662, "lat": 48.8479594, "lon": 2.3771753, "tags": {"amenity": "restaurant", "cuisine": "libre", "name": "La commune libre d'Aligre"}}, {"type": "node", "id": 428040083, "lat": 48.8468326, "lon": 2.3790947, "tags": {"addr:city": "Paris", "addr:housenumber": "3", "addr:postcode": "75012", "addr:street": "Rue Beccaria", "amenity": "restaurant", "cuisine": "french", "name": "Nous 4", "phone": "+33 1 75 57 77 48", "website": "https://www.nous4restaurant.com/"}}, {"type": "node", "id": 428044937, "lat": 48.8483966, "lon": 2.3726008, "tags": {"addr:city": "Paris", "addr:housenumber": "14", "addr:postcode": "75012", "addr:street": "Avenue Daumesnil", "amenity": "restaurant", "happy_hours": "Mo-Sa 17:00-21:00", "internet_access": "yes", "name": "Les Affranchis", "opening_hours": "Mo-Sa 06:00-23:00", "opening_hours:covid19": "off", "payment:mastercard": "yes", "payment:visa": "yes", "wheelchair": "yes"}}, {"type": "node", "id": 428045071, "lat": 48.8490362, "lon": 2.3712506, "tags": {"addr:city": "Paris", "addr:country": "FR", "addr:housenumber": "32", "addr:postcode": "75012", "addr:street": "Rue de Lyon", "amenity": "restaurant", "name": "Le Botaniste", "phone": "+33 1 43 43 17 48", "website": "https://www.lebotanistebastille.fr/"}}, {"type": "node", "id": 428045227, "lat": 48.8477004, "lon": 2.3736634, "tags": {"amenity": "restaurant", "cuisine": "french", "happy_hours": "Mo-Su 17:00-21:00", "name": "Les Garnements", "opening_hours": "Mo-Su 08:00-24:00", "wheelchair": "no"}}, {"type": "node", "id": 428047882, "lat": 48.8447706, "lon": 2.3779554, "tags": {"amenity": "restaurant", "cuisine": "burger", "diet:vegan": "no", "diet:vegetarian": "yes", "name": "The Madison", "opening_hours": "Mo 11:00-24:00; Tu-Sa 00:00-02:00,11:00-24:00; Su 00:00-02:00", "outdoor_seating": "yes", "phone": "+33 1 71 70 64 66", "speciality": "burger", "wheelchair": "yes"}}, {"type": "node", "id": 428048443, "lat": 48.8451286, "lon": 2.3836536, "tags": {"addr:city": "Paris", "addr:housenumber": "2", "addr:postcode": "75012", "addr:street": "Rue Chaligny", "amenity": "restaurant", "cuisine": "chinese", "name": "Le Lys d'or", "phone": "+33144689888"}}, {"type": "node", "id": 428064691, "lat": 48.8516706, "lon": 2.3781819, "tags": {"addr:housenumber": "8", "addr:street": "Rue de la Main d'Or", "amenity": "restaurant", "name": "Le Pacha", "phone": "+33148053717", "website": "http://bistrotlepacha.fr"}}, {"type": "node", "id": 428065105, "lat": 48.8466308, "lon": 2.3820511, "tags": {"amenity": "restaurant", "name": "La cantine Diderot"}}, {"type": "node", "id": 428067452, "lat": 48.8622855, "lon": 2.3522073, "tags": {"amenity": "restaurant", "contact:city": "Paris", "contact:email": "cinqfoisplus@gmail.com", "contact:facebook": "177849722733799", "contact:housenumber": "170", "contact:instagram": "plus.de.piment", "contact:phone": "+33 6 59 58 67 07", "contact:postcode": "75003", "contact:street": "Rue Saint-Martin", "contact:website": "https://cinqfoisplus.fr/fr", "cuisine": "asian;chinese", "indoor_seating": "yes", "name": "Cinq Fois Plus de Piment", "opening_hours": "Tu-Su 12:00-15:00, 18:30-22:30", "outdoor_seating": "yes", "takeaway": "yes", "wheelchair": "yes"}}, {"type": "node", "id": 428141439, "lat": 48.8739244, "lon": 2.3454201, "tags": {"amenity": "restaurant", "contact:city": "Paris", "contact:housenumber": "22", "contact:phone": "+33 1 48 00 07 73", "contact:postcode": "75009", "contact:street": "Rue de Tr\u00e9vise", "cuisine": "chinese", "description": "Sp\u00e9cialit\u00e9s du Hunan", "name": "L'Orient d'Or", "name:fr": "L'Orient d'Or", "name:zh": "\u798f\u6e90\u4e30", "opening_hours": "Tu-Su 12:00-14:30,19:00-22:30; Mo off"}}, {"type": "node", "id": 428143587, "lat": 48.8645203, "lon": 2.3550824, "tags": {"amenity": "restaurant", "cuisine": "chinese;Lanzhou", "name": "Happy Nouilles", "name:zh": "\u5927\u5df4\u9ece", "name:zh_pinyin": "d\u00e0 B\u0101l\u00ed", "opening_hours": "We-Mo 11:30-22:00", "phone": "+33 1 44 59 31 22", "speciality": "nouilles tir\u00e9es a la main (lamian)", "toilets:wheelchair": "no", "wheelchair": "no"}}, {"type": "node", "id": 428145874, "lat": 48.8613333, "lon": 2.3538187, "tags": {"amenity": "restaurant", "cuisine": "peruvian", "name": "Poup\u00e9e"}}, {"type": "node", "id": 428149874, "lat": 48.8651196, "lon": 2.3626307, "tags": {"amenity": "restaurant", "cuisine": "breakfast", "name": "Season", "takeaway": "yes"}}, {"type": "node", "id": 428157295, "lat": 48.8489304, "lon": 2.376284, "tags": {"amenity": "restaurant", "contact:city": "Paris", "contact:housenumber": "12", "contact:phone": "+33 9 51 05 72 37", "contact:postcode": "75012", "contact:street": "Rue \u00c9milio Castelar", "contact:website": "https://www.lacantinedusiam.fr/", "cuisine": "thai", "delivery": "no", "email": "lacantinedusiam@gmail.com", "name": "La Cantine du Siam", "opening_hours": "Mo 19:30-22:30; Tu-Th 12:30-14:30,19:30-22:30; Fr-Sa 12:30-14:30,19:30-23:00"}}, {"type": "node", "id": 428158966, "lat": 48.8462483, "lon": 2.3786596, "tags": {"amenity": "restaurant", "cuisine": "sushi", "name": "Miyako - \u6545\u5bab", "opening_hours": "Mo-Sa 11:00-14:30,18:00-22:30", "phone": "+33 1 46 28 95 77", "wheelchair": "no"}}, {"type": "node", "id": 428161478, "lat": 48.8453283, "lon": 2.3813011, "tags": {"addr:postcode": "75012", "amenity": "restaurant", "cuisine": "french", "internet_access": "wlan", "name": "L'ind\u00e9...", "wheelchair": "no"}}, {"type": "node", "id": 428161696, "lat": 48.8445906, "lon": 2.3834045, "tags": {"addr:city": "Paris", "addr:housenumber": "10", "addr:postcode": "75012", "addr:street": "Place du Colonel Bourgoin", "amenity": "restaurant", "cuisine": "asian", "name": "Les D\u00e9lices du Colonel", "opening_hours": "Mo-Su 10:30-16:00,16:30-22:00", "phone": "+33984492416", "takeaway": "yes"}}, {"type": "node", "id": 428165481, "lat": 48.8477398, "lon": 2.3888781, "tags": {"amenity": "restaurant", "cuisine": "sichuan", "name": "Pizza Five", "wheelchair": "no"}}, {"type": "node", "id": 428165688, "lat": 48.8476122, "lon": 2.393034, "tags": {"amenity": "restaurant", "check_date": "2023-04-02", "cuisine": "thai", "name": "Tha\u00ef Kanda", "opening_hours": "Mo-Sa 11:30-14:30,18:30-22:30"}}, {"type": "node", "id": 428167065, "lat": 48.8420168, "lon": 2.3896839, "tags": {"amenity": "restaurant", "cuisine": "indian", "name": "Jodhpur Palace", "opening_hours": "Mo-Su 12:00-14:00,19:00-23:00", "phone": "+33 1 43 40 72 46", "website": "http://www.jodhpurpalace.com/"}}, {"type": "node", "id": 429488766, "lat": 48.8367142, "lon": 2.3522749, "tags": {"amenity": "restaurant", "check_date:opening_hours": "2022-08-28", "cuisine": "french", "name": "Le Canon des Gobelins", "opening_hours:signed": "no", "outdoor_seating": "yes", "toilets:wheelchair": "no", "wheelchair": "limited"}}, {"type": "node", "id": 432470096, "lat": 48.8297431, "lon": 2.3515115, "tags": {"amenity": "restaurant", "cuisine": "japanese", "name": "Osaka Sushi"}}, {"type": "node", "id": 433073754, "lat": 48.8617033, "lon": 2.3441258, "tags": {"amenity": "restaurant", "contact:city": "Paris", "contact:housenumber": "33", "contact:postcode": "75001", "contact:street": "Rue Berger", "indoor_seating": "yes", "name": "Bistrot du Jardin", "outdoor_seating": "yes", "source:name": "survey"}}, {"type": "node", "id": 442545880, "lat": 48.8722287, "lon": 2.365131, "tags": {"addr:city": "Paris", "addr:housenumber": "82", "addr:postcode": "75010", "addr:street": "Quai de Jemmapes", "amenity": "restaurant", "cuisine": "asian", "name": "Siseng", "opening_hours": "Tu-Fr 12:00-15:00,19:00-22:30; Sa-Su 12:00-15:30,19:00-22:30", "website": "http://www.siseng.fr/"}}, {"type": "node", "id": 443512892, "lat": 48.8275755, "lon": 2.353231, "tags": {"amenity": "restaurant", "name": "Le Feu de Mars"}}, {"type": "node", "id": 446773781, "lat": 48.8758235, "lon": 2.3834309, "tags": {"amenity": "restaurant", "name": "Le Square"}}, {"type": "node", "id": 446819198, "lat": 48.8783181, "lon": 2.3578049, "tags": {"amenity": "restaurant", "bar": "yes", "cuisine": "couscous", "description": "Bar & restaurant", "diet:vegetarian": "yes", "level": "0", "name": "Le Dellys", "opening_hours": "Mo-Sa 10:00-02:00; Fr 10:00-24:00", "phone": "+33 1 40 34 90 74", "restaurant": "yes", "source": "survey 02/2019"}}, {"type": "node", "id": 446885300, "lat": 48.8701181, "lon": 2.2849979, "tags": {"addr:city": "Paris", "amenity": "restaurant", "name": "Rom\u00e9o"}}, {"type": "node", "id": 447033643, "lat": 48.8474184, "lon": 2.34328, "tags": {"amenity": "restaurant", "name": "Le Cosi"}}, {"type": "node", "id": 463711511, "lat": 48.8860554, "lon": 2.3188123, "tags": {"amenity": "restaurant", "name": "La Famille"}}, {"type": "node", "id": 467120021, "lat": 48.8741633, "lon": 2.3754482, "tags": {"amenity": "restaurant", "cuisine": "asian", "diet:halal": "no", "diet:kosher": "no", "diet:vegetarian": "yes", "indoor_seating": "yes", "name": "Viet Siam", "opening_hours:covid19": "off", "opening_hours:signed": "no", "outdoor_seating": "yes", "wheelchair": "limited"}}, {"type": "node", "id": 469364973, "lat": 48.8361883, "lon": 2.4001628, "tags": {"amenity": "restaurant", "cuisine": "vietnamese", "name": "L\u00ea Mai Vietnam", "opening_hours": "Mo-Sa 12:00-14:00,18:00-20:00"}}, {"type": "node", "id": 469364976, "lat": 48.8361733, "lon": 2.399255, "tags": {"amenity": "restaurant", "cuisine": "japanese", "name": "Makoto", "opening_hours": "Mo-Sa,PH 11:30-14:30, Mo-Su,PH 18:30-22:30", "wheelchair": "no"}}, {"type": "node", "id": 469974520, "lat": 48.8355057, "lon": 2.3978609, "tags": {"amenity": "restaurant", "happy_hours": "17:00-20:00", "internet_access": "wlan", "name": "Capri's", "wheelchair": "no"}}, {"type": "node", "id": 469974776, "lat": 48.8385476, "lon": 2.3962122, "tags": {"amenity": "restaurant", "check_date:opening_hours": "2022-10-24", "cuisine": "italian", "name": "Piccola Italia", "opening_hours:signed": "no", "phone": "+33 1 44 74 67 12", "survey:date": "2020-05-30", "takeaway:covid19": "yes", "website": "https://website-675690293991284813243-pizzarestaurant.business.site"}}, {"type": "node", "id": 471042291, "lat": 48.8643936, "lon": 2.4080349, "tags": {"amenity": "restaurant", "name": "Le Vingti\u00e8me"}}, {"type": "node", "id": 472351949, "lat": 48.8361097, "lon": 2.4056728, "tags": {"amenity": "restaurant", "cuisine": "french", "name": "Le Swann"}}, {"type": "node", "id": 473827193, "lat": 48.8400454, "lon": 2.380814, "tags": {"amenity": "restaurant", "name": "Pataqu\u00e8s", "wheelchair": "limited"}}, {"type": "node", "id": 473827196, "lat": 48.8347357, "lon": 2.3876562, "tags": {"addr:city": "Paris", "addr:housenumber": "20", "addr:postcode": "75012", "addr:street": "Rue Baron Le Roy", "amenity": "restaurant", "capacity": "120", "cuisine": "japanese;korean", "name": "Sushi Yuki", "phone": "+33 1 43 43 83 57", "takeaway": "yes", "toilets:wheelchair": "yes", "website": "http://www.sushi-yuki.com/index.html", "wheelchair": "limited", "wheelchair:description": "Partiellement accessible (une marche avant doubles portes): POUR POUVOIR RENTRER, DEMANDEZ \u00e0 ce qu'ils installent le plan inclin\u00e9 mobile en alu !!"}}, {"type": "node", "id": 473827205, "lat": 48.8394999, "lon": 2.3803553, "tags": {"addr:city": "Paris", "addr:housenumber": "110", "addr:postcode": "75012", "addr:street": "Rue de Bercy", "amenity": "restaurant", "name": "Les Spectacles", "wheelchair": "limited"}}, {"type": "node", "id": 473827207, "lat": 48.8393205, "lon": 2.3806346, "tags": {"amenity": "restaurant", "cuisine": "french", "name": "Anco", "wheelchair": "limited"}}, {"type": "node", "id": 482519855, "lat": 48.8535707, "lon": 2.3434607, "tags": {"amenity": "restaurant", "cuisine": "pizza;italian", "name": "Tony's & La Ultima", "opening_hours": "12:00-24:00", "website": "https://laultima.fr"}}, {"type": "node", "id": 486121563, "lat": 48.8466115, "lon": 2.3835147, "tags": {"addr:city": "Paris", "addr:housenumber": "17", "addr:postcode": "75012", "addr:street": "Rue Chaligny", "amenity": "restaurant", "cuisine": "french", "diet:vegan": "no", "diet:vegetarian": "no", "name": "L'Aubergeade", "opening_hours": "Tu-Su 19:00-22:00, We-Su 12:00-14:00", "phone": "+33 1 43 44 33 36", "toilets:wheelchair": "no", "website": "https://fr-fr.facebook.com/Laubergeade-157818664251239/", "wheelchair": "no"}}, {"type": "node", "id": 486121568, "lat": 48.8464754, "lon": 2.3834793, "tags": {"addr:city": "Paris", "addr:housenumber": "15 bis", "addr:postcode": "75012", "addr:street": "Rue Chaligny", "amenity": "restaurant", "cuisine": "indian", "name": "Curry Villa", "opening_hours": "Mo-Su 12:00-14:00, 19:00-23:00", "phone": "+33 1 43 43 33 21", "takeaway": "yes"}}, {"type": "node", "id": 489774593, "lat": 48.85191, "lon": 2.3341836, "tags": {"amenity": "restaurant", "name": "La Boussole", "name:en": "La Boussole", "wheelchair": "limited"}}, {"type": "node", "id": 490737598, "lat": 48.8650517, "lon": 2.3018704, "tags": {"amenity": "restaurant", "cuisine": "french", "name": "Chez Francis"}}, {"type": "node", "id": 493729421, "lat": 48.8396241, "lon": 2.4024373, "tags": {"amenity": "restaurant", "name": "Le Cachiquet", "opening_hours": "Mo-Fr 07:50-15:00, Tu-Fr 17:30-24:00"}}, {"type": "node", "id": 493761037, "lat": 48.8477852, "lon": 2.3980971, "tags": {"addr:city": "Paris", "addr:housenumber": "8", "addr:postcode": "75012", "addr:street": "Avenue du Tr\u00f4ne", "amenity": "restaurant", "brewery": "Leffe;Hoegaarden;Kanterbr\u00e4u;1664;Maredsous;Bi\u00e8re de saison;Grimbergen_fruits_rouges;Carlsberg", "cuisine": "pizza;french", "name": "Capone Nation", "old_name": "Marco Polo", "opening_hours": "Mo-Su 00:00-02:00,07:30-24:00", "opening_hours:covid19": "off", "outdoor_seating": "yes", "phone": "+33 1 43 43 26 19", "smoking": "outside", "wheelchair": "limited"}}, {"type": "node", "id": 493761038, "lat": 48.8485856, "lon": 2.3983193, "tags": {"addr:city": "Paris", "addr:housenumber": "9", "addr:postcode": "75011", "addr:street": "Avenue du Tr\u00f4ne", "amenity": "restaurant", "brewery": "1664;Grimbergen;Carlsberg;Chouffe;Grimbergen de No\u00ebl", "name": "Chez Prosper", "opening_hours": "Mo-Su 07:30-01:30", "opening_hours:covid19": "off", "smoking": "outside", "toilets:wheelchair": "no", "wheelchair": "limited"}}, {"type": "node", "id": 493870582, "lat": 48.8284546, "lon": 2.3428606, "tags": {"amenity": "restaurant", "check_date": "2023-04-29", "cuisine": "japanese;sushi", "indoor_seating": "yes", "name": "Oh Sushi", "opening_hours": "Mo-Su 11:00-15:00,18:00-23:00", "outdoor_seating": "no", "payment:credit_cards": "yes", "payment:debit_cards": "yes"}}, {"type": "node", "id": 494637303, "lat": 48.8319371, "lon": 2.3141252, "tags": {"amenity": "restaurant", "name": "Le Caf\u00e9 Chineur"}}, {"type": "node", "id": 494660190, "lat": 48.8330479, "lon": 2.3162878, "tags": {"addr:housenumber": "92", "addr:street": "Rue Raymond Losserand", "amenity": "restaurant", "cuisine": "japanese", "name": "Wako", "opening_hours": "12:00-14:30,19:00-22:30", "smoking": "no", "website": "https://www.wako14.fr"}}, {"type": "node", "id": 494660394, "lat": 48.8332281, "lon": 2.3169449, "tags": {"amenity": "restaurant", "name": "Shiawase", "opening_hours": "18:30-22:30, Mo-Sa 12:00-14:30", "website": "http://www.shiawase.paris/"}}, {"type": "node", "id": 495633106, "lat": 48.8362254, "lon": 2.3224012, "tags": {"amenity": "restaurant", "contact:city": "Paris", "contact:housenumber": "11", "contact:phone": "+33 1 43 20 21 39", "contact:postcode": "75014", "contact:street": "Rue Raymond Losserand", "contact:website": "https://www.mosuke-restaurant.fr", "cuisine": "japanese;african", "level": "0", "name": "Mosuke Restaurant", "stars": "1", "toilets": "yes", "toilets:access": "customers", "toilets:disposal": "flush", "toilets:position": "seated", "toilets:wheelchair": "no"}}, {"type": "node", "id": 495637361, "lat": 48.8364089, "lon": 2.3224024, "tags": {"addr:housenumber": "8", "addr:postcode": "75014", "addr:street": "Rue Raymond Losserand", "amenity": "restaurant", "cuisine": "lebanese", "level": "0", "name": "Chez Farhat", "outdoor_seating": "yes", "phone": "+33 1 43 22 91 63", "smoking": "outside", "wheelchair": "no"}}, {"type": "node", "id": 495667480, "lat": 48.8324709, "lon": 2.320014, "tags": {"addr:city": "Paris", "addr:housenumber": "6", "addr:postcode": "75014", "addr:street": "Rue de Plaisance", "amenity": "restaurant", "contact:phone": "+33 1 45 42 30 70", "contact:website": "https://casadagusto.fr", "cuisine": "columbian", "name": "Casa Dagusto"}}, {"type": "node", "id": 495670797, "lat": 48.832164, "lon": 2.3202607, "tags": {"amenity": "restaurant", "cuisine": "korean", "indoor_seating": "yes", "name": "Raon", "opening_hours": "Tu-Su 12:00-15:00,19:00-23:00", "outdoor_seating": "no", "phone": "+33 9 86 64 84 69"}}, {"type": "node", "id": 495671857, "lat": 48.8324508, "lon": 2.3207231, "tags": {"addr:housenumber": "35", "addr:street": "Rue Didot", "amenity": "restaurant", "cuisine": "pizza", "indoor_seating": "yes", "name": "L'Impr\u00e9vu", "opening_hours": "Mo-Su 08:00-02:00", "opening_hours:covid19": "Mo-Su 08:00-21:00", "outdoor_seating": "yes", "phone": "+33 6 26 76 62 71", "website": "https://limprevu.blogspot.com/", "wheelchair": "yes"}}, {"type": "node", "id": 496109850, "lat": 48.8514297, "lon": 2.3722999, "tags": {"amenity": "restaurant", "contact:city": "Paris", "contact:housenumber": "47", "contact:phone": "+33 1 43 47 55 47", "contact:postcode": "75012", "contact:street": "Rue de Charenton", "contact:website": "http://www.baithong.fr", "cuisine": "thai", "name": "Bai Thong"}}, {"type": "node", "id": 496109955, "lat": 48.8544625, "lon": 2.382325, "tags": {"amenity": "restaurant", "name": "Loulou de Bastille"}}, {"type": "node", "id": 496110514, "lat": 48.8507756, "lon": 2.3816053, "tags": {"amenity": "restaurant", "name": "Le Goyavier", "speciality": "r\u00e9union"}}, {"type": "node", "id": 497348562, "lat": 48.884085, "lon": 2.3374869, "tags": {"addr:postcode": "75018", "amenity": "restaurant", "cuisine": "crepe", "name": "La Galette du Moulin", "source": "Local survey 13 September 2009"}}, {"type": "node", "id": 498913739, "lat": 48.88675, "lon": 2.3464439, "tags": {"amenity": "restaurant", "diet:vegan": "yes", "diet:vegetarian": "only", "name": "ADN"}}, {"type": "node", "id": 499980286, "lat": 48.8663999, "lon": 2.3328148, "tags": {"amenity": "restaurant", "contact:city": "Paris", "contact:housenumber": "41", "contact:phone": "+33 9 83 96 77 55", "contact:postcode": "75001", "contact:street": "Rue Saint-Roch", "cuisine": "sushi;japanese", "name": "Foujita", "opening_hours": "Tu-Su 12:00-14:15,19:00-22:00", "reservation": "no", "toilets:wheelchair": "no", "wheelchair": "limited"}}, {"type": "node", "id": 500255589, "lat": 48.8367172, "lon": 2.3924117, "tags": {"amenity": "restaurant", "cuisine": "italian", "name": "Casa Naktel", "opening_hours:covid19": "off"}}, {"type": "node", "id": 500255592, "lat": 48.8366661, "lon": 2.3926576, "tags": {"amenity": "restaurant", "cuisine": "asian", "name": "Le Cambodge", "old_name": "Jonaki", "opening_hours:covid19": "off"}}, {"type": "node", "id": 500255594, "lat": 48.8366787, "lon": 2.3933514, "tags": {"amenity": "restaurant", "cuisine": "lebanese", "facebook": "https://www.facebook.com/people/Saray-lebanese-kitchen/100069271284694/", "internet_access": "wlan", "name": "Saray", "old_name": "Le Prince", "opening_hours": "Mo-Su 11:00-23:00", "opening_hours:covid19": "open", "phone": "+33 9 53 74 83 74", "takeaway:covid19": "only", "website": "https://saray-lebanese-kitchen.business.site"}}, {"type": "node", "id": 508588053, "lat": 48.8432256, "lon": 2.3893039, "tags": {"addr:city": "Paris", "addr:housenumber": "8", "addr:postcode": "75012", "addr:street": "Rue Riesener", "amenity": "restaurant", "cuisine": "asian", "name": "Royal Montgallet", "name:zh": "\u65b0\u5bcc\u56ed", "opening_hours": "Tu-Su 12:00-02:30,19:00-22:30", "phone": "+33 1 44 73 40 42", "website": "http://royalmontgallet.fr/", "wheelchair": "yes"}}, {"type": "node", "id": 508588057, "lat": 48.8450336, "lon": 2.3825955, "tags": {"all_you_can_eat": "yes", "amenity": "restaurant", "cuisine": "sushi", "name": "Toto Sushi", "wheelchair": "no"}}, {"type": "node", "id": 508588068, "lat": 48.8453967, "lon": 2.3826032, "tags": {"amenity": "restaurant", "cuisine": "thai", "name": "Thai Time", "phone": "+33 1 43 40 40 57"}}, {"type": "node", "id": 508588085, "lat": 48.8470342, "lon": 2.3868537, "tags": {"addr:city": "Paris", "addr:housenumber": "24", "addr:postcode": "75012", "addr:street": "Rue de Reuilly", "amenity": "restaurant", "brewery": "Grimbergen;Carlsberg;Kronenbourg;1664;1664_blanche;bintang", "diet:vegan": "no", "diet:vegetarian": "yes", "happy_hours": "Mo-Su 17:00-20:00", "name": "Les Argentiers", "opening_hours": "Mo-Su 00:00-01:00,06:30-24:00", "smoking": "outside", "website": "http://www.lesargentiers.com", "wheelchair": "limited"}}, {"type": "node", "id": 508588090, "lat": 48.8469567, "lon": 2.3869061, "tags": {"amenity": "restaurant", "cuisine": "chinese", "name": "Kanji", "opening_hours": "Mo-Sa 11:00-16:00,18:00-23:00"}}, {"type": "node", "id": 508588125, "lat": 48.8466891, "lon": 2.3824558, "tags": {"amenity": "restaurant", "cuisine": "sushi", "name": "Sushi Bar", "opening_hours": "Mo-Sa 12:00-15:00,19:00-23:00 ; Su 19:00-23:00", "wheelchair": "no"}}, {"type": "node", "id": 508588144, "lat": 48.8508333, "lon": 2.3797344, "tags": {"amenity": "restaurant", "name": "Capucine"}}, {"type": "node", "id": 508588172, "lat": 48.8493705, "lon": 2.3782973, "tags": {"addr:city": "Paris", "addr:housenumber": "13", "addr:postcode": "75012", "addr:street": "Rue d'Aligre", "amenity": "restaurant", "cuisine": "regional", "cuisine:zh": "\u9c81\u83dc", "name": "Chez Guan", "name:zh": "\u65b0\u98df\u8bb0", "name:zh_pinyin": "x\u012bnsh\u00edj\u00ec", "opening_hours": "Mo-Sa 11:30-15:00; 19:00-23:00", "phone": "+33 1 44 75 85 29"}}, {"type": "node", "id": 508588174, "lat": 48.8481949, "lon": 2.3766544, "tags": {"amenity": "restaurant", "cuisine": "traditional;french", "name": "La Conivence"}}, {"type": "node", "id": 508588177, "lat": 48.8482849, "lon": 2.3767134, "tags": {"addr:city": "Paris", "addr:housenumber": "1", "addr:postcode": "75012", "addr:street": "Rue de Cotte", "amenity": "restaurant", "cuisine": "sardinian;italian", "name": "Sardegna Tavola", "opening_hours": "Tu-Sa 12:00-14:30, 19:30-22:45; Mo 12:00-14:30, 19:30-23:00", "phone": "+33144750328", "website": "https://sardegna.paris/"}}, {"type": "node", "id": 508597074, "lat": 48.8499216, "lon": 2.37377, "tags": {"addr:city": "Paris", "amenity": "restaurant", "cocktails": "yes", "contact:housenumber": "50", "contact:phone": "+33 1 43 46 08 09", "contact:postcode": "75012", "contact:street": "Rue de Charenton", "contact:website": "http://www.lechina.eu", "cuisine": "chinese", "diet:vegan": "yes", "diet:vegetarian": "yes", "name": "Le China", "opening_hours": "Su-Th 12:00-02:00; Fr-Sa 12:00-04:00", "wheelchair": "no"}}, {"type": "node", "id": 508597105, "lat": 48.8455915, "lon": 2.3933569, "tags": {"addr:city": "Paris", "addr:housenumber": "28", "addr:postcode": "75012", "addr:street": "Rue du Sergent Bauchat", "amenity": "restaurant", "check_date:opening_hours": "2022-07-01", "cuisine": "chinese", "name": "Les 2 Saveurs", "opening_hours:signed": "no", "wheelchair": "no"}}, {"type": "node", "id": 508599773, "lat": 48.8410573, "lon": 2.3873134, "tags": {"amenity": "restaurant", "cuisine": "japanese", "diet:vegan": "yes", "diet:vegetarian": "yes", "name": "Edo Sushi", "opening_hours": "Mo-Sa 11:30-14:30; Mo-Su 18:00-22:30", "survey:date": "2017-12-06", "wheelchair": "no"}}, {"type": "node", "id": 528461984, "lat": 48.8465154, "lon": 2.3600786}, {"type": "node", "id": 528462212, "lat": 48.8468787, "lon": 2.3606312}, {"type": "node", "id": 528462229, "lat": 48.847088, "lon": 2.3601068}, {"type": "node", "id": 528462231, "lat": 48.8471591, "lon": 2.3602168}, {"type": "node", "id": 528462233, "lat": 48.8470843, "lon": 2.3601117}, {"type": "node", "id": 528462236, "lat": 48.847074, "lon": 2.3600959}, {"type": "node", "id": 529888306, "lat": 48.8678179, "lon": 2.3028379, "tags": {"amenity": "restaurant", "contact:housenumber": "12", "contact:phone": "+33 1 47 20 59 57", "contact:postcode": "75008", "contact:street": "Rue Marbeuf", "contact:website": "https://www.chez-andre.com/", "name": "Chez Andr\u00e9", "opening_hours": "Mo-Su 12:00-24:00"}}, {"type": "node", "id": 530272874, "lat": 48.8478582, "lon": 2.3735429, "tags": {"addr:housenumber": "45", "addr:postcode": "75012", "addr:street": "Rue Traversi\u00e8re", "amenity": "restaurant", "changing_table": "no", "cuisine": "italian", "level": "0", "name": "I Quattro Mori", "opening_hours": "Mo,We,Fr 08:00-19:00; Tu,Th 08:00-22:00; Sa 11:00-19:00; Su 11:00-16:00", "outdoor_seating": "yes", "phone": "+33 1 43 41 04 43", "smoking": "outside", "toilets": "yes", "toilets:access": "customers", "toilets:disposal": "flush", "toilets:position": "seated", "toilets:wheelchair": "no"}}, {"type": "node", "id": 530272875, "lat": 48.8483311, "lon": 2.3741932, "tags": {"addr:city": "Paris", "addr:housenumber": "30", "addr:postcode": "75012", "addr:street": "Rue Traversi\u00e8re", "amenity": "restaurant", "cuisine": "italian", "internet_access": "no", "name": "Chez Peppe", "opening_hours": "Tu-Fr 09:30-14:30,16:30-19:45; Sa 09:30-19:45", "phone": "+33 1 43 47 31 69", "website": "https://www.chezpeppe.com/", "wheelchair": "limited"}}, {"type": "node", "id": 530272903, "lat": 48.8458407, "lon": 2.3720988, "tags": {"amenity": "restaurant", "brewery": "licorne black", "cuisine": "french", "cuisine:fr": "brasserie;alsacien", "internet_access": "wlan", "internet_access:fee": "no", "name": "Bistrot de la Gare", "old_name": "Taverne Karlsbr\u00e4u", "opening_hours": "Mo-Su 08:00-00:00", "outdoor_seating": "yes", "phone": "+33 1 43 43 88 30", "survey:date": "2019-11-03", "toilets:wheelchair": "no", "wheelchair": "limited"}}, {"type": "node", "id": 530272904, "lat": 48.8459184, "lon": 2.3726478, "tags": {"amenity": "restaurant", "brewery": "1664;Grimbergen;Kronenbourg;Grimbergen_blanche", "contact:housenumber": "21 bis", "contact:street": "Boulevard Diderot", "cuisine": "french", "internet_access": "wlan", "name": "L'Europ\u00e9en", "opening_hours": "Mo-Su 07:30-01:00", "phone": "+33 1 43 43 99 70", "survey:date": "2019-02-04", "website": "https://www.l-europeen.com/", "wheelchair": "yes"}}, {"type": "node", "id": 530272907, "lat": 48.8491474, "lon": 2.3746104, "tags": {"amenity": "restaurant", "cuisine": "pizza;italian", "internet_access": "wlan", "name": "Gemma", "opening_hours": "Mo-Th 12:00-14:30, 19:00-23:00; Fr 19:00-23:00; Sa-Su 12:00-23:00", "phone": "+33 1 43 45 36 04", "website": "https://www.gemmapizzeria.com/", "wheelchair": "yes"}}, {"type": "node", "id": 530272908, "lat": 48.8471402, "lon": 2.3725177, "tags": {"addr:city": "Paris", "addr:housenumber": "31", "addr:postcode": "75012", "addr:street": "Rue Traversi\u00e8re", "amenity": "restaurant", "cuisine": "italian", "email": "restaurantpelicano@free.fr", "fax": "+33955827414", "internet_access": "no", "name": "Ristorante Pellicano", "opening_hours": "Mo-Fr 12:00-14:30, Mo-Sa 19:00-23:00, Sa 19:00-23:00", "phone": "+33143070223", "smoking": "no"}}, {"type": "node", "id": 530272909, "lat": 48.8490161, "lon": 2.3747617, "tags": {"addr:city": "Paris", "addr:housenumber": "40", "addr:postcode": "75012", "addr:street": "Rue Traversi\u00e8re", "amenity": "restaurant", "cuisine": "french", "email": "therapist@lesingeaparis.com", "name": "Le singe \u00e0 Paris", "phone": "+33 7 69 91 11 83", "smoking": "no", "wheelchair": "no"}}, {"type": "node", "id": 530272921, "lat": 48.8470772, "lon": 2.3727405, "tags": {"amenity": "restaurant", "cuisine": "japanese", "name": "Ginza", "phone": "+33143408898"}}, {"type": "node", "id": 530275195, "lat": 48.8475609, "lon": 2.375248, "tags": {"addr:city": "Paris", "addr:housenumber": "43", "addr:postcode": "75012", "addr:street": "Avenue Daumesnil", "amenity": "restaurant", "brewery": "carlsberg;grimbergen_blanche;grimbergen;Guinness", "cuisine": "french", "email": "leviaduc@orange.fr", "fax": "+33 1 44747071", "happy_hours": "Mo-Fr 17:00-20:00", "internet_access": "yes", "name": "Le Viaduc Caf\u00e9", "opening_hours": "Mo-Su 09:00-02:00", "phone": "+33 1 44747070", "website": "http://www.leviaduc-cafe.com", "wheelchair": "limited"}}, {"type": "node", "id": 530575488, "lat": 48.8446604, "lon": 2.3494341, "tags": {"addr:city": "Paris", "addr:housenumber": "2", "addr:postcode": "75005", "addr:street": "Place de la Contrescarpe", "amenity": "restaurant", "email": "cafedelmas@gmail.com", "happy_hours": "17:00-19:00", "name": "Le Delmas", "opening_hours": "Mo-Su 09:00-01:30", "phone": "+33 1 43 26 51 26", "website": "https://cafedelmas.com/"}}, {"type": "node", "id": 530751116, "lat": 48.8469814, "lon": 2.3726034, "tags": {"amenity": "restaurant", "cuisine": "asian;tibetan", "name": "Karma", "opening_hours": "Mo-Fr 12:00-14:30,19:00-22:00; Sa 19:00-22:00", "phone": "+33 1 43 14 60 21", "website": "http://restaurant-karma.fr/"}}, {"type": "node", "id": 530751158, "lat": 48.8459741, "lon": 2.3725698, "tags": {"amenity": "restaurant", "brewery": "Leffe;Meteor;Chouffe;1664", "contact:city": "Paris", "contact:housenumber": "2", "contact:postcode": "75012", "contact:street": "Rue de Lyon", "cuisine": "french", "internet_access": "wlan", "name": "Le Muratti's", "opening_hours": "Mo-Su 06:30-23:00", "phone": "+33143071221", "survey:date": "2019-02-04", "wheelchair": "no"}}, {"type": "node", "id": 530751161, "lat": 48.8459507, "lon": 2.3730386, "tags": {"amenity": "restaurant", "brewery": "Carlsberg;Leffe;Leffe_blanche;Chouffe", "contact:housenumber": "21 ter", "contact:street": "boulevard Diderot", "cuisine": "french", "internet_access": "yes", "name": "Aux Cadrans", "opening_hours": "Mo-Su 06:00-02:00", "phone": "+33 1 43 43 37 63", "wheelchair": "limited"}}, {"type": "node", "id": 530878026, "lat": 48.8458112, "lon": 2.3718694, "tags": {"addr:city": "Paris", "addr:housenumber": "19", "addr:postcode": "75012", "addr:street": "Boulevard Diderot", "amenity": "restaurant", "cuisine": "pizza", "name": "Fosca'", "survey:date": "2019-02-04", "toilets:wheelchair": "no", "wheelchair": "no"}}, {"type": "node", "id": 530880275, "lat": 48.8464544, "lon": 2.3718546, "tags": {"amenity": "restaurant", "cuisine": "french;pizza", "name": "Brasserie\u202f\u2013\u202fPizzeria d\u2019Azur", "outdoor_seating": "yes", "smoking": "no", "survey:date": "2019-02-04"}}, {"type": "node", "id": 531496445, "lat": 48.8493603, "lon": 2.3903036, "tags": {"amenity": "restaurant", "name": "Queyrelou"}}, {"type": "node", "id": 531496772, "lat": 48.8489954, "lon": 2.3908138, "tags": {"amenity": "restaurant", "cuisine": "italian", "name": "Il Far Niente", "phone": "+33 1 43 73 99 28"}}, {"type": "node", "id": 531497617, "lat": 48.8497475, "lon": 2.3788828, "tags": {"access:covid19": "no", "addr:city": "Paris", "addr:housenumber": "30", "addr:postcode": "75012", "addr:street": "Rue d'Aligre", "amenity": "restaurant", "cuisine": "thai", "delivery": "no", "delivery:covid19": "no", "name": "Paya Tha\u00ef Aligre", "opening_hours": "Mo-Sa 12:00-14:30,19:00-23:30", "opening_hours:covid19": "open", "phone": "+33 9 50 96 10 00", "takeaway": "yes", "takeaway:covid19": "yes", "website": "https://www.paya-thai.fr/"}}, {"type": "node", "id": 531501720, "lat": 48.8468146, "lon": 2.3805349, "tags": {"amenity": "restaurant", "name": "Restaurant Universitaire", "operator": "CROUS"}}, {"type": "node", "id": 531795728, "lat": 48.8442266, "lon": 2.3492264, "tags": {"amenity": "restaurant", "check_date:opening_hours": "2023-03-03", "cuisine": "persian", "name": "Colbeh", "opening_hours:signed": "no", "phone": "+33 1 45 35 11 99"}}, {"type": "node", "id": 533754009, "lat": 48.83102, "lon": 2.3347804, "tags": {"access:covid19": "no", "amenity": "restaurant", "cuisine": "vietnamese", "name": "Escale \u00e0 Sa\u00efgon", "opening_hours:covid19": "Mo-Fr 12:00-14:00", "payment:credit_cards": "yes", "payment:debit_cards": "yes", "phone": "+33 1 45 65 20 48", "takeaway:covid19": "yes"}}, {"type": "node", "id": 533755374, "lat": 48.8252128, "lon": 2.3624715, "tags": {"amenity": "restaurant", "changing_table": "no", "contact:city": "Paris", "contact:housenumber": "70", "contact:phone": "+33 1 45 70 91 75", "contact:postcode": "75013", "contact:street": "Rue Baudricourt", "cuisine": "vietnamese", "level": "0", "name": "Le Bambou", "opening_hours": "Tu-Su 11:30-15:30, 18:30-22:30", "outdoor_seating": "yes", "smoking": "outside", "takeaway": "yes", "toilets": "yes", "toilets:access": "customers", "toilets:disposal": "flush", "toilets:wheelchair": "no", "wheelchair": "limited"}}, {"type": "node", "id": 533755545, "lat": 48.8251313, "lon": 2.3623868, "tags": {"amenity": "restaurant", "check_date:opening_hours": "2022-07-03", "cuisine": "vietnamese", "name": "Pho Hoa Pasteur Saigon \u65b0\u9e97\u90fd\u9152\u5bb6", "opening_hours:signed": "no"}}, {"type": "node", "id": 533755584, "lat": 48.8248667, "lon": 2.3622623, "tags": {"addr:housenumber": "93", "addr:postcode": "75013", "addr:street": "Avenue d'Ivry", "amenity": "restaurant", "check_date:opening_hours": "2022-06-19", "contact:city": "Paris", "contact:housenumber": "93", "contact:phone": "+33 1 45 83 25 60", "contact:postcode": "75013", "contact:street": "Avenue d'Ivry", "cuisine": "chinese;vietnamese", "name": "Palais d'Asie", "name:zh": "\u83ef\u90fd\u9152\u5bb6", "opening_hours:signed": "no", "ref:FR:SIREN": "333 645 497", "ref:FR:SIRET": "333 645 497 00012"}}, {"type": "node", "id": 533942277, "lat": 48.868804, "lon": 2.3594807, "tags": {"amenity": "restaurant", "cuisine": "mediterranean", "name": "Y Bowl Noodle", "opening_hours": "Mo-Sa 11:30-0:00;Su 12:00-17:00", "phone": "+33 1 42 08 60 20"}}, {"type": "node", "id": 534660987, "lat": 48.8862979, "lon": 2.3451631, "tags": {"addr:postcode": "75018", "amenity": "restaurant", "name": "L'\u00c9t\u00e9 en Pente Douce", "opening_hours": "Mo-Su 12:00-24:00", "source": "cadastre-dgi-fr source : Direction G\u00e9n\u00e9rale des Imp\u00f4ts - Cadastre. Mise \u00e0 jour : 2009"}}, {"type": "node", "id": 534660995, "lat": 48.8865096, "lon": 2.3452428, "tags": {"amenity": "restaurant", "contact:city": "Paris", "contact:facebook": "https://www.facebook.com/Le-Soleil-De-La-Butte-295547923849422/", "contact:housenumber": "32", "contact:phone": "+33 1 46 06 18 24", "contact:postcode": "75018", "contact:street": "Rue Muller", "contact:website": "http://le-soleil-de-la-butte.lafourchette.rest", "cuisine": "french", "cuisine:fr": "brasserie", "name": "Le Soleil de la Butte", "opening_hours": "Su-We 09:00-12:00, Fr,Sa 09:00-06:00; Th 09:00-05:00", "source": "cadastre-dgi-fr source : Direction G\u00e9n\u00e9rale des Imp\u00f4ts - Cadastre. Mise \u00e0 jour : 2009"}}, {"type": "node", "id": 534895723, "lat": 48.8490473, "lon": 2.3745288, "tags": {"addr:city": "Paris", "addr:housenumber": "63", "addr:postcode": "75012", "addr:street": "Rue Traversi\u00e8re", "amenity": "restaurant", "cuisine": "vietnamese", "name": "Le Saigon", "phone": "+33 1 46 28 37 69", "takeaway": "yes"}}, {"type": "node", "id": 534904407, "lat": 48.8462167, "lon": 2.3753959, "tags": {"amenity": "restaurant", "cuisine": "french", "name": "Entre les Vignes", "opening_hours": "Mo-Sa 12:00-14:30,19:30-21:30", "opening_hours:signed": "no", "smoking": "outside"}}, {"type": "node", "id": 534905060, "lat": 48.8460027, "lon": 2.3764579, "tags": {"amenity": "restaurant", "cuisine": "burger", "name": "King Marcel", "source": "survey"}}, {"type": "node", "id": 534905631, "lat": 48.8460708, "lon": 2.3770013, "tags": {"amenity": "restaurant", "name": "La Valise"}}, {"type": "node", "id": 534910294, "lat": 48.8458391, "lon": 2.3749747, "tags": {"addr:housenumber": "26", "addr:street": "Boulevard Diderot", "amenity": "restaurant", "cuisine": "chinese", "description": "caviste, cave a manger, epicerie de terroirs", "name": "Gare aux vins"}}, {"type": "node", "id": 534916265, "lat": 48.8469247, "lon": 2.3730534, "tags": {"addr:city": "Paris", "addr:housenumber": "5", "addr:postcode": "75012", "addr:street": "Rue Parrot", "amenity": "restaurant", "cuisine": "french", "name": "Le Duc de Richelieu", "opening_hours": "Mo-Su 09:00-24:00", "smoking": "outside"}}, {"type": "node", "id": 535863373, "lat": 48.8472307, "lon": 2.3708678, "tags": {"amenity": "restaurant", "cuisine": "asian", "name": "Li Yuan"}}, {"type": "node", "id": 535867999, "lat": 48.846728, "lon": 2.3702882, "tags": {"amenity": "restaurant", "cuisine": "japanese", "name": "Osaka", "opening_hours": "Mo-Sa 12:00-14:30,19:00-22:30"}}, {"type": "node", "id": 535936810, "lat": 48.8456137, "lon": 2.3701195, "tags": {"amenity": "restaurant", "check_date:opening_hours": "2023-03-06", "cuisine": "japanese", "diet:vegetarian": "yes", "name": "Authentic Bento", "opening_hours:signed": "no"}}, {"type": "node", "id": 535938645, "lat": 48.8453198, "lon": 2.3707747, "tags": {"amenity": "restaurant", "name": "Le Paris Lyon"}}, {"type": "node", "id": 535947357, "lat": 48.8457141, "lon": 2.3704736, "tags": {"amenity": "restaurant", "cuisine": "chinese", "name": "La Maison du D\u00e9lice", "opening_hours": "Mo-Sa 10:30-22:00"}}, {"type": "node", "id": 536515036, "lat": 48.8269211, "lon": 2.3322906, "tags": {"amenity": "restaurant", "cuisine": "thai;asian;vietnamese", "delivery": "no", "internet_access": "no", "name": "Le Kaizen", "opening_hours": "Mo-Sa 12:00-14:30; Mo-Sa 19:00-22:30", "smoking": "outside", "takeaway": "yes"}}, {"type": "node", "id": 536515303, "lat": 48.8275549, "lon": 2.3356387, "tags": {"amenity": "restaurant", "contact:city": "Paris", "contact:email": "contact@restaurant-assanabel.com", "contact:housenumber": "6", "contact:phone": "+33 1 42 79 86 86", "contact:postcode": "75014", "contact:street": "Rue d'Al\u00e9sia", "contact:website": "https://www.restaurant-assanabel.com/", "cuisine": "lebanese", "name": "Assanabel", "opening_hours": "Mo-Su 12:00-15:00,19:00-23:00", "payment:credit_cards": "yes", "payment:debit_cards": "yes", "takeaway": "yes", "wheelchair": "yes"}}, {"type": "node", "id": 538919353, "lat": 48.8477369, "lon": 2.3510564}, {"type": "node", "id": 538919357, "lat": 48.847741, "lon": 2.3510847}, {"type": "node", "id": 538919358, "lat": 48.8477327, "lon": 2.3510809}, {"type": "node", "id": 538919360, "lat": 48.8477802, "lon": 2.351038}, {"type": "node", "id": 538919369, "lat": 48.8477567, "lon": 2.3510233}, {"type": "node", "id": 538919375, "lat": 48.8478319, "lon": 2.3510707}, {"type": "node", "id": 538920090, "lat": 48.8476992, "lon": 2.35112}, {"type": "node", "id": 538920093, "lat": 48.8476835, "lon": 2.3511464}, {"type": "node", "id": 538920096, "lat": 48.8476602, "lon": 2.3511852}, {"type": "node", "id": 538920099, "lat": 48.8477044, "lon": 2.35116}, {"type": "node", "id": 538920114, "lat": 48.8477812, "lon": 2.3512604}, {"type": "node", "id": 538920117, "lat": 48.8477188, "lon": 2.351146}, {"type": "node", "id": 538920121, "lat": 48.8477254, "lon": 2.351122}, {"type": "node", "id": 538920124, "lat": 48.8477118, "lon": 2.3511174}, {"type": "node", "id": 538920127, "lat": 48.8477142, "lon": 2.3511202}, {"type": "node", "id": 538920131, "lat": 48.8477077, "lon": 2.3511313}, {"type": "node", "id": 555709207, "lat": 48.8905909, "lon": 2.3820031, "tags": {"amenity": "restaurant", "name": "Le 61"}}, {"type": "node", "id": 556432368, "lat": 48.832462, "lon": 2.2973784, "tags": {"amenity": "restaurant", "cuisine": "indian", "name": "Indian Swad", "phone": "+33 1 56 56 06 06", "source": "survey 2019"}}, {"type": "node", "id": 556444230, "lat": 48.8342552, "lon": 2.3021401, "tags": {"amenity": "restaurant", "check_date:opening_hours": "2022-07-09", "cuisine": "italian", "name": "Da Attilio", "opening_hours:signed": "no", "source": "cadastre-dgi-fr source : Direction G\u00e9n\u00e9rale des Imp\u00f4ts - Cadastre ; mise \u00e0 jour : 2009"}}, {"type": "node", "id": 556461124, "lat": 48.833199, "lon": 2.3058031, "tags": {"amenity": "restaurant", "email": "contact@petitpan.fr", "name": "Le Petit Pan", "opening_hours": "Tu-Sa 12:00-14:30,19:00-23:00", "phone": "+33 1 42 50 04 04", "takeaway": "yes", "website": "https://www.lepetitpan.fr/"}}, {"type": "node", "id": 556461131, "lat": 48.8330642, "lon": 2.3057247, "tags": {"amenity": "restaurant", "cuisine": "regional", "email": "contact@legrandpan.fr", "name": "Le Grand Pan", "phone": "+33 1 42 50 02 50", "source": "cadastre-dgi-fr source : Direction G\u00e9n\u00e9rale des Imp\u00f4ts - Cadastre ; mise \u00e0 jour : 2009", "website": "https://www.legrandpan.fr/"}}, {"type": "node", "id": 561128954, "lat": 48.8320537, "lon": 2.3030394, "tags": {"amenity": "restaurant", "name": "Cent Kilos", "source": "survey 2019"}}, {"type": "node", "id": 568452939, "lat": 48.8920861, "lon": 2.3792943, "tags": {"amenity": "restaurant", "name": "Brasserie de l'Ourcq"}}, {"type": "node", "id": 568453387, "lat": 48.8922518, "lon": 2.379478, "tags": {"addr:city": "Paris", "addr:country": "FR", "addr:housenumber": "58", "addr:postcode": "75019", "addr:street": "Rue de l'Ourcq", "amenity": "restaurant", "cuisine": "lebanese", "name": "El omda"}}, {"type": "node", "id": 571429770, "lat": 48.8847672, "lon": 2.3248422, "tags": {"amenity": "restaurant", "contact:city": "Paris", "contact:housenumber": "19", "contact:phone": "+33 9 53 17 54 17", "contact:postcode": "75017", "contact:street": "Rue des Dames", "name": "DAME", "operator": "Do Aamaral Buschel Raul"}}, {"type": "node", "id": 582743160, "lat": 48.8567473, "lon": 2.3041925, "tags": {"amenity": "restaurant", "cuisine": "japanese", "name": "Okinawa"}}, {"type": "node", "id": 582743234, "lat": 48.85622, "lon": 2.3044115, "tags": {"amenity": "restaurant", "cuisine": "sushi", "name": "La Maison du Sushi"}}, {"type": "node", "id": 582743808, "lat": 48.8560475, "lon": 2.3045247, "tags": {"amenity": "restaurant", "cuisine": "french", "name": "Le Bosquet"}}, {"type": "node", "id": 582745395, "lat": 48.855529, "lon": 2.3047711, "tags": {"addr:housenumber": "54", "addr:street": "Avenue Bosquet", "amenity": "restaurant", "cuisine": "chinese", "name": "La Fontaine de Jade"}}, {"type": "node", "id": 582745476, "lat": 48.8555818, "lon": 2.3053301, "tags": {"amenity": "restaurant", "cuisine": "italian", "name": "Ricci Family"}}, {"type": "node", "id": 582746799, "lat": 48.8549627, "lon": 2.3050611, "tags": {"addr:city": "Paris", "addr:housenumber": "64", "addr:postcode": "75007", "addr:street": "Avenue Bosquet", "amenity": "restaurant", "name": "Le Gatsby"}}, {"type": "node", "id": 582747740, "lat": 48.8547805, "lon": 2.3051304, "tags": {"amenity": "restaurant", "name": "Septi\u00e8me Vin"}}, {"type": "node", "id": 582747931, "lat": 48.8549635, "lon": 2.3056659, "tags": {"amenity": "restaurant", "name": "Milagro", "opening_hours": "Tu-Fr 12:00-14:30,19:00-22:00; Sa 19:00-22:00", "phone": "+33 9 54 50 83 31", "website": "https://www.milagroparis.com/"}}, {"type": "node", "id": 582931079, "lat": 48.8487827, "lon": 2.3484052, "tags": {"amenity": "restaurant", "check_date:opening_hours": "2023-03-03", "indoor_seating": "yes", "name": "L'Annexe", "opening_hours:signed": "no", "outdoor_seating": "yes"}}, {"type": "node", "id": 582931082, "lat": 48.8488102, "lon": 2.3472712, "tags": {"amenity": "restaurant", "name": "La Petite P\u00e9rigourdine"}}, {"type": "node", "id": 582932088, "lat": 48.8452626, "lon": 2.3426036, "tags": {"addr:housenumber": "187", "addr:street": "Rue Saint-Jacques", "amenity": "restaurant", "name": "Le Coup de Torchon", "opening_hours": "Mo-Sa 12:00-14:00, 19:00-22:00"}}, {"type": "node", "id": 583517929, "lat": 48.8451686, "lon": 2.3207087, "tags": {"addr:street": "Boulevard du Montparnasse", "amenity": "restaurant", "name": "La Marquise"}}, {"type": "node", "id": 586381131, "lat": 48.8759394, "lon": 2.3585316, "tags": {"amenity": "restaurant", "indoor_seating": "yes", "name": "Caf\u00e9 de L'Est", "outdoor_seating": "yes", "smoking": "outside", "survey:date": "2017-09-01"}}, {"type": "node", "id": 589485658, "lat": 48.852223, "lon": 2.3849242, "tags": {"addr:city": "Paris", "addr:housenumber": "18", "addr:postcode": "75011", "addr:street": "Rue Paul Bert", "amenity": "restaurant", "cuisine": "french", "name": "Bistrot Paul Bert", "opening_hours": "Mo-Th 12:00-14:00,19:30-22:45; Fr,Sa 12:00-14:30,19:30-23:00", "phone": "+33 1 43 72 24 01", "website": "https://bistrotpaulbert.fr/"}}, {"type": "node", "id": 589485674, "lat": 48.8510651, "lon": 2.3842956, "tags": {"addr:city": "Paris", "addr:housenumber": "12", "addr:postcode": "75011", "addr:street": "Rue Faidherbe", "amenity": "restaurant", "bar": "yes", "cuisine": "french", "description": "Service de 11h30 \u00e0 23h30", "name": "Les Funambules", "opening_hours": "Mo-Su 08:00-01:00", "phone": "+33 1 43 70 83 70"}}, {"type": "node", "id": 589485677, "lat": 48.8525339, "lon": 2.3847257, "tags": {"addr:city": "Paris", "addr:housenumber": "23", "addr:postcode": "75011", "addr:street": "Rue Paul Bert", "amenity": "restaurant", "contact:email": "creperie.paris11@breizhcafe.com", "contact:phone": "+33 1 42 78 27 49", "contact:website": "https://breizhcafe.com/fr/", "cuisine": "crepe;pancake;regional;french", "diet:gluten_free": "yes", "name": "BREIZH Caf\u00e9 - Paul Bert"}}, {"type": "node", "id": 589495703, "lat": 48.8452457, "lon": 2.3838856, "tags": {"amenity": "restaurant", "contact:city": "Paris", "contact:housenumber": "3", "contact:phone": "+33 1 43 41 59 64", "contact:postcode": "75012", "contact:street": "Rue \u00c9rard", "cuisine": "sushi", "name": "Maydo"}}, {"type": "node", "id": 595485037, "lat": 48.8368523, "lon": 2.3527784, "tags": {"amenity": "restaurant", "cuisine": "pizza", "delivery:covid19": "yes", "name": "C\u00e9sar Pizza", "old_name": "Chez C\u00e9sar", "opening_hours:covid19": "open", "takeaway:covid19": "yes", "website": "http://cesar-restaurant.com"}}, {"type": "node", "id": 597414115, "lat": 48.8718006, "lon": 2.3062883, "tags": {"amenity": "restaurant", "name": "Le Si\u00e8cle", "stars": "2"}}, {"type": "node", "id": 597841835, "lat": 48.8524629, "lon": 2.4041332, "tags": {"amenity": "restaurant", "cuisine": "chinese", "name": "D\u00e9lice d'Or", "takeaway": "yes"}}, {"type": "node", "id": 599513428, "lat": 48.8576321, "lon": 2.3546405, "tags": {"addr:city": "Paris", "addr:housenumber": "12", "addr:postcode": "75004", "addr:street": "Rue des Archives", "amenity": "restaurant", "contact:facebook": "https://www.facebook.com/Caffvito", "contact:instagram": "https://www.instagram.com/caffevito_paris/", "contact:phone": "+33 1 42 74 08 84", "contact:tripadvisor": "https://www.tripadvisor.fr/Restaurant_Review-g187147-d3395351-Reviews-Caffe_Vito-Paris_Ile_de_France.html", "contact:website": "https://www.caffe-vito.fr/", "cuisine": "italian", "diet:halal": "yes", "diet:kosher": "yes", "diet:vegan": "yes", "diet:vegetarian": "yes", "lgbtq": "primary", "name": "Caff\u00e9 Vito", "opening_hours": "08:00-02:00"}}, {"type": "node", "id": 599513446, "lat": 48.8577293, "lon": 2.3547383, "tags": {"access:covid19": "no", "addr:city": "Paris", "addr:housenumber": "16", "addr:postcode": "75004", "addr:street": "Rue des Archives", "amenity": "restaurant", "cuisine": "french", "delivery:covid19": "yes", "indoor_seating": "yes", "internet_access": "wlan", "lgbtq": "primary", "name": "Le Ju", "name:en": "le Ju", "name:fr": "le Ju", "opening_hours": "Mo-Su 07:00-02:00", "opening_hours:covid19": "Mo-Su 12:00-22:00", "outdoor_seating": "yes", "phone": "+33 1 42 78 11 47", "source": "cadastre-dgi-fr source : Direction G\u00e9n\u00e9rale des Imp\u00f4ts - Cadastre. Mise \u00e0 jour : 2010", "takeaway:covid19": "yes", "website": "https://leju.business.site/"}}, {"type": "node", "id": 609099358, "lat": 48.8343459, "lon": 2.306018, "tags": {"amenity": "restaurant", "cuisine": "italian_pizza;italian;pizza", "name": "La Piazza"}},