{"version": 0.6, "generator": "Overpass API 0.7.60 f4c14d41", "osm3s": {"timestamp_osm_base": "2023-05-02T21:19:24Z", "copyright": "The data included in this document is from www.openstreetmap.org. The data is made available under ODbL."}, "elements": [{"type": "node", "id": 1484074142, "lat": 41.0669966, "lon": 29.0420848, "tags": {"addr:city": "\u0130stanbul", "addr:district": "Be\u015fikta\u015f", "addr:housenumber": "No:53", "addr:neighbourhood": "Arnavutk\u00f6y", "addr:postcode": "34345", "addr:street": "Bebek Arnavutk\u00f6y Caddesi", "description": "Bu manav\u0131n sipari\u015f hatt\u0131 mevcuttur. (0534 767 42 65)", "email": "contact@kolaylar.com", "name": "Kolaylar Tar\u0131m", "opening_hours": "Mo-Su 06:00-19:00", "phone": "0212 257 57 05", "shop": "greengrocer", "website": "www.kolaylar.com"}}, {"type": "node", "id": 1920284189, "lat": 41.0492778, "lon": 29.0762881, "tags": {"shop": "greengrocer"}}, {"type": "node", "id": 4161756614, "lat": 41.0502602, "lon": 29.0254904, "tags": {"name": "Yeni \u00c7\u0131nartalt\u0131 Manav", "shop": "greengrocer", "wheelchair": "yes"}}, {"type": "node", "id": 4165094924, "lat": 41.0503532, "lon": 29.0251541, "tags": {"name": "Vegetables shop", "shop": "greengrocer", "wheelchair": "yes"}}, {"type": "node", "id": 4691931892, "lat": 41.0933466, "lon": 29.0863842, "tags": {"name": "mini hal manav", "shop": "greengrocer"}}, {"type": "node", "id": 4764877345, "lat": 41.0514632, "lon": 28.9835044, "tags": {"name": "Zirve Ekonomik Pazar", "shop": "greengrocer"}}, {"type": "node", "id": 6863703693, "lat": 41.1210719, "lon": 29.100447, "tags": {"shop": "greengrocer"}}, {"type": "node", "id": 6933020930, "lat": 41.1499647, "lon": 29.0921248, "tags": {"shop": "greengrocer"}}, {"type": "node", "id": 7529959117, "lat": 41.1175441, "lon": 29.0641431, "tags": {"addr:city": "istanbul", "addr:district": "sar\u0131yer", "addr:housenumber": "No:160", "addr:neighbourhood": "Yenik\u00f6y mahallesi", "addr:street": "K\u00f6yba\u015f\u0131 Caddesi", "name": "Arzu manav", "phone": "+90 (212) 262 13 31", "shop": "greengrocer"}}]}