{"version": 0.6, "generator": "Overpass API 0.7.60 f4c14d41", "osm3s": {"timestamp_osm_base": "2023-05-02T21:22:25Z", "copyright": "The data included in this document is from www.openstreetmap.org. The data is made available under ODbL."}, "elements": [{"type": "node", "id": 452351370, "lat": -33.7540845, "lon": 150.7011481, "tags": {"addr:housenumber": "317", "addr:postcode": "2750", "addr:state": "NSW", "addr:street": "High Street", "addr:suburb": "Penrith", "amenity": "police", "contact:facebook": "https://www.facebook.com/NepeanPAC/", "contact:messenger": "https://www.messenger.com/t/NepeanPAC", "fax": "+61 2 4721 9426", "name": "Penrith Police Station", "opening_hours": "24/7", "opening_hours:covid19": "same", "operator": "NSW Police Force", "operator:areacommand": "Nepean Police Area Command", "operator:region": "North West Metro Region", "operator:wikidata": "Q7011763", "operator:wikipedia": "en:New South Wales Police Force", "phone": "+61 2 4721 9444", "source": "police.nsw.gov.au", "website": "https://www.police.nsw.gov.au/about_us/regions_commands_districts/north_west_metro_region/nepean/penrith_police_station"}}, {"type": "node", "id": 626359137, "lat": -33.7266599, "lon": 150.886362, "tags": {"amenity": "police", "name": "Quakers Hill Police Station", "operator": "NSW Police Force", "operator:wikidata": "Q7011763", "operator:wikipedia": "en:New South Wales Police Force", "phone": "+61-2-9678-8999", "source": "police.nsw.gov.au"}}, {"type": "node", "id": 829667744, "lat": -33.7653602, "lon": 150.8227066, "tags": {"addr:housenumber": "27-29", "addr:street": "Luxford Road", "amenity": "police", "fax": "02 8805 8311", "name": "Mount Druitt Police Station", "operator": "NSW Police Force", "operator:wikidata": "Q7011763", "operator:wikipedia": "en:New South Wales Police Force", "phone": "+61-2-9675-0699", "source": "police.nsw.gov.au", "website": "https://www.police.nsw.gov.au/about_us/regions_commands_districts/north_west_metro_region/mount_druitt/mount_druitt_police_station"}}, {"type": "node", "id": 829668585, "lat": -33.6813566, "lon": 150.8620692, "tags": {"addr:housenumber": "4", "addr:street": "Elizabeth Street", "amenity": "police", "fax": "02 9838 2111", "name": "Riverstone Police Station", "operator": "New South Wales Police Force", "operator:wikidata": "Q7011763", "operator:wikipedia": "en:New South Wales Police Force", "phone": "+61-2-9838-2799", "source": "police.nsw.gov.au", "website": "https://www.police.nsw.gov.au/about_us/regions_commands_districts/north_west_metro_region/riverstone/riverstone_police_station"}}, {"type": "node", "id": 3283150219, "lat": -33.3863237, "lon": 150.9849336}, {"type": "node", "id": 3283150221, "lat": -33.3863866, "lon": 150.9848149}, {"type": "node", "id": 3283150222, "lat": -33.3864131, "lon": 150.9850032}, {"type": "node", "id": 3283150223, "lat": -33.3864733, "lon": 150.9848681}, {"type": "node", "id": 7308799854, "lat": -33.3864536, "lon": 150.9848679}, {"type": "node", "id": 7308799855, "lat": -33.3864506, "lon": 150.9849291}, {"type": "node", "id": 7308799856, "lat": -33.3864588, "lon": 150.9848965}, {"type": "node", "id": 8081285943, "lat": -33.6126743, "lon": 150.816337}, {"type": "node", "id": 8081285944, "lat": -33.6125659, "lon": 150.8161991}, {"type": "node", "id": 8081285945, "lat": -33.6127244, "lon": 150.8160206}, {"type": "node", "id": 8081285946, "lat": -33.6126258, "lon": 150.8158914}, {"type": "node", "id": 8081285947, "lat": -33.6124588, "lon": 150.8160663}, {"type": "node", "id": 8081285948, "lat": -33.6123756, "lon": 150.8159657}, {"type": "node", "id": 8081285949, "lat": -33.6118506, "lon": 150.8165558}, {"type": "node", "id": 8081285950, "lat": -33.612141, "lon": 150.8169367}, {"type": "node", "id": 9622806794, "lat": -33.7651664, "lon": 150.8223091}, {"type": "node", "id": 9622806795, "lat": -33.7652307, "lon": 150.8227574}, {"type": "node", "id": 9622806796, "lat": -33.7651998, "lon": 150.8227638}, {"type": "node", "id": 9622806797, "lat": -33.765239, "lon": 150.8230372}, {"type": "node", "id": 9622806798, "lat": -33.7652726, "lon": 150.8230302}, {"type": "node", "id": 9622806799, "lat": -33.7652916, "lon": 150.8231626}, {"type": "node", "id": 9622806800, "lat": -33.7655408, "lon": 150.8231109}, {"type": "node", "id": 9622806801, "lat": -33.7654182, "lon": 150.8222568}, {"type": "node", "id": 9622825223, "lat": -33.7653158, "lon": 150.8231576}, {"type": "way", "id": 321554515, "nodes": [3283150219, 3283150222, 7308799855, 7308799856, 3283150223, 7308799854, 3283150221, 3283150219], "tags": {"amenity": "police", "building": "yes", "fax": "02 4379 4930", "name": "Wisemans Ferry Police Station", "operator": "New South Wales Police Force", "operator:wikidata": "Q7011763", "operator:wikipedia": "en:New South Wales Police Force", "phone": "+61-2-4566-4302", "source": "police.nsw.gov.au", "source:geometry": "LPI Imagery", "website": "https://www.police.nsw.gov.au/about_us/regions_commands_districts/north_west_metro_region/hawkesbury/wisemans_ferry_police_station"}}, {"type": "way", "id": 866969566, "nodes": [8081285943, 8081285944, 8081285945, 8081285946, 8081285947, 8081285948, 8081285949, 8081285950, 8081285943], "tags": {"addr:full": "13 Mileham Street, Windsor NSW 2756", "addr:housenumber": "13", "addr:postcode": "2756", "addr:state": "NSW", "addr:street": "Mileham Street", "addr:suburb": "Windsor", "amenity": "police", "contact:facebook": "https://www.facebook.com/hawkesburypac/", "contact:fax": "+61 2 4587 4011", "contact:phone": "+61 2 4587 4099", "contact:website": "https://www.police.nsw.gov.au/about_us/regions_commands_districts/north_west_metro_region/hawkesbury/windsor_police_station", "fax": "+61 2 4587 4011", "latitude": "-33.6122065", "longitude": "150.8165561", "name": "Windsor Police Station", "opening_hours": "24/7", "opening_hours:covid19": "24/7", "operator": "New South Wales Police Force", "operator:area_command": "Hawkesbury Police Area Command", "operator:region": "North West Metropolitan Region", "operator:wikidata": "Q7011763", "operator:wikipedia": "en:New South Wales Police Force", "phone": "+61 2 4587 4099", "website": "https://www.police.nsw.gov.au/about_us/regions_commands_districts/north_west_metro_region/hawkesbury/windsor_police_station"}}, {"type": "way", "id": 1046390195, "nodes": [9622806794, 9622806795, 9622806796, 9622806797, 9622806798, 9622806799, 9622825223, 9622806800, 9622806801, 9622806794], "tags": {"amenity": "police", "building": "yes", "operator": "NSW Police Force", "operator:wikidata": "Q7011763", "operator:wikipedia": "en:New South Wales Police Force"}}]}