{"version": 0.6, "generator": "Overpass API 0.7.60 f4c14d41", "osm3s": {"timestamp_osm_base": "2023-05-02T21:14:21Z", "copyright": "The data included in this document is from www.openstreetmap.org. The data is made available under ODbL."}, "elements": [{"type": "node", "id": 3495021394, "lat": 41.1781342, "lon": 29.6125424, "tags": {"amenity": "bank", "wheelchair": "no"}}, {"type": "node", "id": 4397187892, "lat": 41.1748573, "lon": 29.6094223, "tags": {"amenity": "bank", "name": "Halkbank", "name:tr": "Halkbank"}}, {"type": "node", "id": 4397187989, "lat": 41.175147, "lon": 29.6095604, "tags": {"amenity": "bank", "name": "YapiKredi", "name:tr": "YapiKredi"}}, {"type": "node", "id": 4397197290, "lat": 41.1740014, "lon": 29.6083722, "tags": {"amenity": "bank", "name": "Sok;Is Bank", "name:tr": "Sok;Is Bank", "shop": "supermarket"}}, {"type": "node", "id": 4397235189, "lat": 41.1758609, "lon": 29.6098578, "tags": {"amenity": "bank", "name": "VakifBank", "name:tr": "VakifBank"}}]}