{"version": 0.6, "generator": "Overpass API 0.7.60 f4c14d41", "osm3s": {"timestamp_osm_base": "2023-05-02T21:17:24Z", "copyright": "The data included in this document is from www.openstreetmap.org. The data is made available under ODbL."}, "elements": [{"type": "node", "id": 2612231645, "lat": 41.2711455, "lon": 28.4833842}, {"type": "node", "id": 2612231646, "lat": 41.2712442, "lon": 28.4835156}, {"type": "node", "id": 2612231647, "lat": 41.2711152, "lon": 28.4836766}, {"type": "node", "id": 2612231648, "lat": 41.2710164, "lon": 28.4835505}, {"type": "node", "id": 3086447838, "lat": 41.1109484, "lon": 28.9065172, "tags": {"amenity": "restaurant", "name": "\u00c7aml\u0131ca Cafe"}}, {"type": "node", "id": 3802242316, "lat": 41.0541473, "lon": 28.9337587, "tags": {"addr:city": "\u0130stanbul", "addr:district": "Ey\u00fcp Sultan", "addr:neighbourhood": "Merkez Mh.", "addr:postcode": "34050", "addr:street": "\u0130dris K\u00f6\u015fk\u00fc Caddesi", "amenity": "restaurant", "cuisine": "turkish", "name": "Aziyade Restaurant", "opening_hours:covid19": "off"}}, {"type": "node", "id": 4271333579, "lat": 41.0641784, "lon": 28.7479756}, {"type": "node", "id": 4271333580, "lat": 41.0640249, "lon": 28.7480856}, {"type": "node", "id": 4271333581, "lat": 41.0641179, "lon": 28.7483138}, {"type": "node", "id": 4271333582, "lat": 41.0642714, "lon": 28.7482038}, {"type": "node", "id": 4334176900, "lat": 41.1229643, "lon": 28.7474467, "tags": {"amenity": "restaurant", "name": "Sakli bah\u00e7e et"}}, {"type": "node", "id": 4390330193, "lat": 41.1174132, "lon": 28.807361, "tags": {"amenity": "restaurant", "name": "Ba\u015fak\u015fehir Sosyal Tesisleri", "name:tr": "Ba\u015fak\u015fehir Sosyal Tesisleri"}}, {"type": "node", "id": 4557740244, "lat": 41.0725308, "lon": 28.8913037, "tags": {"amenity": "restaurant", "cuisine": "turkish", "name": "Emektar B\u00f6rek", "start_date": "1991"}}, {"type": "node", "id": 4559092317, "lat": 41.0724706, "lon": 28.8889844, "tags": {"amenity": "restaurant", "name": "Karadeniz Yemek Salonu"}}, {"type": "node", "id": 4560611008, "lat": 41.0729169, "lon": 28.8876464, "tags": {"amenity": "restaurant", "name": "\u00c7atak Et Mangal"}}, {"type": "node", "id": 4562247247, "lat": 41.0730295, "lon": 28.8872672, "tags": {"amenity": "restaurant", "name": "Ada Lezzet Lokantas\u0131"}}, {"type": "node", "id": 4564100667, "lat": 41.0726526, "lon": 28.8873903, "tags": {"amenity": "restaurant", "name": "Has \u00c7i\u011f K\u00f6fte"}}, {"type": "node", "id": 4573226504, "lat": 41.0597398, "lon": 28.8902731, "tags": {"addr:city": "\u0130stanbul", "addr:district": "Bayrampa\u015fa", "addr:housenumber": "83/A", "addr:neighbourhood": "Kocatepe", "addr:postcode": "34045", "addr:street": "Avask\u00f6y Yolu Caddesi", "amenity": "restaurant", "name": "Avliya Bo\u015fnak Mutfa\u011f\u0131", "phone": "+90 212 437 3797"}}, {"type": "node", "id": 4576781446, "lat": 41.0625153, "lon": 28.8075952, "tags": {"amenity": "restaurant", "level": "3", "name": "Bayd\u00f6ner"}}, {"type": "node", "id": 4681673446, "lat": 41.059067, "lon": 28.9320059, "tags": {"amenity": "restaurant", "name": "Adana Sofrasi"}}, {"type": "node", "id": 4705801089, "lat": 41.0617427, "lon": 28.6874701, "tags": {"amenity": "restaurant", "name:ar": "\u0645\u0637\u0639\u0645 Lunchbox"}}, {"type": "node", "id": 4767418764, "lat": 41.0674387, "lon": 28.9458194}, {"type": "node", "id": 4767418765, "lat": 41.0674418, "lon": 28.9460028}, {"type": "node", "id": 4767418766, "lat": 41.067162, "lon": 28.9460111}, {"type": "node", "id": 4767418767, "lat": 41.0671589, "lon": 28.9458277}, {"type": "node", "id": 4901695053, "lat": 41.0770514, "lon": 28.9489292}, {"type": "node", "id": 4901697069, "lat": 41.0771537, "lon": 28.9489637}, {"type": "node", "id": 5183120423, "lat": 41.232583, "lon": 28.7008902, "tags": {"addr:street": "Fatih Caddesi", "amenity": "restaurant", "cuisine": "breakfast;grill;tea;sausage;beef_bowl;steak_house;chicken;barbecue", "email": "dogakirlokantasi@gmail.com", "internet_access": "wlan", "name": "Do\u011fa k\u0131r lokantas\u0131", "opening_hours": "Mo-Su 09:00-23:00", "phone": "05532266348", "website": "http://dogakirlokantasi.com"}}, {"type": "node", "id": 5254176621, "lat": 41.177522, "lon": 28.887214, "tags": {"addr:street": "Telekom Sk.", "amenity": "restaurant", "name": "Naml\u0131 Gurme", "name:en": "Naml\u0131 Gourmet"}}, {"type": "node", "id": 5274052774, "lat": 41.0804553, "lon": 28.8778815, "tags": {"amenity": "restaurant", "cuisine": "chicken", "name": "Tavuk D\u00fcnyas\u0131"}}, {"type": "node", "id": 5274052784, "lat": 41.0665794, "lon": 28.8952761, "tags": {"amenity": "restaurant", "name": "Girne"}}, {"type": "node", "id": 5284636256, "lat": 41.0585641, "lon": 28.9141138, "tags": {"amenity": "restaurant", "name": "Dilek Restaurant", "smoking": "isolated"}}, {"type": "node", "id": 5284636258, "lat": 41.0582614, "lon": 28.9141195, "tags": {"amenity": "restaurant", "name": "Hac\u0131 Sayid"}}, {"type": "node", "id": 5284636263, "lat": 41.0594539, "lon": 28.9136071, "tags": {"amenity": "restaurant", "capacity": "15", "cuisine": "turkish", "name": "Karadeniz G\u00fcve\u00e7 ve Pide Salonu", "outdoor_seating": "no", "smoking": "no"}}, {"type": "node", "id": 5284636288, "lat": 41.0611453, "lon": 28.9137531, "tags": {"amenity": "restaurant", "cuisine": "ice_cream", "name": "Roma Restaurant"}}, {"type": "node", "id": 5284636292, "lat": 41.0572174, "lon": 28.9138068, "tags": {"addr:city": "\u0130stanbul", "addr:district": "Gaziosmanpa\u015fa", "addr:housenumber": "22/A", "addr:neighbourhood": "Merkez", "addr:postcode": "34245", "addr:street": "Ey\u00fcp Caddesi", "amenity": "restaurant", "branch": "Gaziosmanpa\u015fa", "name": "Hac\u0131o\u011flu", "phone": "+90 212 616 2470", "smoking": "no"}}, {"type": "node", "id": 5284636307, "lat": 41.0576476, "lon": 28.9126727, "tags": {"amenity": "restaurant", "cuisine": "turkish", "name": "Necdet Usta Sofras\u0131"}}, {"type": "node", "id": 5284636311, "lat": 41.0568662, "lon": 28.9114035, "tags": {"amenity": "restaurant", "name": "Ali Baba"}}, {"type": "node", "id": 5285760872, "lat": 41.1069848, "lon": 28.8600048, "tags": {"amenity": "restaurant", "name": "Faruk G\u00fcll\u00fco\u011flu"}}, {"type": "node", "id": 5289936631, "lat": 41.1078495, "lon": 28.8631869, "tags": {"amenity": "restaurant", "cuisine": "kebab", "name": "\u00d6zt\u00fcrkler \u015eark Sofras\u0131"}}, {"type": "node", "id": 5291873154, "lat": 41.1004848, "lon": 28.863278, "tags": {"amenity": "restaurant", "name": "Sultan \u015eark Sofras\u0131"}}, {"type": "node", "id": 5291873214, "lat": 41.10672, "lon": 28.8605824, "tags": {"amenity": "restaurant", "name": "Saray \u015eark Sofras\u0131"}}, {"type": "node", "id": 5291873334, "lat": 41.0595076, "lon": 28.9131589, "tags": {"amenity": "restaurant", "name": "Antepli"}}, {"type": "node", "id": 5291970758, "lat": 41.0976741, "lon": 28.8629365, "tags": {"amenity": "restaurant", "cuisine": "soup", "delivery": "yes", "name": "\u00c7orbac\u0131 M\u00fcdavim", "opening_hours": "24/7", "takeaway": "yes"}}, {"type": "node", "id": 5291970811, "lat": 41.10052, "lon": 28.8627422, "tags": {"amenity": "restaurant", "name": "Karadeniz Salonu"}}, {"type": "node", "id": 5294120098, "lat": 41.1353928, "lon": 28.8301941, "tags": {"amenity": "restaurant", "name": "Raguba"}}, {"type": "node", "id": 5295117702, "lat": 41.1126999, "lon": 28.8572125, "tags": {"amenity": "restaurant", "name": "Ailem"}}, {"type": "node", "id": 5295118526, "lat": 41.1322008, "lon": 28.8346101, "tags": {"amenity": "restaurant", "name": "Raguba Restaurant"}}, {"type": "node", "id": 5295118536, "lat": 41.1329332, "lon": 28.8275016, "tags": {"amenity": "restaurant", "name": "\u0130brahim Ocak \u015eark Sofras\u0131"}}, {"type": "node", "id": 5295857850, "lat": 41.1076089, "lon": 28.8623282, "tags": {"amenity": "restaurant", "name": "Pilavc\u0131 Baba"}}, {"type": "node", "id": 5295857905, "lat": 41.1349573, "lon": 28.8312104, "tags": {"amenity": "restaurant", "name": "K\u00f6fte Manyas"}}, {"type": "node", "id": 5295857916, "lat": 41.1331718, "lon": 28.8341275, "tags": {"amenity": "restaurant", "name": "Hali\u00e7"}}, {"type": "node", "id": 5295861923, "lat": 41.1319834, "lon": 28.8354254, "tags": {"amenity": "restaurant", "name": "Hannevi Restaurant"}}, {"type": "node", "id": 5295861942, "lat": 41.1074869, "lon": 28.8615807, "tags": {"amenity": "restaurant", "name": "Ali Baba"}}, {"type": "node", "id": 5297278142, "lat": 41.1050914, "lon": 28.8634034, "tags": {"amenity": "restaurant", "cuisine": "chicken", "name": "Ye D\u00f6ner"}}, {"type": "node", "id": 5297777759, "lat": 41.1031949, "lon": 28.8626173}, {"type": "node", "id": 5297777760, "lat": 41.1031276, "lon": 28.8623785}, {"type": "node", "id": 5297777761, "lat": 41.1029959, "lon": 28.8624416}, {"type": "node", "id": 5297777762, "lat": 41.1030566, "lon": 28.8626797}, {"type": "node", "id": 5482528222, "lat": 41.0589395, "lon": 28.9488253, "tags": {"amenity": "restaurant", "name": "Miniat\u00fcrk", "operator": "Beltur"}}, {"type": "node", "id": 5667669007, "lat": 41.0619343, "lon": 28.8322724, "tags": {"addr:city": "Istanbul", "addr:district": "Ba\u011fc\u0131lar", "addr:street": "Bosna Caddesi", "amenity": "restaurant", "name": "Hansaray \u0130skender", "name:ar": "\u0647\u0627\u0646 \u0633\u0627\u0631\u0627\u064a \u0645\u0637\u0639\u0645"}}, {"type": "node", "id": 5667669940, "lat": 41.0627727, "lon": 28.832413, "tags": {"addr:city": "Istanbul", "addr:district": "Ba\u011fc\u0131lar", "addr:street": "Bosna Caddesi", "amenity": "restaurant", "name": "Sat\u0131lm\u0131\u015f Usta Pide", "name:ar": "\u0633\u0627\u062a\u0644\u0645\u064a\u0634 \u0641\u0637\u0627\u0626\u0631"}}, {"type": "node", "id": 5667669946, "lat": 41.0533453, "lon": 28.8299339, "tags": {"addr:city": "Istanbul", "addr:district": "Ba\u011fc\u0131lar", "addr:street": "\u0130n\u00f6n\u00fc Caddesi", "amenity": "restaurant", "name": "112 Kebap ve D\u00fcr\u00fcm Evi", "name:ar": "112 \u0643\u0628\u0627\u0628"}}, {"type": "node", "id": 5667669981, "lat": 41.0549674, "lon": 28.8210301, "tags": {"addr:city": "Istanbul", "addr:district": "Ba\u011fc\u0131lar", "addr:street": "Gazi Mustafa Kemal Caddesi", "amenity": "restaurant", "name": "\u0130zmir Kokore\u00e7 D\u00f6ner Ci\u011fer \u00c7orba", "name:ar": "\u0645\u0637\u0639\u0645 \u0627\u0632\u0645\u064a\u0631"}}, {"type": "node", "id": 5667672276, "lat": 41.0561646, "lon": 28.8463262, "tags": {"addr:city": "Istanbul", "addr:district": "Ba\u011fc\u0131lar", "amenity": "restaurant", "name": "Lezzet sofras\u0131", "name:ar": "\u0645\u0637\u0639\u0645 \u0644\u0632\u062a \u0633\u0641\u0631\u0627\u0633\u064a"}}, {"type": "node", "id": 5667672288, "lat": 41.0544354, "lon": 28.8465105, "tags": {"addr:city": "Istanbul", "addr:district": "Ba\u011fc\u0131lar", "amenity": "restaurant", "name": "Hal cafeterya", "name:ar": "\u0643\u0627\u0641\u062a\u064a\u0631\u064a\u0627 \u0627\u0644\u062e\u0627\u0644"}}, {"type": "node", "id": 5667672310, "lat": 41.0525766, "lon": 28.8476698, "tags": {"addr:city": "Istanbul", "addr:district": "Ba\u011fc\u0131lar", "amenity": "restaurant", "name": "Feride han\u0131m ev yemekleri", "name:ar": "\u0627\u0644\u0633\u064a\u062f\u0629 \u0641\u0631\u064a\u062f\u0629 \u0644\u0644\u0637\u0628\u062e\u0627\u062a \u0627\u0644\u0645\u0646\u0632\u0644\u064a\u0629"}}, {"type": "node", "id": 5667672641, "lat": 41.0537021, "lon": 28.8464081, "tags": {"addr:city": "Istanbul", "addr:district": "Ba\u011fc\u0131lar", "amenity": "restaurant", "name": "Tarihi Fatih K\u00f6ftecisi", "name:ar": "\u0641\u0627\u062a\u062d \u0627\u0644\u0643\u0641\u062a\u062c\u064a"}}, {"type": "node", "id": 5667672663, "lat": 41.053262, "lon": 28.8464081, "tags": {"addr:city": "Istanbul", "addr:district": "Ba\u011fc\u0131lar", "amenity": "restaurant", "name": "Mersin karde\u015fler tentuni", "name:ar": "\u0645\u0631\u0633\u064a\u0646 \u0643\u0627\u0631\u062f\u064a\u0634\u0644\u0627\u0631 \u0644\u0644\u062a\u0646\u062a\u0648\u0646\u064a"}}, {"type": "node", "id": 5667672670, "lat": 41.0656852, "lon": 28.8561463, "tags": {"addr:city": "Istanbul", "addr:district": "Ba\u011fc\u0131lar", "addr:street": "K\u0131\u015fla caddesi", "amenity": "restaurant", "name": "Kebab\u00e7i Baran", "name:ar": "\u0643\u0628\u0627\u0628\u062c\u064a \u0628\u0627\u0631\u0627\u0646"}}, {"type": "node", "id": 5667672671, "lat": 41.0617035, "lon": 28.854812, "tags": {"addr:district": "Ba\u011fc\u0131lar", "addr:street": "Barbaros caddesi", "amenity": "restaurant", "name": "Aksa", "name:ar": "\u0627\u0643\u0633\u0627"}}, {"type": "node", "id": 5667672688, "lat": 41.0532281, "lon": 28.8494701, "tags": {"addr:city": "Istanbul", "addr:district": "Zeytinburnu", "amenity": "restaurant", "name": "Halep lokantas\u0131", "name:ar": "\u0645\u0637\u0639\u0645 \u062d\u0644\u0628"}}, {"type": "node", "id": 5667673347, "lat": 41.0564513, "lon": 28.8504193, "tags": {"addr:city": "Istanbul", "addr:district": "Ba\u011fc\u0131lar", "addr:street": "Matbaacilar caddesi", "amenity": "restaurant", "name": "K\u00fc\u015flemeci", "name:ar": "\u0643\u0648\u0633\u0644\u064a\u0645\u064a\u062c\u064a"}}, {"type": "node", "id": 5667673379, "lat": 41.053333, "lon": 28.8494144, "tags": {"addr:city": "Istanbul", "addr:district": "Zeytinburnu", "amenity": "restaurant", "name": "Karadeniz sofras\u0131", "name:ar": "\u0643\u0627\u0631\u0627\u062f\u064a\u0646\u064a\u0632"}}, {"type": "node", "id": 5667673396, "lat": 41.0579553, "lon": 28.854867, "tags": {"addr:city": "Istanbul", "addr:district": "Ba\u011fc\u0131lar", "addr:street": "Barbaros caddesi", "amenity": "restaurant", "name": "Sac Tava", "name:ar": "\u0633\u0627\u062c \u062a\u0627\u0641\u0627"}}, {"type": "node", "id": 5667673470, "lat": 41.0559253, "lon": 28.8463058, "tags": {"addr:city": "Istanbul", "addr:district": "Ba\u011fc\u0131lar", "amenity": "restaurant", "name": "Efsane d\u00f6ner", "name:ar": "\u0627\u0641\u0633\u0627\u0646\u064a \u062f\u0648\u0646\u0631"}}, {"type": "node", "id": 5667673548, "lat": 41.0563534, "lon": 28.8551389, "tags": {"addr:city": "Istanbul", "addr:district": "Ba\u011fc\u0131lar", "addr:street": "Barbaros caddesi", "amenity": "restaurant", "name": "Viyama", "name:ar": "\u0641\u064a\u0627\u0645\u0627"}}, {"type": "node", "id": 5667673576, "lat": 41.0558942, "lon": 28.8543457, "tags": {"addr:city": "Istanbul", "addr:district": "Ba\u011fc\u0131lar", "addr:street": "Matbaacilar caddesi", "amenity": "restaurant", "name": "Konak", "name:ar": "\u0643\u0648\u0646\u0627\u0643", "opening_hours": "24/7"}}, {"type": "node", "id": 5667673607, "lat": 41.07, "lon": 28.8555837, "tags": {"addr:city": "Istanbul", "addr:district": "Ba\u011fc\u0131lar", "addr:street": "Mustafa Kemal Caddesi", "amenity": "restaurant", "name": "Japon", "name:ar": "\u062c\u0627\u0628\u0648\u0646"}}, {"type": "node", "id": 5667673610, "lat": 41.0597936, "lon": 28.8543221, "tags": {"addr:city": "Istanbul", "addr:district": "Ba\u011fc\u0131lar", "addr:street": "23. sokak", "amenity": "restaurant", "name": "Sofram\u0131z", "name:ar": "\u0645\u0637\u0639\u0645 \u0633\u0641\u0631\u062a\u0646\u0627"}}, {"type": "node", "id": 5667673925, "lat": 41.0521974, "lon": 28.8493642, "tags": {"addr:city": "Istanbul", "addr:district": "Zeytinburnu", "amenity": "restaurant", "name": "KEBAP SARAYI", "name:ar": "\u0645\u0637\u0639\u0645 \u0643\u0628\u0627\u0628"}}, {"type": "node", "id": 5667673948, "lat": 41.0675311, "lon": 28.8546617, "tags": {"addr:city": "Istanbul", "addr:district": "Ba\u011fc\u0131lar", "addr:street": "Mustafa Kemal Caddesi", "amenity": "restaurant", "name": "Saray kebap", "name:ar": "\u0633\u0627\u0631\u0627\u064a \u0643\u0628\u0627\u0628"}}, {"type": "node", "id": 5667673955, "lat": 41.0674073, "lon": 28.8555143, "tags": {"addr:city": "Istanbul", "addr:district": "Ba\u011fc\u0131lar", "addr:street": "Fetih Caddesi", "amenity": "restaurant", "name": "\u0130bad elrrehmen", "name:ar": "\u0639\u0628\u0627\u062f \u0627\u0644\u0631\u062d\u0645\u0646"}}, {"type": "node", "id": 5667674461, "lat": 41.0676422, "lon": 28.8561693, "tags": {"addr:city": "Istanbul", "addr:district": "Ba\u011fc\u0131lar", "addr:street": "Fetih Caddesi", "amenity": "restaurant", "name": "Do\u011fan Et Lokantas\u0131", "name:ar": "\u062f\u0648\u063a\u0627\u0646 \u0627\u062a"}}, {"type": "node", "id": 5667674471, "lat": 41.0534773, "lon": 28.8334072, "tags": {"addr:city": "Istanbul", "addr:district": "Ba\u011fc\u0131lar", "addr:street": "Maslak caddesi", "amenity": "restaurant", "name": "Sallourao\u011flu Halep Sofras\u0131", "name:ar": "\u0645\u0637\u0639\u0645 \u0633\u0644\u0648\u0631\u0629 \u0644\u0644\u0637\u0628\u062e \u0627\u0644\u062d\u0644\u0628\u064a \u0648\u0627\u0644\u062d\u0644\u0648\u064a\u0627\u062a"}}, {"type": "node", "id": 5667674999, "lat": 41.0533708, "lon": 28.8323355, "tags": {"addr:city": "Istanbul", "addr:district": "Ba\u011fc\u0131lar", "addr:street": "Maslak caddesi", "amenity": "restaurant", "name": "Naimo\u011flu", "name:ar": "\u0646\u0639\u064a\u0645 \u0627\u0648\u063a\u0644\u0648"}}, {"type": "node", "id": 5910277492, "lat": 41.0691448, "lon": 28.8088642}, {"type": "node", "id": 5910277493, "lat": 41.0691482, "lon": 28.8090364}, {"type": "node", "id": 5910277494, "lat": 41.0690714, "lon": 28.8090421}, {"type": "node", "id": 5910277495, "lat": 41.0690732, "lon": 28.808866}, {"type": "node", "id": 6151673089, "lat": 41.3427902, "lon": 28.6847194}, {"type": "node", "id": 6151673090, "lat": 41.3425847, "lon": 28.6848948}, {"type": "node", "id": 6151673091, "lat": 41.3424354, "lon": 28.6845846}, {"type": "node", "id": 6151673092, "lat": 41.3426409, "lon": 28.6844092}, {"type": "node", "id": 6176127325, "lat": 41.0736593, "lon": 28.9042378, "tags": {"amenity": "restaurant", "name": "Dilek Lokantas\u0131"}}, {"type": "node", "id": 6176127326, "lat": 41.0736101, "lon": 28.904265, "tags": {"amenity": "restaurant", "name": "Sozeri Pide Guvec"}}, {"type": "node", "id": 6199682073, "lat": 41.0578089, "lon": 28.6687727, "tags": {"amenity": "restaurant", "name": "Kasap D\u00f6ner"}}, {"type": "node", "id": 6199682203, "lat": 41.05782, "lon": 28.669604, "tags": {"amenity": "restaurant", "name": "Huxo", "wheelchair": "limited"}}, {"type": "node", "id": 6199682204, "lat": 41.0575885, "lon": 28.6686429, "tags": {"amenity": "restaurant", "name": "Midpoint", "wheelchair": "yes"}}, {"type": "node", "id": 6199682212, "lat": 41.0575027, "lon": 28.6681535, "tags": {"amenity": "restaurant", "name": "Food Club", "wheelchair": "yes"}}, {"type": "node", "id": 6199682221, "lat": 41.0576309, "lon": 28.6686302}, {"type": "node", "id": 6199682222, "lat": 41.0576144, "lon": 28.6686796}, {"type": "node", "id": 6199682223, "lat": 41.0575744, "lon": 28.6686631}, {"type": "node", "id": 6199682224, "lat": 41.0575937, "lon": 28.6686083}, {"type": "node", "id": 6199682225, "lat": 41.0578404, "lon": 28.6687984}, {"type": "node", "id": 6199682226, "lat": 41.0578238, "lon": 28.6688258}, {"type": "node", "id": 6199682227, "lat": 41.0577963, "lon": 28.6687947}, {"type": "node", "id": 6199682228, "lat": 41.0578004, "lon": 28.6687801}, {"type": "node", "id": 6199682229, "lat": 41.0575356, "lon": 28.6681346}, {"type": "node", "id": 6199682230, "lat": 41.0575068, "lon": 28.6681219}, {"type": "node", "id": 6199682231, "lat": 41.0574888, "lon": 28.6681664}, {"type": "node", "id": 6199682232, "lat": 41.0575176, "lon": 28.6681919}, {"type": "node", "id": 6199682233, "lat": 41.0578704, "lon": 28.6695926}, {"type": "node", "id": 6199682234, "lat": 41.0578293, "lon": 28.6695738}, {"type": "node", "id": 6199682235, "lat": 41.057805, "lon": 28.6696304}, {"type": "node", "id": 6199682236, "lat": 41.057844, "lon": 28.6696721}, {"type": "node", "id": 6215709254, "lat": 41.0713524, "lon": 28.8100009, "tags": {"amenity": "restaurant", "name": "K\u00f6fteci Yusuf"}}, {"type": "node", "id": 6388870660, "lat": 41.2887356, "lon": 28.6029415}, {"type": "node", "id": 6388870661, "lat": 41.2887956, "lon": 28.6032726}, {"type": "node", "id": 6388870662, "lat": 41.2885188, "lon": 28.6033615}, {"type": "node", "id": 6388870663, "lat": 41.2884588, "lon": 28.6030304}, {"type": "node", "id": 6399989695, "lat": 41.0606276, "lon": 28.7037428, "tags": {"amenity": "restaurant", "name": "\u015eatto Kebap"}}, {"type": "node", "id": 6407480024, "lat": 41.0614729, "lon": 28.8986989, "tags": {"addr:city": "\u0130stanbul", "addr:district": "Bayrampa\u015fa", "addr:housenumber": "13", "addr:neighbourhood": "Y\u0131ld\u0131r\u0131m Mahallesi", "addr:postcode": "34045", "addr:street": "\u015eht. Kamil Balkan Cd.", "amenity": "restaurant", "cuisine": "kebab", "name": "Chefet", "opening_hours": "Mo-Su 09:00-23:59", "outdoor_seating": "no", "phone": "+90 212 563 20 30", "website": "http://www.chefet.com"}}, {"type": "node", "id": 6421656869, "lat": 41.0670692, "lon": 28.9457312}, {"type": "node", "id": 6421656870, "lat": 41.067066, "lon": 28.9455896}, {"type": "node", "id": 6421656871, "lat": 41.066949, "lon": 28.9455946}, {"type": "node", "id": 6421656872, "lat": 41.0669482, "lon": 28.9457312}, {"type": "node", "id": 6421656873, "lat": 41.0669487, "lon": 28.9456307}, {"type": "node", "id": 6421656874, "lat": 41.0670057, "lon": 28.9457304}, {"type": "node", "id": 6421656877, "lat": 41.0669486, "lon": 28.9456458}, {"type": "node", "id": 6437085739, "lat": 41.0701571, "lon": 28.6852928, "tags": {"amenity": "restaurant", "brand": "Pizza Hut", "brand:wikidata": "Q191615", "brand:wikipedia": "en:Pizza Hut", "cuisine": "pizza", "name": "Pizza Hut"}}, {"type": "node", "id": 6437086435, "lat": 41.072304, "lon": 28.6893556, "tags": {"amenity": "restaurant", "cuisine": "turkish", "name": "Heybet", "opening_hours": "Mo-Sa 11:00-23:00; Su 12:00-23:00", "phone": "5921515", "website": "www.heybet.com.tr"}}, {"type": "node", "id": 6437087268, "lat": 41.0623662, "lon": 28.7093228, "tags": {"amenity": "restaurant", "cuisine": "turkish"}}, {"type": "node", "id": 6437087316, "lat": 41.0639834, "lon": 28.7098645, "tags": {"amenity": "restaurant", "name": "Big Cook's"}}, {"type": "node", "id": 6437087317, "lat": 41.0636274, "lon": 28.7098908, "tags": {"amenity": "restaurant", "brand": "Pizza Hut", "brand:wikidata": "Q191615", "brand:wikipedia": "en:Pizza Hut", "cuisine": "pizza", "name": "Pizza Hut"}}, {"type": "node", "id": 6452642559, "lat": 41.0681922, "lon": 28.9446951}, {"type": "node", "id": 6452642563, "lat": 41.0682045, "lon": 28.9446221}, {"type": "node", "id": 6452642564, "lat": 41.0681461, "lon": 28.9446907}, {"type": "node", "id": 6452642565, "lat": 41.0681551, "lon": 28.9446177}, {"type": "node", "id": 6452642569, "lat": 41.0682966, "lon": 28.9444911}, {"type": "node", "id": 6452642570, "lat": 41.0681675, "lon": 28.9444747}, {"type": "node", "id": 6452642571, "lat": 41.068163, "lon": 28.9445551}, {"type": "node", "id": 6452642572, "lat": 41.0682865, "lon": 28.9445819}, {"type": "node", "id": 6452642573, "lat": 41.0680395, "lon": 28.9444509}, {"type": "node", "id": 6452642574, "lat": 41.0680339, "lon": 28.9445268}, {"type": "node", "id": 6561558912, "lat": 41.1554265, "lon": 28.7881964}, {"type": "node", "id": 6561558913, "lat": 41.1554398, "lon": 28.7883822}, {"type": "node", "id": 6561558914, "lat": 41.1553766, "lon": 28.7883901}, {"type": "node", "id": 6561558915, "lat": 41.1553633, "lon": 28.7882044}, {"type": "node", "id": 6639125985, "lat": 41.055045, "lon": 28.7942614, "tags": {"amenity": "restaurant"}}, {"type": "node", "id": 6698649585, "lat": 41.0794161, "lon": 28.9515582, "tags": {"amenity": "restaurant", "name:en": "Ramada Hotel and Restaurant"}}, {"type": "node", "id": 6766376327, "lat": 41.0625717, "lon": 28.8080567, "tags": {"amenity": "restaurant", "cuisine": "turkish", "level": "3", "name": "Bizim Lokanta"}}, {"type": "node", "id": 6766376330, "lat": 41.0625313, "lon": 28.8077831, "tags": {"amenity": "restaurant", "cuisine": "turkish", "level": "3", "name": "Nur Abla"}}, {"type": "node", "id": 6789315797, "lat": 41.2613922, "lon": 28.7389529, "tags": {"amenity": "restaurant", "level": "2", "name": "Tickerdaze"}}, {"type": "node", "id": 6789315814, "lat": 41.2617652, "lon": 28.7389648}, {"type": "node", "id": 6789315815, "lat": 41.261802, "lon": 28.7390296}, {"type": "node", "id": 6789315816, "lat": 41.2617128, "lon": 28.7391064}, {"type": "node", "id": 6793961484, "lat": 41.2617661, "lon": 28.7390828}, {"type": "node", "id": 6793962385, "lat": 41.2617254, "lon": 28.7389614}, {"type": "node", "id": 6793962386, "lat": 41.2617104, "lon": 28.7389894}, {"type": "node", "id": 6794055530, "lat": 41.2621864, "lon": 28.7394748, "tags": {"amenity": "restaurant", "brand": "YO! Sushi", "brand:wikidata": "Q3105441", "brand:wikipedia": "en:YO! Sushi", "cuisine": "sushi", "level": "2", "name": "YO! Sushi"}}, {"type": "node", "id": 6794082496, "lat": 41.2621391, "lon": 28.7443637}, {"type": "node", "id": 6794082497, "lat": 41.2621419, "lon": 28.7444524}, {"type": "node", "id": 6794082498, "lat": 41.2620923, "lon": 28.7444769}, {"type": "node", "id": 6794082499, "lat": 41.2620908, "lon": 28.7443713}, {"type": "node", "id": 6794085815, "lat": 41.2619579, "lon": 28.7464615, "tags": {"amenity": "restaurant", "level": "2", "name": "Brewmark"}}, {"type": "node", "id": 6898125608, "lat": 41.1679951, "lon": 28.9058749, "tags": {"amenity": "restaurant", "name": "Ye\u015fil Orman Kahvalt\u0131 Cafe", "wheelchair": "yes"}}, {"type": "node", "id": 6900852768, "lat": 41.2584204, "lon": 28.7487665, "tags": {"amenity": "restaurant", "name": "Simit Saray\u0131"}}, {"type": "node", "id": 6965465534, "lat": 41.1075795, "lon": 28.8031495, "tags": {"amenity": "restaurant", "name": "Hac\u0131 Sayid"}}, {"type": "node", "id": 6965465562, "lat": 41.1089647, "lon": 28.8027421, "tags": {"amenity": "restaurant", "name": "S\u0131la B\u00f6rek"}}, {"type": "node", "id": 6965465582, "lat": 41.1081798, "lon": 28.8031748, "tags": {"amenity": "restaurant", "name": "Faruk G\u00fcll\u00fco\u011flu"}}, {"type": "node", "id": 6965466904, "lat": 41.1078515, "lon": 28.8031454, "tags": {"amenity": "restaurant", "name": "Ziyade Et Lokantas\u0131"}}, {"type": "node", "id": 6974428985, "lat": 41.0682009, "lon": 28.9461887, "tags": {"amenity": "restaurant", "name": "Lokum Burger", "opening_hours": "PH,Mo-Su 11:00-03:00"}}, {"type": "node", "id": 6984365261, "lat": 41.123964, "lon": 28.7456958}, {"type": "node", "id": 6984365262, "lat": 41.1239627, "lon": 28.7456062}, {"type": "node", "id": 6984365263, "lat": 41.1240621, "lon": 28.7456037}, {"type": "node", "id": 6984365264, "lat": 41.1240618, "lon": 28.7455816}, {"type": "node", "id": 6984365265, "lat": 41.1241698, "lon": 28.7455788}, {"type": "node", "id": 6984365266, "lat": 41.1241714, "lon": 28.7456904}, {"type": "node", "id": 6986327985, "lat": 41.158674, "lon": 28.9129352, "tags": {"amenity": "restaurant", "name": "Burcu B\u00f6rek"}}, {"type": "node", "id": 6986333685, "lat": 41.1588856, "lon": 28.9143187, "tags": {"amenity": "restaurant", "name": "Me\u015fhur Kemer B\u00f6rek\u00e7isi", "name:tr": "Me\u015fhur Kemer B\u00f6rek\u00e7isi"}}, {"type": "node", "id": 7001085084, "lat": 41.0607386, "lon": 28.676511, "tags": {"addr:city": "\u0130stanbul", "addr:district": "Esenyurt", "addr:neighbourhood": "A\u015f\u0131k Veysel Mahallesi", "addr:street": "S\u00fcleyman Demirel Caddesi", "amenity": "restaurant", "cuisine": "kebab", "name": "Cadde D\u00f6ner", "phone": "+90 672 15 14"}}, {"type": "node", "id": 7001101492, "lat": 41.0599966, "lon": 28.6755631, "tags": {"addr:city": "\u0130stanbul", "addr:district": "Esenyurt", "addr:neighbourhood": "A\u015f\u0131k Veysel Mahallesi", "addr:street": "S\u00fcleyman Demirel Caddesi", "amenity": "restaurant", "cuisine": "kebab;turkish", "name": "Emirhan \u0130skender & Kebap D\u00fcnyas\u0131", "phone": "+90 672 46 59"}}, {"type": "node", "id": 7001101494, "lat": 41.0599258, "lon": 28.6754558, "tags": {"addr:city": "\u0130stanbul", "addr:district": "Esenyurt", "addr:neighbourhood": "A\u015f\u0131k Veysel Mahallesi", "addr:street": "S\u00fcleyman Demirel Caddesi", "amenity": "restaurant", "name": "\u00c7\u0131narl\u0131 Bah\u00e7e"}}, {"type": "node", "id": 7001199239, "lat": 41.0580708, "lon": 28.6735207, "tags": {"addr:city": "\u0130stanbul", "addr:district": "Esenyurt", "addr:neighbourhood": "A\u015f\u0131k Veysel Mahallesi", "addr:street": "S\u00fcleyman Demirel Caddesi", "amenity": "restaurant", "cuisine": "turkish", "name": "Qubba"}}, {"type": "node", "id": 7021158624, "lat": 41.0573808, "lon": 28.9144111, "tags": {"amenity": "restaurant", "name": "Asl\u0131 Cafe"}}, {"type": "node", "id": 7047465385, "lat": 41.075559, "lon": 28.9421711, "tags": {"addr:housenumber": "40", "addr:postcode": "34060", "addr:street": "Vardar Bulvar\u0131", "amenity": "restaurant", "cuisine": "turkish", "internet_access": "wlan", "name": "Beyzade K\u00fcnefe", "opening_hours": "Mo-Su 08:00-01:30", "phone": "(0212) 261 67 67", "website": "http://beyzadekunefe.com/"}}, {"type": "node", "id": 7074170487, "lat": 41.1596592, "lon": 28.9131955, "tags": {"amenity": "restaurant", "name": "Karde\u015fler Lokantas\u0131"}}, {"type": "node", "id": 7167523447, "lat": 41.0653494, "lon": 28.793731, "tags": {"amenity": "restaurant", "name": "Mangalba\u015f\u0131"}}, {"type": "node", "id": 7424833529, "lat": 41.0766783, "lon": 28.8891748, "tags": {"amenity": "restaurant", "cuisine": "breakfast", "name": "Saray G\u00fcve\u00e7", "opening_hours": "Mo-Su 06:00-21:00"}}, {"type": "node", "id": 7424857587, "lat": 41.074079, "lon": 28.8875538, "tags": {"amenity": "restaurant", "cuisine": "doner", "name": "Bak\u0131rk\u00f6y D\u00f6ner", "opening_hours": "Mo-Fr 09:00-17:00"}}, {"type": "node", "id": 7580394269, "lat": 41.0627263, "lon": 28.6856306, "tags": {"amenity": "restaurant", "cuisine": "turkish", "name": "etiler marmaris b\u00fcfe"}}, {"type": "node", "id": 7580423490, "lat": 41.064387, "lon": 28.6864241, "tags": {"amenity": "restaurant", "cuisine": "japanese;chinese;thai", "name": "Sushico", "phone": "444 7 874"}}, {"type": "node", "id": 7580601329, "lat": 41.0671339, "lon": 28.692438}, {"type": "node", "id": 7580601330, "lat": 41.0670634, "lon": 28.6923349}, {"type": "node", "id": 7580601331, "lat": 41.0669519, "lon": 28.6924689}, {"type": "node", "id": 7580601332, "lat": 41.0670224, "lon": 28.6925721}, {"type": "node", "id": 7580601333, "lat": 41.0667198, "lon": 28.6921857}, {"type": "node", "id": 7580601334, "lat": 41.0667897, "lon": 28.6923323}, {"type": "node", "id": 7580601335, "lat": 41.0669538, "lon": 28.6921728}, {"type": "node", "id": 7580601336, "lat": 41.0668937, "lon": 28.6920069}, {"type": "node", "id": 7580601344, "lat": 41.067302, "lon": 28.6920757}, {"type": "node", "id": 7580601345, "lat": 41.0672251, "lon": 28.6920515}, {"type": "node", "id": 7580601346, "lat": 41.0671854, "lon": 28.6922731}, {"type": "node", "id": 7580601347, "lat": 41.0672679, "lon": 28.6922659}, {"type": "node", "id": 7838965899, "lat": 41.1184923, "lon": 28.7734029, "tags": {"addr:city": "Istanbul", "addr:district": "Ba\u015fak\u015fehir", "addr:housenumber": "10DA", "addr:neighbourhood": "Park Mavera 1 S\u0130T. T4 APT. NO: 10DA", "addr:postcode": "34494", "addr:street": "Adnan Menderes Bulvar\u0131", "addr:subdistrict": "Kayaba\u015f\u0131 Mahallesi", "amenity": "restaurant", "cuisine": "burger;international;pizza;sandwich;steak_house", "name": "Ono Restaurant", "name:ar": "\u0645\u0637\u0639\u0645 \u0627\u0648\u0646\u0648", "opening_hours": "Mo-Su 10:00-23:59", "opening_hours:covid19": "open", "phone": "+905447709000", "website": "https://onorestoran.com/"}}, {"type": "node", "id": 7905341146, "lat": 41.053022, "lon": 28.9100564, "tags": {"addr:city": "\u0130stanbul", "addr:district": "Bayrampa\u015fa", "addr:housenumber": "1", "addr:neighbourhood": "Muratpa\u015fa", "addr:postcode": "34040", "addr:street": "Eski Edirne Asfalt\u0131", "amenity": "restaurant", "branch": "Pashador", "cuisine": "turkish", "name": "K\u00f6fteci Yusuf", "opening_hours": "Mo-Su 08:00-00:00", "phone": "444 61 62"}}, {"type": "node", "id": 7905341153, "lat": 41.0574401, "lon": 28.9122714, "tags": {"addr:city": "\u0130stanbul", "addr:district": "Gaziosmanpa\u015fa", "addr:housenumber": "21/F", "addr:neighbourhood": "Merkez", "addr:postcode": "34245", "addr:street": "Ali Galip Bey Caddesi", "amenity": "restaurant", "cuisine": "turkish", "name": "Damak Pide & G\u00fcve\u00e7 Salonu"}}, {"type": "node", "id": 7947350068, "lat": 41.0836862, "lon": 28.5964867}, {"type": "node", "id": 7947350069, "lat": 41.0837358, "lon": 28.5962655}, {"type": "node", "id": 7947350076, "lat": 41.0835091, "lon": 28.5963353}, {"type": "node", "id": 7947350077, "lat": 41.083491, "lon": 28.5963727}, {"type": "node", "id": 7947350078, "lat": 41.0833709, "lon": 28.5962325}, {"type": "node", "id": 7947350079, "lat": 41.0833495, "lon": 28.5962143}, {"type": "node", "id": 7947350080, "lat": 41.0834436, "lon": 28.5960202}, {"type": "node", "id": 7947350081, "lat": 41.0837667, "lon": 28.5964647}, {"type": "node", "id": 7947350082, "lat": 41.0833579, "lon": 28.5962592}, {"type": "node", "id": 8001373885, "lat": 41.0540941, "lon": 28.9480406, "tags": {"amenity": "restaurant", "name": "T\u00fcrk\u00e7e Meze teras", "name:en": "Terace restaurant"}}, {"type": "node", "id": 8093325510, "lat": 41.0833984, "lon": 28.5962938}, {"type": "node", "id": 8111395088, "lat": 41.0835783, "lon": 28.5961352}, {"type": "node", "id": 8111395089, "lat": 41.0835911, "lon": 28.5961087}, {"type": "node", "id": 8111395090, "lat": 41.0836397, "lon": 28.5961503}, {"type": "node", "id": 8111395091, "lat": 41.0836284, "lon": 28.5961737}, {"type": "node", "id": 8112116242, "lat": 41.0863069, "lon": 28.9058145}, {"type": "node", "id": 8112116243, "lat": 41.0858469, "lon": 28.9061667}, {"type": "node", "id": 8112116244, "lat": 41.0857591, "lon": 28.9059648}, {"type": "node", "id": 8112116245, "lat": 41.086219, "lon": 28.9056125}, {"type": "node", "id": 8147592201, "lat": 41.0833631, "lon": 28.5962485}, {"type": "node", "id": 8164672859, "lat": 41.0834971, "lon": 28.5960659}, {"type": "node", "id": 8179334983, "lat": 41.0680629, "lon": 28.9445331}, {"type": "node", "id": 8303569166, "lat": 41.0971566, "lon": 28.8095039}, {"type": "node", "id": 8303569167, "lat": 41.0971583, "lon": 28.8094313}, {"type": "node", "id": 8303569168, "lat": 41.0971784, "lon": 28.8093639}, {"type": "node", "id": 8303569169, "lat": 41.0972148, "lon": 28.8093096}, {"type": "node", "id": 8303569170, "lat": 41.0972629, "lon": 28.809275}, {"type": "node", "id": 8303569171, "lat": 41.0974677, "lon": 28.8095145}, {"type": "node", "id": 8303569172, "lat": 41.0974509, "lon": 28.8095755}, {"type": "node", "id": 8303569173, "lat": 41.0974207, "lon": 28.8096267}, {"type": "node", "id": 8303569174, "lat": 41.0973803, "lon": 28.8096632}, {"type": "node", "id": 8303569175, "lat": 41.0973333, "lon": 28.8096815}, {"type": "node", "id": 8303569176, "lat": 41.0973169, "lon": 28.8092643}, {"type": "node", "id": 8303569177, "lat": 41.0973705, "lon": 28.8092787}, {"type": "node", "id": 8303569178, "lat": 41.0974172, "lon": 28.8093165}, {"type": "node", "id": 8303569179, "lat": 41.0974514, "lon": 28.8093732}, {"type": "node", "id": 8303569180, "lat": 41.0974689, "lon": 28.809442}, {"type": "node", "id": 8303569181, "lat": 41.0972844, "lon": 28.8096798}, {"type": "node", "id": 8303569182, "lat": 41.0972382, "lon": 28.8096583}, {"type": "node", "id": 8303569183, "lat": 41.0971992, "lon": 28.8096191}, {"type": "node", "id": 8303569184, "lat": 41.0971711, "lon": 28.8095659}, {"type": "node", "id": 8303569213, "lat": 41.1056927, "lon": 28.8062639}, {"type": "node", "id": 8303569214, "lat": 41.1057246, "lon": 28.8062311}, {"type": "node", "id": 8303569215, "lat": 41.1057629, "lon": 28.8062144}, {"type": "node", "id": 8303569216, "lat": 41.1058032, "lon": 28.8062156}, {"type": "node", "id": 8303571517, "lat": 41.1058409, "lon": 28.8062346}, {"type": "node", "id": 8303571518, "lat": 41.1058438, "lon": 28.8065039}, {"type": "node", "id": 8303571519, "lat": 41.105809, "lon": 28.8065236}, {"type": "node", "id": 8303571520, "lat": 41.1057713, "lon": 28.8065277}, {"type": "node", "id": 8303571521, "lat": 41.1057346, "lon": 28.806516}, {"type": "node", "id": 8303571522, "lat": 41.1057025, "lon": 28.8064895}, {"type": "node", "id": 8303571523, "lat": 41.1058717, "lon": 28.8062693}, {"type": "node", "id": 8303571524, "lat": 41.1058919, "lon": 28.8063156}, {"type": "node", "id": 8303571525, "lat": 41.1058993, "lon": 28.8063682}, {"type": "node", "id": 8303571526, "lat": 41.105893, "lon": 28.8064211}, {"type": "node", "id": 8303571527, "lat": 41.1058738, "lon": 28.8064681}, {"type": "node", "id": 8303571528, "lat": 41.1056782, "lon": 28.806451}, {"type": "node", "id": 8303571529, "lat": 41.1056643, "lon": 28.8064044}, {"type": "node", "id": 8303571530, "lat": 41.1056622, "lon": 28.8063543}, {"type": "node", "id": 8303571531, "lat": 41.105672, "lon": 28.8063058}, {"type": "node", "id": 8314904344, "lat": 41.1019663, "lon": 28.8101654}, {"type": "node", "id": 8314904345, "lat": 41.1019315, "lon": 28.810116}, {"type": "node", "id": 8314904346, "lat": 41.1018869, "lon": 28.8100836}, {"type": "node", "id": 8314904347, "lat": 41.1017387, "lon": 28.8104576}, {"type": "node", "id": 8314904348, "lat": 41.1017889, "lon": 28.8104899}, {"type": "node", "id": 8314904349, "lat": 41.1018444, "lon": 28.8104975}, {"type": "node", "id": 8314904350, "lat": 41.1018369, "lon": 28.8100713}, {"type": "node", "id": 8314904351, "lat": 41.1017865, "lon": 28.8100803}, {"type": "node", "id": 8314904352, "lat": 41.1017408, "lon": 28.8101097}, {"type": "node", "id": 8314904353, "lat": 41.1017042, "lon": 28.8101566}, {"type": "node", "id": 8314904354, "lat": 41.1016805, "lon": 28.8102164}, {"type": "node", "id": 8314904355, "lat": 41.1016721, "lon": 28.8102829}, {"type": "node", "id": 8314904356, "lat": 41.1016797, "lon": 28.8103497}, {"type": "node", "id": 8314904357, "lat": 41.1017027, "lon": 28.8104099}, {"type": "node", "id": 8314904358, "lat": 41.1018985, "lon": 28.8104794}, {"type": "node", "id": 8314904359, "lat": 41.1019447, "lon": 28.810438}, {"type": "node", "id": 8314904360, "lat": 41.1019775, "lon": 28.810378}, {"type": "node", "id": 8314904361, "lat": 41.1019928, "lon": 28.8103069}, {"type": "node", "id": 8314904362, "lat": 41.1019889, "lon": 28.810233}, {"type": "node", "id": 8316248101, "lat": 41.093378, "lon": 28.7751385, "tags": {"amenity": "restaurant", "brand": "Pizza Hut", "brand:wikidata": "Q191615", "brand:wikipedia": "en:Pizza Hut", "cuisine": "pizza", "name": "Pizza Hut"}}, {"type": "node", "id": 8316248106, "lat": 41.0935824, "lon": 28.7744113, "tags": {"amenity": "restaurant", "name": "rifi restaurant"}}, {"type": "node", "id": 8322015979, "lat": 41.0655218, "lon": 28.8247312, "tags": {"amenity": "restaurant", "name": "Co\u015fkun sucuk"}}, {"type": "node", "id": 8422354553, "lat": 41.1323443, "lon": 28.7784602, "tags": {"amenity": "restaurant", "name": "Karadeniz Pide Lahmacun"}}, {"type": "node", "id": 8422354554, "lat": 41.1363082, "lon": 28.7716437, "tags": {"amenity": "restaurant", "name": "Kalender F\u0131r\u0131n"}}, {"type": "node", "id": 8449002917, "lat": 41.0733841, "lon": 28.7799019, "tags": {"amenity": "restaurant", "name": "Kayali", "name:ar": "\u0643\u064a\u0627\u0644\u064a"}}, {"type": "node", "id": 8554024645, "lat": 41.0519281, "lon": 28.9171435, "tags": {"addr:city": "\u0130stanbul", "addr:district": "Ey\u00fcpsultan", "addr:housenumber": "90/A", "addr:neighbourhood": "Rami Yenimahalle", "addr:postcode": "34055", "addr:street": "Re\u015fadiye Caddesi", "amenity": "restaurant", "cuisine": "turkish", "name": "Me\u015fhur Sultanahmet K\u00f6ftecisi"}}, {"type": "node", "id": 8638367631, "lat": 41.0856745, "lon": 28.80448}, {"type": "node", "id": 8638367632, "lat": 41.0860696, "lon": 28.8055287}, {"type": "node", "id": 8638367633, "lat": 41.0858292, "lon": 28.805715}, {"type": "node", "id": 8638367634, "lat": 41.0854054, "lon": 28.8046348}, {"type": "node", "id": 8731034219, "lat": 41.1168531, "lon": 28.7735024, "tags": {"amenity": "restaurant", "name": "Mamoste Kunafe"}}, {"type": "node", "id": 8776769469, "lat": 41.05181, "lon": 28.9179726, "tags": {"addr:city": "\u0130stanbul", "addr:district": "Ey\u00fcpsultan", "addr:housenumber": "7/C", "addr:neighbourhood": "Rami Yenimahalle", "addr:postcode": "34055", "addr:street": "Mazharbey Caddesi", "amenity": "restaurant", "cuisine": "turkish", "name": "Sofram Karadeniz Pidesi"}}, {"type": "node", "id": 8783015046, "lat": 41.0592296, "lon": 28.9068052, "tags": {"amenity": "restaurant", "branch": "Pashacity", "brand": "Pizza Hut", "brand:wikidata": "Q191615", "brand:wikipedia": "en:Pizza Hut", "cuisine": "pizza", "name": "Pizza Hut"}}, {"type": "node", "id": 8805176843, "lat": 41.1181127, "lon": 28.7734026, "tags": {"amenity": "restaurant", "cuisine": "arab", "mobile": "+90 552 299 5832", "name": "Yemen Mandi", "phone": "+90 212 812 4643"}}, {"type": "node", "id": 8805176846, "lat": 41.1183815, "lon": 28.7734079, "tags": {"amenity": "restaurant", "cuisine": "burger", "mobile": "+90 552 330 1034", "name": "\u015eef'im Burger", "phone": "+90 212 812 1034"}}, {"type": "node", "id": 8807029266, "lat": 41.0691117, "lon": 28.666629, "tags": {"amenity": "restaurant", "cuisine": "turkish;fish;meat", "name": "Ziyade Bal\u0131k Restaurant"}}, {"type": "node", "id": 8807029267, "lat": 41.0690443, "lon": 28.6666984, "tags": {"amenity": "restaurant", "cuisine": "seafood", "name": "Ziyade Et Bal\u0131k"}}, {"type": "node", "id": 8901918584, "lat": 41.0519254, "lon": 28.9173106}, {"type": "node", "id": 8901918585, "lat": 41.0518527, "lon": 28.9172006}, {"type": "node", "id": 8901918586, "lat": 41.051951, "lon": 28.9172774}, {"type": "node", "id": 8901918587, "lat": 41.0518801, "lon": 28.9171689}, {"type": "node", "id": 8938769117, "lat": 41.0581398, "lon": 28.9126634, "tags": {"addr:housenumber": "3", "addr:neighbourhood": "Merkez", "addr:postcode": "34245", "addr:street": "Asil Soka\u011f\u0131", "amenity": "restaurant", "name": "Konyal\u0131 K\u00f6\u015fk", "phone": "+90 212 581 5105"}}, {"type": "node", "id": 8981460958, "lat": 41.0636398, "lon": 28.891639, "tags": {"amenity": "restaurant", "cuisine": "steak_house", "name": "Gamze Et Lokantas\u0131"}}, {"type": "node", "id": 8983250048, "lat": 41.0583865, "lon": 28.8959998, "tags": {"amenity": "restaurant", "cuisine": "turkish", "name": "Hepsi Kebap"}}, {"type": "node", "id": 9008618721, "lat": 41.1010432, "lon": 28.916653}, {"type": "node", "id": 9008618722, "lat": 41.1009961, "lon": 28.9167389}, {"type": "node", "id": 9008618723, "lat": 41.10126, "lon": 28.9169934}, {"type": "node", "id": 9008618724, "lat": 41.1013071, "lon": 28.9169075}, {"type": "node", "id": 9067963895, "lat": 41.0664427, "lon": 28.9052337, "tags": {"addr:city": "\u0130stanbul", "addr:district": "Gaziosmanpa\u015fa", "addr:housenumber": "59", "addr:neighbourhood": "H\u00fcrriyet", "addr:postcode": "34250", "addr:street": "Cengiz Topel Caddesi", "amenity": "restaurant", "cuisine": "steak_house", "name": "G\u00fcven Et Lokantas\u0131", "opening_hours": "Mo-Sa 05:00-21:00", "outdoor_seating": "no", "phone": "+90 212 581 2445", "start_date": "1981", "website": "https://guven-et-lokantas.business.site/"}}, {"type": "node", "id": 9071331630, "lat": 41.0582967, "lon": 28.9126303, "tags": {"addr:city": "\u0130stanbul", "addr:district": "Gaziosmanpa\u015fa", "addr:housenumber": "4", "addr:neighbourhood": "Merkez", "addr:postcode": "34245", "addr:street": "Asil Soka\u011f\u0131", "amenity": "restaurant", "cuisine": "steak_house", "email": "info@etchef.com", "name": "EtChef", "phone": "+90 212 578 0578"}}, {"type": "node", "id": 9132964543, "lat": 41.1089223, "lon": 28.9081636, "tags": {"amenity": "restaurant"}}, {"type": "node", "id": 9213072139, "lat": 41.1529679, "lon": 28.6163284, "tags": {"amenity": "restaurant", "name": "Beyzadem Kebap"}}, {"type": "node", "id": 9256536128, "lat": 41.1821183, "lon": 28.7423477, "tags": {"amenity": "restaurant", "name": "\u00d6zen Tablac\u0131 Me\u015fhur Adana B\u00f6rek\u00e7isi"}}, {"type": "node", "id": 9256536773, "lat": 41.1826891, "lon": 28.7425717, "tags": {"amenity": "restaurant", "name": "Erdemler \u0130stasyon Lokantas\u0131"}}, {"type": "node", "id": 9311065238, "lat": 41.0983275, "lon": 28.8999998, "tags": {"amenity": "restaurant", "name": "\u015eahmaran"}}, {"type": "node", "id": 9311088546, "lat": 41.1548592, "lon": 28.673338, "tags": {"amenity": "restaurant"}}, {"type": "node", "id": 9500858792, "lat": 41.0764134, "lon": 28.9448785, "tags": {"amenity": "restaurant", "cuisine": "steak_house", "name": "Ercan Burger"}}, {"type": "node", "id": 9500858794, "lat": 41.0756531, "lon": 28.9435803, "tags": {"amenity": "restaurant", "cuisine": "steak_house", "name": "Ci\u011ferci Bahattin"}}, {"type": "node", "id": 9500858796, "lat": 41.0764478, "lon": 28.9468982, "tags": {"amenity": "restaurant", "cuisine": "turkish", "name": "K\u00f6\u015fem D\u00f6ner"}}, {"type": "node", "id": 9500858797, "lat": 41.0762415, "lon": 28.9470887, "tags": {"amenity": "restaurant", "cuisine": "turkish", "name": "Ekrem \u00c7o\u015fkun D\u00f6ner"}}, {"type": "node", "id": 9500858798, "lat": 41.077101, "lon": 28.9492804}, {"type": "node", "id": 9500858799, "lat": 41.0769896, "lon": 28.9492452}, {"type": "node", "id": 9500858800, "lat": 41.0770422, "lon": 28.9491835, "tags": {"amenity": "restaurant", "cuisine": "turkish", "name": "D\u00fcr\u00fcmc\u00fc Sedat Usta Alibeyk\u00f6y"}}, {"type": "node", "id": 9500858802, "lat": 41.0768582, "lon": 28.9412844, "tags": {"amenity": "restaurant", "cuisine": "turkish", "diet:meat": "yes", "name": "Cadde Kat\u0131k Alibeyk\u00f6y"}}, {"type": "node", "id": 9654484433, "lat": 41.0966624, "lon": 28.863505, "tags": {"amenity": "restaurant", "name": "Gazi \u00c7i\u011fk\u00f6fte"}}, {"type": "node", "id": 9752803053, "lat": 41.055637, "lon": 28.7615741, "tags": {"amenity": "restaurant", "contact:facebook": "https://m.facebook.com/konukeviist/", "cuisine": "moroccan", "internet_access": "wlan", "name": "Dar Diyafa"}}, {"type": "node", "id": 9806127901, "lat": 41.0682913, "lon": 28.9445387}, {"type": "node", "id": 9823343152, "lat": 41.1061638, "lon": 28.8671588, "tags": {"amenity": "restaurant", "name": "BiTas \u00c7orba"}}, {"type": "node", "id": 9848181382, "lat": 41.0746229, "lon": 28.8710009, "tags": {"amenity": "restaurant", "name": "Ramazan Bing\u00f6l Et Sanat\u0131"}}, {"type": "node", "id": 9872859007, "lat": 41.1033358, "lon": 28.8655387, "tags": {"amenity": "restaurant", "name": "K\u00f6fteci Nevzat Usta"}}, {"type": "node", "id": 9872866217, "lat": 41.1051537, "lon": 28.8635927, "tags": {"amenity": "restaurant", "name": "Arsemia \u00c7igk\u00f6fte"}}, {"type": "node", "id": 9877089979, "lat": 41.0919285, "lon": 28.8653197, "tags": {"amenity": "restaurant", "name": "\u015e\u00f6biyet K\u00fcnefe ve Katmer"}}, {"type": "node", "id": 9915302828, "lat": 41.0959656, "lon": 28.8636436, "tags": {"amenity": "restaurant", "name": "By Pilavc\u0131"}}, {"type": "node", "id": 9915302830, "lat": 41.0976504, "lon": 28.8633808, "tags": {"amenity": "restaurant", "name": "G\u00fcl\u00fcm Urfa Kebap Salonu"}}, {"type": "node", "id": 9915302832, "lat": 41.0982432, "lon": 28.8633495, "tags": {"amenity": "restaurant", "name": "Tavuk D\u00fcnyas\u0131"}}, {"type": "node", "id": 9917474261, "lat": 41.1023612, "lon": 28.8692303, "tags": {"amenity": "restaurant", "name": "Kervan Pide Lahmacun"}}, {"type": "node", "id": 9919564948, "lat": 41.0546244, "lon": 28.9146722, "tags": {"addr:city": "\u0130stanbul", "addr:district": "Gaziosmanpa\u015fa", "addr:housenumber": "20/A", "addr:neighbourhood": "Merkez", "addr:postcode": "34245", "addr:street": "Ta\u015fl\u0131 Soka\u011f\u0131", "amenity": "restaurant", "name": "Anadolu Lokantas\u0131"}}, {"type": "node", "id": 10104661354, "lat": 41.0820644, "lon": 28.9154799, "tags": {"amenity": "restaurant", "name": "Ercan Et"}}, {"type": "node", "id": 10104661387, "lat": 41.0824455, "lon": 28.9142051, "tags": {"amenity": "restaurant", "name": "Hamursaray"}}, {"type": "node", "id": 10104661413, "lat": 41.0830328, "lon": 28.9134836, "tags": {"amenity": "restaurant", "name": "Kanat\u00e7\u0131 Onur"}}, {"type": "node", "id": 10104719837, "lat": 41.075643, "lon": 28.9323255, "tags": {"amenity": "restaurant", "mobile": "+905416242727", "name": "Lezzet Diyar\u0131 Y\u00f6resel \u00dcr\u00fcnler"}}, {"type": "node", "id": 10104720015, "lat": 41.0820174, "lon": 28.9178657, "tags": {"amenity": "restaurant", "name": "Cadde Lounge"}}, {"type": "node", "id": 10104720037, "lat": 41.0819022, "lon": 28.9164874, "tags": {"amenity": "restaurant", "name": "\u00d6z Meydan \u0130\u015fkembe"}}, {"type": "node", "id": 10110150974, "lat": 41.0672472, "lon": 28.9391866, "tags": {"amenity": "restaurant", "name": "Arnavut Ci\u011feri"}}, {"type": "node", "id": 10110158063, "lat": 41.0722197, "lon": 28.9392087, "tags": {"amenity": "restaurant", "name": "Fayton B\u00fcfe"}}, {"type": "node", "id": 10110158065, "lat": 41.0721661, "lon": 28.9390638, "tags": {"amenity": "restaurant", "mobile": "+905388538125", "name": "Huzur B\u00fcfe Palan\u0131n Yeri"}}, {"type": "node", "id": 10110158130, "lat": 41.074999, "lon": 28.9394856, "tags": {"amenity": "restaurant", "cuisine": "pizza", "name": "Heaven Pizza"}}, {"type": "node", "id": 10110158181, "lat": 41.0766519, "lon": 28.9378334, "tags": {"amenity": "restaurant", "name": "Pizza Lazza"}}, {"type": "node", "id": 10173099408, "lat": 41.0568259, "lon": 28.9117168, "tags": {"addr:city": "\u0130stanbul", "addr:district": "Gaziosmanpa\u015fa", "addr:housenumber": "50/A", "addr:neighbourhood": "Merkez", "addr:postcode": "34245", "addr:street": "Salihpa\u015fa Caddesi", "amenity": "restaurant", "cuisine": "turkish", "name": "Gaziosmanpa\u015fa \u015eark Sofras\u0131"}}, {"type": "node", "id": 10174286719, "lat": 41.2715977, "lon": 28.4839144, "tags": {"amenity": "restaurant", "name": "Erdem Efendi Lokantas\u0131"}}, {"type": "node", "id": 10236183800, "lat": 41.0604458, "lon": 28.8999424, "tags": {"addr:city": "\u0130stanbul", "addr:district": "Bayrampa\u015fa", "addr:housenumber": "55/A", "addr:neighbourhood": "Kartaltepe", "addr:postcode": "34040", "addr:street": "Bilgehan Caddesi", "amenity": "restaurant", "name": "Avliya Bo\u015fnak Mutfa\u011f\u0131 2"}}, {"type": "node", "id": 10264743109, "lat": 41.1021084, "lon": 28.898057, "tags": {"addr:street": "\u0130smetpa\u015fa Caddesi", "amenity": "restaurant", "internet_access": "wlan", "name": "D\u00fcr\u00fcmc\u00fc Sedat Usta"}}, {"type": "node", "id": 10589826664, "lat": 41.1968138, "lon": 28.8224858, "tags": {"amenity": "restaurant", "name": "Bin Lezzet"}}, {"type": "node", "id": 10592485257, "lat": 41.2254591, "lon": 28.8315019, "tags": {"amenity": "restaurant", "name": "Tur Park Kafe Restaurant"}}, {"type": "node", "id": 10737398242, "lat": 41.146008, "lon": 28.9562412}, {"type": "node", "id": 10737398243, "lat": 41.1458702, "lon": 28.9563116}, {"type": "node", "id": 10737398244, "lat": 41.1459345, "lon": 28.9565338}, {"type": "node", "id": 10737398245, "lat": 41.1460723, "lon": 28.9564634}, {"type": "node", "id": 10860158966, "lat": 41.2288623, "lon": 28.5321593, "tags": {"amenity": "restaurant", "name": "Hanice Et Mangal Kahvalt\u0131"}}, {"type": "node", "id": 10861306831, "lat": 41.2119455, "lon": 28.6428675, "tags": {"amenity": "restaurant", "name": "\u00c7\u0131rako\u011flu Et Mangal"}}, {"type": "node", "id": 10861306832, "lat": 41.2110708, "lon": 28.6427468, "tags": {"amenity": "restaurant", "mobile": "+905369678183", "name": "Dursunk\u00f6y Surak Kokore\u00e7", "operator": "Rakip Usta"}}, {"type": "way", "id": 255541727, "nodes": [2612231645, 2612231646, 2612231647, 2612231648, 2612231645], "tags": {"amenity": "restaurant", "building": "yes", "name": "Beyza Restaurant"}}, {"type": "way", "id": 427975460, "nodes": [4271333579, 4271333580, 4271333581, 4271333582, 4271333579], "tags": {"amenity": "restaurant", "building": "yes", "name": "Bekta\u015fo\u011flu Ekmek"}}, {"type": "way", "id": 483992187, "nodes": [4767418764, 4767418765, 4767418766, 4767418767, 4767418764], "tags": {"amenity": "restaurant", "building": "yes", "building:levels": "1", "name": "Lokma Restaurant"}}, {"type": "way", "id": 548382680, "nodes": [5297777760, 5297777761, 5297777762, 5297777759, 5297777760], "tags": {"amenity": "restaurant", "building": "yes", "name": "Hac\u0131 Sayid"}}, {"type": "way", "id": 626017327, "nodes": [5910277492, 5910277493, 5910277494, 5910277495, 5910277492], "tags": {"air_conditioning": "yes", "amenity": "restaurant", "building": "yes", "cuisine": "home_style_cooking;kebab", "name": "P\u0131nar Esnaf Lokantas\u0131", "smoking": "outside"}}, {"type": "way", "id": 656737863, "nodes": [6151673092, 6151673089, 6151673090, 6151673091, 6151673092], "tags": {"amenity": "restaurant", "building": "yes", "cuisine": "fish", "delivery": "no", "name": "Han\u0131meli Bal\u0131k Restaurant", "outdoor_seating": "yes", "smoking": "outside"}}, {"type": "way", "id": 662218466, "nodes": [6199682221, 6199682222, 6199682223, 6199682224, 6199682221], "tags": {"amenity": "restaurant", "building": "yes", "name": "Midpoint"}}, {"type": "way", "id": 662218467, "nodes": [6199682225, 6199682226, 6199682227, 6199682228, 6199682225], "tags": {"amenity": "restaurant", "building": "yes", "name": "Kasap D\u00f6ner"}}, {"type": "way", "id": 662218468, "nodes": [6199682229, 6199682230, 6199682231, 6199682232, 6199682229], "tags": {"amenity": "restaurant", "building": "yes", "name": "Food Club"}}, {"type": "way", "id": 662218469, "nodes": [6199682233, 6199682234, 6199682235, 6199682236, 6199682233], "tags": {"amenity": "restaurant", "building": "yes", "name": "Huxo"}}, {"type": "way", "id": 682229103, "nodes": [6388870660, 6388870661, 6388870662, 6388870663, 6388870660], "tags": {"amenity": "restaurant", "building": "yes", "cuisine": "turkish", "name": "Durusu Club Restaurant", "website": "https://www.durusuclubhotel.com/en/restaurant"}}, {"type": "way", "id": 685291102, "nodes": [6421656869, 6421656870, 6421656871, 6421656873, 6421656877, 6421656872, 6421656874, 6421656869], "tags": {"amenity": "restaurant", "building": "yes", "name": "Sosyal Lokanta"}}, {"type": "way", "id": 688202324, "nodes": [6452642563, 6452642559, 6452642564, 6452642565, 6452642563], "tags": {"amenity": "restaurant", "building": "yes", "name": "S\u00fctte"}}, {"type": "way", "id": 688202326, "nodes": [6452642569, 6452642570, 6452642571, 6452642572, 9806127901, 6452642569], "tags": {"amenity": "restaurant", "building": "yes", "name": "Catering Service"}}, {"type": "way", "id": 688202327, "nodes": [6452642570, 6452642573, 6452642574, 8179334983, 6452642571, 6452642570], "tags": {"amenity": "restaurant", "building": "yes", "name": "No 55"}}, {"type": "way", "id": 698757136, "nodes": [6561558912, 6561558913, 6561558914, 6561558915, 6561558912], "tags": {"amenity": "restaurant", "building": "yes", "name": "Nokta Restoran"}}, {"type": "way", "id": 723887878, "nodes": [6789315814, 6789315815, 6793961484, 6789315816, 6793962386, 6793962385, 6789315814], "tags": {"amenity": "restaurant", "indoor": "room", "level": "2", "name": "Crousty Co", "room": "restaurant"}}, {"type": "way", "id": 724450210, "nodes": [6794082496, 6794082497, 6794082498, 6794082499, 6794082496], "tags": {"amenity": "restaurant", "indoor": "room", "level": "2", "name": "Munch", "room": "restaurant"}}, {"type": "way", "id": 746324355, "nodes": [6984365261, 6984365262, 6984365263, 6984365264, 6984365265, 6984365266, 6984365261], "tags": {"amenity": "restaurant", "building": "yes", "cuisine": "turkish", "name": "Atilla Et Mangal"}}, {"type": "way", "id": 810789437, "nodes": [7580601329, 7580601330, 7580601331, 7580601332, 7580601329], "tags": {"amenity": "restaurant", "building": "yes", "cuisine": "turkish;fish", "name": "Real Bal\u0131k"}}, {"type": "way", "id": 810789438, "nodes": [7580601333, 7580601334, 7580601335, 7580601336, 7580601333], "tags": {"amenity": "restaurant", "building": "yes", "cuisine": "turkish;kebab", "name": "D\u00fcr\u00fcm \u0130stanbul"}}, {"type": "way", "id": 810789440, "nodes": [7580601344, 7580601345, 7580601346, 7580601347, 7580601344], "tags": {"amenity": "restaurant", "building": "yes", "cuisine": "turkish;kebab", "name": "Mangalba\u015f\u0131"}}, {"type": "way", "id": 851998484, "nodes": [7947350069, 7947350081, 7947350068, 7947350076, 7947350077, 8093325510, 7947350082, 8147592201, 7947350078, 7947350079, 7947350080, 8164672859, 8111395088, 8111395089, 8111395090, 8111395091, 7947350069], "tags": {"amenity": "restaurant", "building": "yes"}}, {"type": "way", "id": 870841534, "nodes": [8112116242, 8112116243, 8112116244, 8112116245, 8112116242], "tags": {"amenity": "restaurant", "building": "yes", "cuisine": "steak_house", "name": "Pa\u015fa K\u00f6\u015fk\u00fc Et Lokantas\u0131"}}, {"type": "way", "id": 893405944, "nodes": [8303569181, 8303569182, 8303569183, 8303569184, 8303569166, 8303569167, 8303569168, 8303569169, 8303569170, 8303569176, 8303569177, 8303569178, 8303569179, 8303569180, 8303569171, 8303569172, 8303569173, 8303569174, 8303569175, 8303569181], "tags": {"amenity": "restaurant", "building": "yes", "layer": "1", "name": "Salon Venedik"}}, {"type": "way", "id": 893405946, "nodes": [8303571528, 8303571529, 8303571530, 8303571531, 8303569213, 8303569214, 8303569215, 8303569216, 8303571517, 8303571523, 8303571524, 8303571525, 8303571526, 8303571527, 8303571518, 8303571519, 8303571520, 8303571521, 8303571522, 8303571528], "tags": {"addr:city": "\u0130stanbul", "addr:district": "Ba\u015fak\u015fehir", "addr:neighbourhood": "Ba\u015fak mahallesi", "amenity": "restaurant", "building": "yes", "cuisine": "chicken;kebab;barbecue", "diet:meat": "yes", "name": "Ba\u015fak Salon"}}, {"type": "way", "id": 894566525, "nodes": [8314904358, 8314904359, 8314904360, 8314904361, 8314904362, 8314904344, 8314904345, 8314904346, 8314904350, 8314904351, 8314904352, 8314904353, 8314904354, 8314904355, 8314904356, 8314904357, 8314904347, 8314904348, 8314904349, 8314904358], "tags": {"amenity": "restaurant", "building": "yes", "cuisine": "turkish", "name": "Ayg\u00fcller"}}, {"type": "way", "id": 931795756, "nodes": [8638367631, 8638367632, 8638367633, 8638367634, 8638367631], "tags": {"addr:city": "\u0130stanbul", "addr:district": "Ba\u015fak\u015fehir", "addr:housenumber": "No:98/B", "addr:neighbourhood": "\u0130kitelli O.S.B Mahallesi", "addr:postcode": "34994", "addr:street": "Atat\u00fcrk Bulvar\u0131", "amenity": "restaurant", "building": "apartments", "cuisine": "turkish", "name": "Tepsi Et Ba\u015fak\u015fehir", "opening_hours": "08:00-02:00", "phone": "+902125495492", "website": "https://tepsiet.com/"}}, {"type": "way", "id": 962360898, "nodes": [8901918584, 8901918586, 8901918587, 8901918585, 8901918584], "tags": {"addr:city": "\u0130stanbul", "addr:district": "Ey\u00fcpsultan", "addr:housenumber": "88", "addr:neighbourhood": "Rami Yenimahalle", "addr:postcode": "34055", "addr:street": "Re\u015fadiye Caddesi", "amenity": "restaurant", "building": "yes", "building:levels": "3", "name": "\u00c7evrem Lokantas\u0131"}}, {"type": "way", "id": 973333876, "nodes": [9008618721, 9008618722, 9008618723, 9008618724, 9008618721], "tags": {"amenity": "restaurant", "building": "yes", "name": "\u0130bb Gazi Sosyal Tesisleri", "operator": "Municipality", "website": "https://tesislerimiz.ibb.istanbul/gazi-sosyal-tesisleri/"}}, {"type": "way", "id": 1030711429, "nodes": [4901697069, 9500858798, 9500858799, 4901695053, 4901697069], "tags": {"amenity": "restaurant", "building": "yes", "cuisine": "turkish", "diet:meat": "yes", "name": "D\u00fcr\u00fcmc\u00fc Sedat Usta Alibeyk\u00f6y"}}, {"type": "way", "id": 1154547345, "nodes": [10737398242, 10737398243, 10737398244, 10737398245, 10737398242], "tags": {"amenity": "restaurant", "building": "yes"}}]}